[{"StationId":725,"StationOrder":0,"StationDirection":0,"RouteId":2,"RouteVarId":4,"StationCode":"BX 46","StationName":"Bến xe Miền Tây","pathPoints":"","Address":"Bến xe Miền Tây, đường Kinh Dương Vương, Quận Bình Tân","Lat":10.740705,"Lng":106.618317,"K":0},{"StationId":140,"StationOrder":1,"StationDirection":0,"RouteId":2,"RouteVarId":4,"StationCode":"QBT 010","StationName":"Kinh Dương Vương","pathPoints":"106.61814880,10.74088955 106.62113190,10.74335957 106.62306976,10.74499035","Address":"7, đường Kinh Dương Vương, Quận Bình Tân","Lat":10.744919,"Lng":106.623162,"K":0},{"StationId":141,"StationOrder":2,"StationDirection":0,"RouteId":2,"RouteVarId":4,"StationCode":"Q6 031","StationName":"Mũi Tàu Phú Lâm","pathPoints":"106.62316132,10.74491882 106.62312317,10.74497700 106.62328339,10.74512482 106.62362671,10.74524593 106.62369537,10.74536228 106.62380981,10.74534607 106.62391663,10.74541473 106.62408447,10.74534607 106.62438202,10.74541950 106.62446594,10.74536228","Address":"1031C, đường Hậu Giang, Quận 6","Lat":10.745362,"Lng":106.624466,"K":0},{"StationId":143,"StationOrder":3,"StationDirection":0,"RouteId":2,"RouteVarId":4,"StationCode":"Q6 032","StationName":"Đồng Quê","pathPoints":"106.62446594,10.74536228 106.62448883,10.74542999 106.62801361,10.74635792 106.62808990,10.74631119","Address":"919, đường Hậu Giang, Quận 6","Lat":10.746311,"Lng":106.628092,"K":0},{"StationId":145,"StationOrder":4,"StationDirection":0,"RouteId":2,"RouteVarId":4,"StationCode":"Q6 033","StationName":"Metro Bình Phú","pathPoints":"106.62808990,10.74631119 106.62810516,10.74638939 106.63345337,10.74765491 106.63352966,10.74762344 106.63352966,10.74762344","Address":"733-735, đường Hậu Giang, Quận 6","Lat":10.747623,"Lng":106.633526,"K":0},{"StationId":142,"StationOrder":5,"StationDirection":0,"RouteId":2,"RouteVarId":4,"StationCode":"Q6 034","StationName":"Hoàng Gia","pathPoints":"106.63352966,10.74762344 106.63352203,10.74769115 106.63610840,10.74831867 106.63619232,10.74825954","Address":"517-519, đường Hậu Giang, Quận 6","Lat":10.74826,"Lng":106.636192,"K":0},{"StationId":144,"StationOrder":6,"StationDirection":0,"RouteId":2,"RouteVarId":4,"StationCode":"Q6 035","StationName":"Chợ Hoa","pathPoints":"106.63619232,10.74825954 106.63619232,10.74825954 106.63617706,10.74831963 106.63828278,10.74886131 106.63835907,10.74881363 106.63835907,10.74881363","Address":"411, đường Hậu Giang, Quận 6","Lat":10.748814,"Lng":106.638359,"K":0},{"StationId":146,"StationOrder":7,"StationDirection":0,"RouteId":2,"RouteVarId":4,"StationCode":"Q6 059","StationName":"Chợ Minh Phụng","pathPoints":"106.63835907,10.74881363 106.63840485,10.74889278 106.64095306,10.74954605 106.64232635,10.74977303 106.64230347,10.74998379 106.64250946,10.75084305 106.64261627,10.75086880","Address":"122, đường Minh Phụng, Quận 6","Lat":10.750869,"Lng":106.642619,"K":0},{"StationId":147,"StationOrder":8,"StationDirection":0,"RouteId":2,"RouteVarId":4,"StationCode":"Q6 060","StationName":"Vòng xoay cây gõ","pathPoints":"106.64261627,10.75086880 106.64261627,10.75089359 106.64252472,10.75092220 106.64302826,10.75347328 106.64310455,10.75347042 106.64309692,10.75346756","Address":"242, đường Minh Phụng, Quận 6","Lat":10.753468,"Lng":106.643096,"K":0},{"StationId":148,"StationOrder":9,"StationDirection":0,"RouteId":2,"RouteVarId":4,"StationCode":"Q11 008","StationName":"Cầu vượt","pathPoints":"106.64309692,10.75346756 106.64331818,10.75471687 106.64431763,10.75520134","Address":"1559, đường Đường 3/2, Quận 11","Lat":10.755201,"Lng":106.644314,"K":0},{"StationId":150,"StationOrder":10,"StationDirection":0,"RouteId":2,"RouteVarId":4,"StationCode":"Q11 009","StationName":"Trạm 46","pathPoints":"106.64431763,10.75520134 106.64599609,10.75608158","Address":"1479, đường Đường 3/2, Quận 11","Lat":10.756082,"Lng":106.645993,"K":0},{"StationId":149,"StationOrder":11,"StationDirection":0,"RouteId":2,"RouteVarId":4,"StationCode":"Q11 010","StationName":"Xóm Đất","pathPoints":"106.64599609,10.75608158 106.64703369,10.75668812 106.64817047,10.75725746","Address":"1375, đường Đường 3/2, Quận 11","Lat":10.757257,"Lng":106.648171,"K":0},{"StationId":151,"StationOrder":12,"StationDirection":0,"RouteId":2,"RouteVarId":4,"StationCode":"Q11 011","StationName":"Hương Mãn Lầu","pathPoints":"106.64817047,10.75725746 106.64902496,10.75784683 106.65029907,10.75846863","Address":"1293, đường Đường 3/2, Quận 11","Lat":10.758469,"Lng":106.650301,"K":0},{"StationId":152,"StationOrder":13,"StationDirection":0,"RouteId":2,"RouteVarId":4,"StationCode":"Q11 012","StationName":"Đức Phát","pathPoints":"106.65029907,10.75846863 106.65210724,10.75945377","Address":"1231, đường Đường 3/2, Quận 11","Lat":10.759454,"Lng":106.652108,"K":0},{"StationId":153,"StationOrder":14,"StationDirection":0,"RouteId":2,"RouteVarId":4,"StationCode":"Q11 013","StationName":"Chợ Thiết","pathPoints":"106.65210724,10.75945377 106.65376282,10.76037121","Address":"1163, đường Đường 3/2, Quận 11","Lat":10.760371,"Lng":106.653763,"K":0},{"StationId":154,"StationOrder":15,"StationDirection":0,"RouteId":2,"RouteVarId":4,"StationCode":"Q11 014","StationName":"Lê Đại Hành","pathPoints":"106.65376282,10.76037121 106.65600586,10.76156235","Address":"1007 (1029), đường Đường 3/2, Quận 11","Lat":10.761562,"Lng":106.656006,"K":0},{"StationId":155,"StationOrder":16,"StationDirection":0,"RouteId":2,"RouteVarId":4,"StationCode":"Q11 015","StationName":"Phú Thọ","pathPoints":"106.65600586,10.76156235 106.65686035,10.76210022 106.65753937,10.76245022","Address":"957, đường Đường 3/2, Quận 11","Lat":10.762574,"Lng":106.657881,"K":0},{"StationId":156,"StationOrder":17,"StationDirection":0,"RouteId":2,"RouteVarId":4,"StationCode":"Q10 009","StationName":"Ngã ba Nguyễn Kim","pathPoints":"106.65753937,10.76245022 106.66102600,10.76434994 106.66107941,10.76434040","Address":"781, đường Đường 3/2, Quận 10","Lat":10.76434,"Lng":106.661078,"K":0},{"StationId":157,"StationOrder":18,"StationDirection":0,"RouteId":2,"RouteVarId":4,"StationCode":"Q10 010","StationName":"Nhà thờ tin lành Nguyễn Tri Phương","pathPoints":"106.66107941,10.76434040 106.66108704,10.76439762 106.66457367,10.76624203 106.66462708,10.76623154 106.66462708,10.76623154","Address":"635, đường Đường 3/2, Quận 10","Lat":10.766232,"Lng":106.664627,"K":0},{"StationId":158,"StationOrder":19,"StationDirection":0,"RouteId":2,"RouteVarId":4,"StationCode":"Q10 011","StationName":"Bệnh viện Nhi Đồng 1","pathPoints":"106.66462708,10.76623154 106.67060852,10.76951790","Address":"Đối diện 350, đường Đường 3/2, Quận 10","Lat":10.769518,"Lng":106.670609,"K":0},{"StationId":160,"StationOrder":20,"StationDirection":0,"RouteId":2,"RouteVarId":4,"StationCode":"Q10 012","StationName":"Nhà thờ Vinh Sơn","pathPoints":"106.67060852,10.76951790 106.67224884,10.77039719","Address":"273-275, đường Đường 3/2, Quận 10","Lat":10.770269,"Lng":106.672166,"K":0},{"StationId":159,"StationOrder":21,"StationDirection":0,"RouteId":2,"RouteVarId":4,"StationCode":"Q10 013","StationName":"Nhà hát Hòa Bình","pathPoints":"106.67224884,10.77039719 106.67315674,10.77084827 106.67476654,10.77188873","Address":"183A-183B, đường Đường 3/2, Quận 10","Lat":10.771855,"Lng":106.674805,"K":0},{"StationId":162,"StationOrder":22,"StationDirection":0,"RouteId":2,"RouteVarId":4,"StationCode":"Q10 014","StationName":"Học viện Hành chính Quốc gia","pathPoints":"106.67476654,10.77188873 106.67707062,10.77332211","Address":"113, đường Đường 3/2, Quận 10","Lat":10.77323,"Lng":106.677015,"K":0},{"StationId":161,"StationOrder":23,"StationDirection":0,"RouteId":2,"RouteVarId":4,"StationCode":"Q3 018","StationName":"Rạp Đại Đồng","pathPoints":"106.67707062,10.77332211 106.67781067,10.77377796 106.67825317,10.77333069 106.67922974,10.77248192 106.67994690,10.77182007","Address":"75, đường Cao Thắng, Quận 3","Lat":10.77182,"Lng":106.679947,"K":0},{"StationId":163,"StationOrder":24,"StationDirection":0,"RouteId":2,"RouteVarId":4,"StationCode":"Q3 019","StationName":"Nguyễn Đình Chiểu","pathPoints":"106.67994690,10.77182007 106.68129730,10.77072144 106.68252563,10.76956558","Address":"31, đường Cao Thắng, Quận 3","Lat":10.769566,"Lng":106.682526,"K":0},{"StationId":164,"StationOrder":25,"StationDirection":0,"RouteId":2,"RouteVarId":4,"StationCode":"Q1 007","StationName":"Chợ Thái Bình","pathPoints":"106.68252563,10.76956558 106.68300629,10.76925659 106.68401337,10.76839733 106.68415833,10.76828671 106.68430328,10.76825047 106.68447113,10.76826572 106.68462372,10.76828671 106.68686676,10.76727009 106.68765259,10.76686287","Address":"A43, đường Cống Quỳnh, Quận 1","Lat":10.766863,"Lng":106.687653,"K":0},{"StationId":7276,"StationOrder":26,"StationDirection":0,"RouteId":2,"RouteVarId":4,"StationCode":"Q1 190","StationName":"Tôn Thất Tùng","pathPoints":"106.68765259,10.76686287 106.68765259,10.76686287 106.68814087,10.76671696 106.68826294,10.76653767 106.68850708,10.76664257 106.68847656,10.76681709 106.69087982,10.76770210 106.69094086,10.76766968 106.69094086,10.76766968","Address":"277-279-275Y, đường Phạm Ngũ Lão, Quận 1","Lat":10.76767,"Lng":106.690941,"K":0},{"StationId":7277,"StationOrder":27,"StationDirection":0,"RouteId":2,"RouteVarId":4,"StationCode":"Q1 191","StationName":"Nguyễn Thị Nghĩa","pathPoints":"106.69094086,10.76766968 106.69090271,10.76773357 106.69362640,10.76885128 106.69370270,10.76878834","Address":"187, đường Phạm Ngũ Lão, Quận 1","Lat":10.768788,"Lng":106.693699,"K":0},{"StationId":7278,"StationOrder":28,"StationDirection":0,"RouteId":2,"RouteVarId":4,"StationCode":"Q1 192","StationName":"Trường Emst Thalmann","pathPoints":"106.69370270,10.76878834 106.69366455,10.76887226 106.69554138,10.76958847 106.69558716,10.76950359","Address":"Trường Emst Thalmann, đường Phạm Ngũ Lão, Quận 1","Lat":10.769504,"Lng":106.695587,"K":0},{"StationId":28,"StationOrder":29,"StationDirection":0,"RouteId":2,"RouteVarId":4,"StationCode":"Q1 016","StationName":"Hàm Nghi E","pathPoints":"106.69558716,10.76950359 106.69623566,10.76980972 106.69644165,10.76913071 106.69766998,10.77048969 106.69917297,10.77094269 106.70195770,10.77082157","Address":"89A, đường Hàm Nghi, Quận 1","Lat":10.770822,"Lng":106.70196,"K":0},{"StationId":32,"StationOrder":30,"StationDirection":0,"RouteId":2,"RouteVarId":4,"StationCode":"Q1 017","StationName":"Hồ Tùng Mậu","pathPoints":"106.70195770,10.77082157 106.70407104,10.77072239","Address":"67, đường Hàm Nghi, Quận 1","Lat":10.770722,"Lng":106.704074,"K":0},{"StationId":31,"StationOrder":31,"StationDirection":0,"RouteId":2,"RouteVarId":4,"StationCode":"Q1 024","StationName":"Bến Bạch Đằng","pathPoints":"106.70407104,10.77072239 106.70407104,10.77072239 106.70407104,10.77072239 106.70407104,10.77072239 106.70407104,10.77072239 106.70450592,10.77070618 106.70497894,10.76976299 106.70516205,10.76939011 106.70593262,10.76953983 106.70606995,10.76959991 106.70616150,10.76972961 106.70639038,10.77054977 106.70635986,10.77071953 106.70633698,10.77099037 106.70639038,10.77120972 106.70636749,10.77126026 106.70639038,10.77161789 106.70652008,10.77293015 106.70661163,10.77388668 106.70664978,10.77387810 106.70664978,10.77387810 106.70664978,10.77387810 106.70664978,10.77387810 106.70664978,10.77387810","Address":"Bến thủy nội địa Thủ Thiêm, đường Tôn Đức Thắng, Quận 1","Lat":10.773878,"Lng":106.706648,"K":0},{"StationId":34,"StationOrder":32,"StationDirection":0,"RouteId":2,"RouteVarId":4,"StationCode":"Q1 057","StationName":"Công Trường Mê Linh","pathPoints":"106.70664978,10.77387810 106.70672607,10.77569675 106.70666504,10.77578640 106.70659637,10.77584934 106.70645905,10.77585983 106.70631409,10.77583313 106.70619202,10.77578831 106.70606995,10.77574348 106.70571899,10.77604771","Address":"2, đường Hai Bà Trưng, Quận 1","Lat":10.776048,"Lng":106.705719,"K":0},{"StationId":165,"StationOrder":33,"StationDirection":0,"RouteId":2,"RouteVarId":4,"StationCode":"BX 07","StationName":"Công Trường Mê Linh","pathPoints":"106.70571899,10.77604771 106.70514679,10.77656078 106.70542908,10.77680874","Address":"CÔNG TRƯỜNG MÊ LINH, đường Đông Du, Quận 1","Lat":10.776809,"Lng":106.705429,"K":0},{"StationId":33,"StationOrder":0,"StationDirection":1,"RouteId":2,"RouteVarId":3,"StationCode":"BX 06","StationName":"Công Trường Mê Linh","pathPoints":"","Address":"Công trường Mê Linh, đường Thi Sách, Quận 1","Lat":10.77679,"Lng":106.705856,"K":0},{"StationId":79,"StationOrder":1,"StationDirection":1,"RouteId":2,"RouteVarId":3,"StationCode":"Q1 031","StationName":"Bến Bạch Đằng","pathPoints":"106.70585632,10.77678967 106.70597076,10.77662945 106.70631409,10.77582836 106.70618439,10.77578068 106.70606232,10.77570152 106.70598602,10.77556515 106.70592499,10.77536964 106.70594788,10.77519608 106.70600891,10.77503204 106.70613098,10.77490616 106.70627594,10.77482700 106.70645905,10.77478504 106.70652008,10.77466869 106.70635986,10.77329922","Address":"21, đường Tôn Đức Thắng, Quận 1","Lat":10.773299,"Lng":106.706359,"K":0},{"StationId":76,"StationOrder":2,"StationDirection":1,"RouteId":2,"RouteVarId":3,"StationCode":"Q1 020","StationName":"Cục Hải Quan Thành Phố","pathPoints":"106.70635986,10.77329922 106.70622253,10.77097988 106.70610809,10.77087498 106.70593262,10.77085304 106.70555115,10.77088547","Address":"2-4, đường Hàm Nghi, Quận 1","Lat":10.770885,"Lng":106.705549,"K":0},{"StationId":78,"StationOrder":3,"StationDirection":1,"RouteId":2,"RouteVarId":3,"StationCode":"Q1 021","StationName":"Hàm Nghi H","pathPoints":"106.70555115,10.77088547 106.70302582,10.77097988","Address":"84, đường Hàm Nghi, Quận 1","Lat":10.77098,"Lng":106.703027,"K":0},{"StationId":80,"StationOrder":4,"StationDirection":1,"RouteId":2,"RouteVarId":3,"StationCode":"Q1 022","StationName":"Hàm Nghi K","pathPoints":"106.70302582,10.77097988 106.70166016,10.77104759","Address":"122, đường Hàm Nghi, Quận 1","Lat":10.771054,"Lng":106.701676,"K":0},{"StationId":1944,"StationOrder":5,"StationDirection":1,"RouteId":2,"RouteVarId":3,"StationCode":"Q1 040","StationName":"Khách sạn New world","pathPoints":"106.70167542,10.77105427 106.70167542,10.77105427 106.70162201,10.77103233 106.69934082,10.77114296 106.69910431,10.77123260 106.69869995,10.77129078 106.69879150,10.77155972 106.69876099,10.77180195 106.69848633,10.77193356 106.69822693,10.77187538 106.69809723,10.77174377 106.69802856,10.77157593 106.69778442,10.77162838 106.69666290,10.77115917 106.69585419,10.77121162 106.69582367,10.77128983 106.69582367,10.77128983","Address":"40, đường Phạm Hồng Thái, Quận 1","Lat":10.77129,"Lng":106.695824,"K":0},{"StationId":85,"StationOrder":6,"StationDirection":1,"RouteId":2,"RouteVarId":3,"StationCode":"Q1 145","StationName":"Nguyễn Trãi","pathPoints":"106.69582367,10.77128983 106.69368744,10.77133274 106.69329834,10.77145958 106.69312286,10.77147579 106.69302368,10.77122211 106.69268036,10.77097034","Address":"22, đường Nguyễn Trãi, Quận 1","Lat":10.77097,"Lng":106.69268,"K":0},{"StationId":87,"StationOrder":7,"StationDirection":1,"RouteId":2,"RouteVarId":3,"StationCode":"Q1 146","StationName":"Tôn Thất Tùng","pathPoints":"106.69268036,10.77097034 106.69268036,10.77097034 106.69264221,10.77089024 106.69084167,10.76965714 106.69078827,10.76964569 106.69078827,10.76964569","Address":"136, đường Nguyễn Trãi, Quận 1","Lat":10.769646,"Lng":106.690788,"K":0},{"StationId":86,"StationOrder":8,"StationDirection":1,"RouteId":2,"RouteVarId":3,"StationCode":"Q1 147","StationName":"Nhà thờ Huyện Sỹ","pathPoints":"106.69078827,10.76964569 106.69022369,10.76924133 106.68971252,10.76882458 106.68917084,10.76820278 106.68894958,10.76809692 106.68880463,10.76796532 106.68859100,10.76769161","Address":"206Bis, đường Nguyễn Trãi, Quận 1","Lat":10.767692,"Lng":106.688591,"K":0},{"StationId":88,"StationOrder":9,"StationDirection":1,"RouteId":2,"RouteVarId":3,"StationCode":"Q1 006","StationName":"Chợ Thái Bình","pathPoints":"106.68859100,10.76769161 106.68859100,10.76769161 106.68825531,10.76684284 106.68809509,10.76678467 106.68780518,10.76689529 106.68778992,10.76694298 106.68778992,10.76694298","Address":"244, đường Cống Quỳnh, Quận 1","Lat":10.766943,"Lng":106.687793,"K":0},{"StationId":89,"StationOrder":10,"StationDirection":1,"RouteId":2,"RouteVarId":3,"StationCode":"Q3 072","StationName":"Trung ương Hội Chữ thập đỏ TP","pathPoints":"106.68778992,10.76694298 106.68775177,10.76692200 106.68444824,10.76831913 106.68432617,10.76829243 106.68373871,10.76768112 106.68365479,10.76772308","Address":"464 - 466, đường Nguyễn Thị Minh Khai, Quận 3","Lat":10.767723,"Lng":106.683657,"K":0},{"StationId":90,"StationOrder":11,"StationDirection":1,"RouteId":2,"RouteVarId":3,"StationCode":"Q3 073","StationName":"Nhà sách Minh Khai","pathPoints":"106.68365479,10.76772308 106.68371582,10.76767063 106.68241119,10.76633167 106.68238068,10.76639462","Address":"488, đường Nguyễn Thị Minh Khai, Quận 3","Lat":10.766395,"Lng":106.68238,"K":0},{"StationId":91,"StationOrder":12,"StationDirection":1,"RouteId":2,"RouteVarId":3,"StationCode":"Q3 074","StationName":"Chợ Bàn Cờ","pathPoints":"106.68242645,10.76641560 106.68222809,10.76619530 106.68032074,10.76771832","Address":"82-84, đường Nguyễn Thiện Thuật, Quận 3","Lat":10.767317,"Lng":106.68084,"K":0},{"StationId":92,"StationOrder":13,"StationDirection":1,"RouteId":2,"RouteVarId":3,"StationCode":"Q3 021","StationName":"Cao Thắng","pathPoints":"106.68032074,10.76771832 106.67680359,10.77058983 106.67723846,10.77106953 106.67750549,10.77124882","Address":"503-507, đường Điện Biên Phủ, Quận 3","Lat":10.771164,"Lng":106.67738,"K":0},{"StationId":93,"StationOrder":14,"StationDirection":1,"RouteId":2,"RouteVarId":3,"StationCode":"Q10 089","StationName":"Cao Thắng","pathPoints":"106.67750549,10.77124882 106.67764282,10.77149105 106.67794800,10.77177620 106.67830658,10.77203941 106.67861176,10.77234459 106.67908478,10.77274513 106.67835999,10.77336216","Address":"156, đường Cao Thắng, Quận 10","Lat":10.773362,"Lng":106.67836,"K":0},{"StationId":95,"StationOrder":15,"StationDirection":1,"RouteId":2,"RouteVarId":3,"StationCode":"Q10 003","StationName":"Học viện hành chính quốc gia","pathPoints":"106.67835999,10.77336216 106.67770386,10.77392578 106.67671967,10.77335644","Address":"10, đường Đường 3/2, Quận 10","Lat":10.773457,"Lng":106.676951,"K":0},{"StationId":94,"StationOrder":16,"StationDirection":1,"RouteId":2,"RouteVarId":3,"StationCode":"Q10 004","StationName":"Học viện hành chính quốc gia","pathPoints":"106.67671967,10.77335644 106.67572021,10.77264309","Address":"Kế 10A, đường Đường 3/2, Quận 10","Lat":10.772661,"Lng":106.675701,"K":0},{"StationId":97,"StationOrder":17,"StationDirection":1,"RouteId":2,"RouteVarId":3,"StationCode":"Q10 005","StationName":"Nhà hát Hòa Bình","pathPoints":"106.67572021,10.77264309 106.67420197,10.77171230","Address":"240, đường Đường 3/2, Quận 10","Lat":10.771712,"Lng":106.674202,"K":0},{"StationId":96,"StationOrder":18,"StationDirection":1,"RouteId":2,"RouteVarId":3,"StationCode":"Q10 006","StationName":"Nhà thờ Vinh Sơn","pathPoints":"106.67420197,10.77171230 106.67306519,10.77099037 106.67205811,10.77042961","Address":"270, đường Đường 3/2, Quận 10","Lat":10.770521,"Lng":106.67215,"K":0},{"StationId":99,"StationOrder":19,"StationDirection":1,"RouteId":2,"RouteVarId":3,"StationCode":"Q10 007","StationName":"Bệnh viện Nhi Đồng 1","pathPoints":"106.67205811,10.77042961 106.67040253,10.76953030","Address":"356, đường Đường 3/2, Quận 10","Lat":10.769578,"Lng":106.670364,"K":0},{"StationId":98,"StationOrder":20,"StationDirection":1,"RouteId":2,"RouteVarId":3,"StationCode":"Q10 008","StationName":"Ngã ba Nguyễn Kim","pathPoints":"106.67040253,10.76953030 106.66174316,10.76497173","Address":"626-628, đường Đường 3/2, Quận 10","Lat":10.764972,"Lng":106.661743,"K":0},{"StationId":100,"StationOrder":21,"StationDirection":1,"RouteId":2,"RouteVarId":3,"StationCode":"Q11 001","StationName":"Nhà sách Phú Thọ","pathPoints":"106.66174316,10.76497173 106.66174316,10.76497173 106.66174316,10.76497173 106.66176605,10.76486683 106.65847778,10.76309109 106.65840912,10.76311493 106.65840912,10.76311493 106.65840912,10.76311493","Address":"940 (6B), đường Đường 3/2, Quận 11","Lat":10.763115,"Lng":106.658409,"K":0},{"StationId":101,"StationOrder":22,"StationDirection":1,"RouteId":2,"RouteVarId":3,"StationCode":"Q11 002","StationName":"Chợ Thiết","pathPoints":"106.65840912,10.76311493 106.65707397,10.76233196 106.65602875,10.76184177","Address":"970, đường Đường 3/2, Quận 11","Lat":10.761842,"Lng":106.65603,"K":0},{"StationId":103,"StationOrder":23,"StationDirection":1,"RouteId":2,"RouteVarId":3,"StationCode":"Q11 003","StationName":"Đức Phát","pathPoints":"106.65602875,10.76184177 106.65479279,10.76116180 106.65355682,10.76053524","Address":"1114A-1116A, đường Đường 3/2, Quận 11","Lat":10.760535,"Lng":106.653557,"K":0},{"StationId":105,"StationOrder":24,"StationDirection":1,"RouteId":2,"RouteVarId":3,"StationCode":"Q11 004","StationName":"Xóm Đất","pathPoints":"106.65355682,10.76053524 106.65188599,10.75958061 106.65015411,10.75864792","Address":"1196, đường Đường 3/2, Quận 11","Lat":10.758648,"Lng":106.650156,"K":0},{"StationId":104,"StationOrder":25,"StationDirection":1,"RouteId":2,"RouteVarId":3,"StationCode":"Q11 005","StationName":"Trạm 46","pathPoints":"106.65015411,10.75864792 106.64894104,10.75791550 106.64783478,10.75735664","Address":"1274, đường Đường 3/2, Quận 11","Lat":10.757357,"Lng":106.647838,"K":0},{"StationId":107,"StationOrder":26,"StationDirection":1,"RouteId":2,"RouteVarId":3,"StationCode":"Q11 006","StationName":"Trạm 41","pathPoints":"106.64783478,10.75735664 106.64603424,10.75634766","Address":"1354, đường Đường 3/2, Quận 11","Lat":10.756348,"Lng":106.646034,"K":0},{"StationId":106,"StationOrder":27,"StationDirection":1,"RouteId":2,"RouteVarId":3,"StationCode":"Q11 007","StationName":"Vòng xoay cây gõ","pathPoints":"106.64603424,10.75634766 106.64385986,10.75520706","Address":"1456, đường Đường 3/2, Quận 11","Lat":10.755207,"Lng":106.643858,"K":0},{"StationId":625,"StationOrder":28,"StationDirection":1,"RouteId":2,"RouteVarId":3,"StationCode":"Q11 097","StationName":"Chùa Huê Lâm","pathPoints":"106.64385986,10.75520706 106.64281464,10.75456905 106.64262390,10.75447464 106.64238739,10.75440598 106.64122772,10.75455761","Address":"690 (138), đường Hồng Bàng, Quận 11","Lat":10.754558,"Lng":106.641229,"K":0},{"StationId":623,"StationOrder":29,"StationDirection":1,"RouteId":2,"RouteVarId":3,"StationCode":"Q11 098","StationName":"Tân Hóa","pathPoints":"106.64122772,10.75455761 106.64122772,10.75455761 106.64121246,10.75447941 106.63842773,10.75477028 106.63842773,10.75477028","Address":"786, đường Hồng Bàng, Quận 11","Lat":10.75477,"Lng":106.638428,"K":0},{"StationId":626,"StationOrder":30,"StationDirection":1,"RouteId":2,"RouteVarId":3,"StationCode":"Q6 038","StationName":"Trường Mạc Đỉnh Chi","pathPoints":"106.63842773,10.75477028 106.63842773,10.75477028 106.63842773,10.75477028 106.63742828,10.75472736 106.63700104,10.75477982 106.63661194,10.75482178 106.63609314,10.75479031 106.63559723,10.75467968 106.63557434,10.75473213 106.63557434,10.75473213 106.63557434,10.75473213","Address":"832-834, đường Hồng Bàng, Quận 6","Lat":10.754732,"Lng":106.635574,"K":0},{"StationId":113,"StationOrder":31,"StationDirection":1,"RouteId":2,"RouteVarId":3,"StationCode":"Q6 027","StationName":"Nguyễn Văn Luông","pathPoints":"106.63557434,10.75473213 106.63557434,10.75473213 106.63558960,10.75467968 106.63511658,10.75447941 106.63469696,10.75421619 106.63452911,10.75428963 106.63436127,10.75430012 106.63419342,10.75417423 106.63412476,10.75398922 106.63414001,10.75382614 106.63423157,10.75370502 106.63438416,10.75363064 106.63454437,10.75363636 106.63540649,10.75016308 106.63522339,10.74811268 106.63467407,10.74800205 106.63466644,10.74803925 106.63466644,10.74803925","Address":"620-622, đường Hậu Giang, Quận 6","Lat":10.748039,"Lng":106.634663,"K":0},{"StationId":112,"StationOrder":32,"StationDirection":1,"RouteId":2,"RouteVarId":3,"StationCode":"Q6 028","StationName":"Bình Phú","pathPoints":"106.63466644,10.74803925 106.63468170,10.74798679 106.63332367,10.74763870 106.63330841,10.74769688","Address":"730-732, đường Hậu Giang, Quận 6","Lat":10.747697,"Lng":106.633312,"K":0},{"StationId":114,"StationOrder":33,"StationDirection":1,"RouteId":2,"RouteVarId":3,"StationCode":"Q6 029","StationName":"Đồng Quê","pathPoints":"106.63330841,10.74769688 106.63333130,10.74764347 106.63138580,10.74716473 106.62838745,10.74645805 106.62837982,10.74651146","Address":"910, đường Hậu Giang, Quận 6","Lat":10.746511,"Lng":106.628382,"K":0},{"StationId":115,"StationOrder":34,"StationDirection":1,"RouteId":2,"RouteVarId":3,"StationCode":"Q6 030","StationName":"Mũi Tàu Phú Lâm","pathPoints":"106.62837982,10.74651146 106.62840271,10.74646378 106.62686920,10.74608898 106.62470245,10.74548340 106.62468719,10.74553585","Address":"1054, đường Hậu Giang, Quận 6","Lat":10.745536,"Lng":106.624686,"K":0},{"StationId":117,"StationOrder":35,"StationDirection":1,"RouteId":2,"RouteVarId":3,"StationCode":"QBT 011","StationName":"Vòng xoay Kinh Dương Vương","pathPoints":"106.62468719,10.74553585 106.62469482,10.74549389 106.62407684,10.74533558 106.62395477,10.74539852 106.62396240,10.74555683 106.62387848,10.74569893 106.62371826,10.74567795 106.62357330,10.74557781 106.62322235,10.74531460 106.62252045,10.74471378 106.62247467,10.74474621","Address":"212-214, đường Kinh Dương Vương, Quận Bình Tân","Lat":10.744746,"Lng":106.622475,"K":0},{"StationId":116,"StationOrder":36,"StationDirection":1,"RouteId":2,"RouteVarId":3,"StationCode":"QBT 012","StationName":"Bến xe Miền Tây","pathPoints":"106.62247467,10.74474621 106.62247467,10.74474621 106.62247467,10.74474621 106.62250519,10.74470329 106.61915588,10.74193573 106.61909485,10.74197292 106.61909485,10.74197292","Address":"358-360, đường Kinh Dương Vương, Quận Bình Tân","Lat":10.741973,"Lng":106.619096,"K":0},{"StationId":725,"StationOrder":37,"StationDirection":1,"RouteId":2,"RouteVarId":3,"StationCode":"BX 46","StationName":"Bến xe Miền Tây","pathPoints":"106.61909485,10.74197292 106.61909485,10.74197292 106.61909485,10.74197292 106.61912537,10.74191475 106.61830902,10.74119282 106.61843872,10.74103451 106.61851501,10.74090290 106.61831665,10.74070454 106.61831665,10.74070454 106.61831665,10.74070454","Address":"Bến xe Miền Tây, đường Kinh Dương Vương, Quận Bình Tân","Lat":10.740705,"Lng":106.618317,"K":0}]