[{"StationId":166,"StationOrder":0,"StationDirection":0,"RouteId":4,"RouteVarId":8,"StationCode":"BX41","StationName":"Bến xe An Sương","pathPoints":"","Address":"Bến xe An Sương, đường Quốc lộ 22, Quận 12","Lat":10.843737602233887,"Lng":106.61337280273438,"K":0},{"StationId":171,"StationOrder":1,"StationDirection":0,"RouteId":4,"RouteVarId":8,"StationCode":"Q12 134","StationName":"Chợ Chiều","pathPoints":"106.61337280,10.84373760 106.61407471,10.84444427 106.61506653,10.84286308 106.61502075,10.84263706 106.61511230,10.84248447 106.61524200,10.84238434 106.61534882,10.84235764 106.61555481,10.84191990 106.61582184,10.84146690 106.61592865,10.84120941","Address":"601, đường Trường Chinh, Quận 12","Lat":10.84132,"Lng":106.615824,"K":0},{"StationId":167,"StationOrder":2,"StationDirection":0,"RouteId":4,"RouteVarId":8,"StationCode":"Q12 135","StationName":"Bitis","pathPoints":"106.61592865,10.84120941 106.61804199,10.83786297","Address":"487, đường Trường Chinh, Quận 12","Lat":10.838891,"Lng":106.617347,"K":0},{"StationId":172,"StationOrder":3,"StationDirection":0,"RouteId":4,"RouteVarId":8,"StationCode":"Q12 136","StationName":"Chùa Lạc Quang","pathPoints":"106.61804199,10.83786297 106.62016296,10.83462334","Address":"257, đường Trường Chinh, Quận 12","Lat":10.834497,"Lng":106.620212,"K":0},{"StationId":168,"StationOrder":4,"StationDirection":0,"RouteId":4,"RouteVarId":8,"StationCode":"Q12 137","StationName":"Chùa Vĩnh Phước","pathPoints":"106.62016296,10.83462334 106.62192535,10.83183575","Address":"Chùa Vĩnh Phước, đường Trường Chinh, Quận 12","Lat":10.83202,"Lng":106.621794,"K":0},{"StationId":170,"StationOrder":5,"StationDirection":0,"RouteId":4,"RouteVarId":8,"StationCode":"Q12 138","StationName":"Siêu thị Chợ Lớn","pathPoints":"106.62192535,10.83183575 106.62377167,10.82898045","Address":"113, đường Trường Chinh, Quận 12","Lat":10.829017,"Lng":106.623747,"K":0},{"StationId":169,"StationOrder":6,"StationDirection":0,"RouteId":4,"RouteVarId":8,"StationCode":"Q12 139","StationName":"Cầu Tham Lương - Siêu thị Thiên Hòa","pathPoints":"106.62377167,10.82898045 106.62490082,10.82740498 106.62586212,10.82623959","Address":"Kế 2/6B, đường Trường Chinh, Quận 12","Lat":10.82624,"Lng":106.62586,"K":0},{"StationId":174,"StationOrder":7,"StationDirection":0,"RouteId":4,"RouteVarId":8,"StationCode":"QTP 010","StationName":"Trạm Dệt Thành Công","pathPoints":"106.62586212,10.82623959 106.62821198,10.82417011 106.62915039,10.82339001 106.62965393,10.82278919 106.63005066,10.82213020","Address":"8, đường Trường Chinh, Quận Tân Phú","Lat":10.822315,"Lng":106.629825,"K":0},{"StationId":173,"StationOrder":8,"StationDirection":0,"RouteId":4,"RouteVarId":8,"StationCode":"QTP 011","StationName":"Trạm KCN Tân Bình","pathPoints":"106.63005066,10.82213020 106.63049316,10.82034397 106.63061523,10.81938553","Address":"881, đường Trường Chinh, Quận Tân Phú","Lat":10.819386,"Lng":106.630615,"K":0},{"StationId":176,"StationOrder":9,"StationDirection":0,"RouteId":4,"RouteVarId":8,"StationCode":"QTP 012","StationName":"Trạm Coopmart Thắng Lợi","pathPoints":"106.63061523,10.81938553 106.63138580,10.81704617","Address":"2, đường Trường Chinh, Quận Tân Phú","Lat":10.817114,"Lng":106.631472,"K":0},{"StationId":175,"StationOrder":10,"StationDirection":0,"RouteId":4,"RouteVarId":8,"StationCode":"QTP 013","StationName":"Chế Lan Viên","pathPoints":"106.63138580,10.81704617 106.63258362,10.81291485","Address":"28/7B, đường Trường Chinh, Quận Tân Phú","Lat":10.812878,"Lng":106.632748,"K":0},{"StationId":177,"StationOrder":11,"StationDirection":0,"RouteId":4,"RouteVarId":8,"StationCode":"QTP 014","StationName":"Trạm Đài Liệt Sỹ","pathPoints":"106.63258362,10.81291485 106.63426208,10.80820942","Address":"1/3, đường Trường Chinh, Quận Tân Phú","Lat":10.808209,"Lng":106.634262,"K":0},{"StationId":178,"StationOrder":12,"StationDirection":0,"RouteId":4,"RouteVarId":8,"StationCode":"QTB 118","StationName":"Thượng Uyển","pathPoints":"106.63426208,10.80820942 106.63461304,10.80761433 106.63501740,10.80716133 106.63545227,10.80672932 106.63578796,10.80642891 106.63605499,10.80614376","Address":"680 (Thượng Uyển), đường Cộng Hòa, Quận Tân Bình","Lat":10.806144,"Lng":106.636055,"K":0},{"StationId":180,"StationOrder":13,"StationDirection":0,"RouteId":4,"RouteVarId":8,"StationCode":"QTB 119","StationName":"Ngã tư Tân Kỳ Tân Quý","pathPoints":"106.63605499,10.80614376 106.63661957,10.80553818 106.63706970,10.80488491 106.63750458,10.80420971 106.63788605,10.80354595","Address":"401, đường Cộng Hòa, Quận Tân Bình","Lat":10.803541,"Lng":106.637887,"K":0},{"StationId":181,"StationOrder":14,"StationDirection":0,"RouteId":4,"RouteVarId":8,"StationCode":"QTB 120","StationName":"ETown","pathPoints":"106.63788605,10.80354595 106.63788605,10.80354595 106.63835144,10.80308819 106.63877869,10.80281353 106.63918304,10.80263996 106.63960266,10.80252361 106.64024353,10.80237103 106.64024353,10.80237103","Address":"364 (công ty Ree), đường Cộng Hòa, Quận Tân Bình","Lat":10.802371,"Lng":106.640253,"K":0},{"StationId":179,"StationOrder":15,"StationDirection":0,"RouteId":4,"RouteVarId":8,"StationCode":"QTB 121","StationName":"Ngã ba Bình Giã","pathPoints":"106.64024353,10.80237103 106.64429474,10.80206299","Address":"303, đường Cộng Hòa, Quận Tân Bình","Lat":10.802055,"Lng":106.644292,"K":0},{"StationId":183,"StationOrder":16,"StationDirection":0,"RouteId":4,"RouteVarId":8,"StationCode":"QTB 122","StationName":"Công ty Lô Hội","pathPoints":"106.64429474,10.80206299 106.65027618,10.80152798","Address":"19A (Công ty Lô Hội), đường Cộng Hòa, Quận Tân Bình","Lat":10.801544,"Lng":106.650413,"K":0},{"StationId":182,"StationOrder":17,"StationDirection":0,"RouteId":4,"RouteVarId":8,"StationCode":"QTB 123","StationName":"Pico Plaza","pathPoints":"106.65027618,10.80152798 106.65370178,10.80123329","Address":"20Bis, đường Cộng Hòa, Quận Tân Bình","Lat":10.801254,"Lng":106.653637,"K":0},{"StationId":185,"StationOrder":18,"StationDirection":0,"RouteId":4,"RouteVarId":8,"StationCode":"QTB 124","StationName":"Ngã ba Út tịch","pathPoints":"106.65370178,10.80123329 106.65662384,10.80099297","Address":"35-37, đường Cộng Hòa, Quận Tân Bình","Lat":10.800985,"Lng":106.656679,"K":0},{"StationId":184,"StationOrder":19,"StationDirection":0,"RouteId":4,"RouteVarId":8,"StationCode":"QTB 125","StationName":"Siêu thị Maximart Cộng Hòa","pathPoints":"106.65662384,10.80099297 106.65888214,10.80085373 106.65922546,10.80075645","Address":"Đối diện 58 (Siêu thị Maximart), đường Cộng Hòa, Quận Tân Bình","Lat":10.800833,"Lng":106.658819,"K":0},{"StationId":187,"StationOrder":20,"StationDirection":0,"RouteId":4,"RouteVarId":8,"StationCode":"QTB 036","StationName":"Công viên Hoàng Văn Thụ","pathPoints":"106.65882111,10.80083275 106.65922546,10.80075645 106.66062164,10.80064774 106.66075897,10.80051613 106.66075897,10.80037403 106.66077423,10.80024242 106.66091156,10.80016327 106.66111755,10.80025291 106.66127777,10.80042171 106.66164398,10.80059528 106.66255951,10.80058479 106.66330719,10.80050278 106.66330719,10.80052662","Address":"259, đường Hoàng Văn Thụ, Quận Tân Bình","Lat":10.800469,"Lng":106.663578,"K":0},{"StationId":186,"StationOrder":21,"StationDirection":0,"RouteId":4,"RouteVarId":8,"StationCode":"QTB 037","StationName":"Bảo Tàng Miền Đông","pathPoints":"106.66330719,10.80050278 106.66635132,10.80023193","Address":"247, đường Hoàng Văn Thụ, Quận Tân Bình","Lat":10.800237,"Lng":106.666372,"K":0},{"StationId":188,"StationOrder":22,"StationDirection":0,"RouteId":4,"RouteVarId":8,"StationCode":"QPN 043","StationName":"Cây xăng Quân khu 7","pathPoints":"106.66635132,10.80023193 106.66679382,10.80025768 106.66738892,10.80021572 106.66782379,10.80006313 106.66820526,10.79982090 106.66841888,10.79960537","Address":"307, đường Nguyễn Văn Trỗi, Quận Phú Nhuận","Lat":10.799589,"Lng":106.66847,"K":0},{"StationId":190,"StationOrder":23,"StationDirection":0,"RouteId":4,"RouteVarId":8,"StationCode":"QPN 044","StationName":"Bệnh viện Quận Phú Nhuận","pathPoints":"106.66841888,10.79960537 106.67108917,10.79810524","Address":"279, đường Nguyễn Văn Trỗi, Quận Phú Nhuận","Lat":10.798282,"Lng":106.670744,"K":0},{"StationId":191,"StationOrder":24,"StationDirection":0,"RouteId":4,"RouteVarId":8,"StationCode":"QPN 045","StationName":"Cổng Xe lửa","pathPoints":"106.67108917,10.79810524 106.67396545,10.79639530","Address":"253, đường Nguyễn Văn Trỗi, Quận Phú Nhuận","Lat":10.796596,"Lng":106.673609,"K":0},{"StationId":189,"StationOrder":25,"StationDirection":0,"RouteId":4,"RouteVarId":8,"StationCode":"QPN 046","StationName":"Trung tâm Văn hóa Quận Phú Nhuận","pathPoints":"106.67396545,10.79639530 106.67580414,10.79529667","Address":"157, đường Nguyễn Văn Trỗi, Quận Phú Nhuận","Lat":10.795236,"Lng":106.675894,"K":0},{"StationId":193,"StationOrder":26,"StationDirection":0,"RouteId":4,"RouteVarId":8,"StationCode":"QPN 047","StationName":"Ngã tư Trần Huy Liệu","pathPoints":"106.67580414,10.79529667 106.67916870,10.79327583","Address":"101, đường Nguyễn Văn Trỗi, Quận Phú Nhuận","Lat":10.793276,"Lng":106.679167,"K":0},{"StationId":192,"StationOrder":27,"StationDirection":0,"RouteId":4,"RouteVarId":8,"StationCode":"Q3 052","StationName":"Chùa Vĩnh Nghiêm","pathPoints":"106.67916870,10.79327583 106.67916870,10.79327583 106.68019867,10.79280758 106.68131256,10.79212189 106.68244171,10.79109955 106.68302155,10.79038143 106.68302155,10.79038143","Address":"321-323, đường Nam Kỳ Khởi Nghĩa, Quận 3","Lat":10.790381,"Lng":106.683022,"K":0},{"StationId":196,"StationOrder":28,"StationDirection":0,"RouteId":4,"RouteVarId":8,"StationCode":"Q3 053","StationName":"Trần Quốc Toản","pathPoints":"106.68302155,10.79038143 106.68689728,10.78683090","Address":"201 F-E, đường Nam Kỳ Khởi Nghĩa, Quận 3","Lat":10.786831,"Lng":106.686897,"K":0},{"StationId":194,"StationOrder":29,"StationDirection":0,"RouteId":4,"RouteVarId":8,"StationCode":"Q3 054","StationName":"Viện Pasteur","pathPoints":"106.68689728,10.78683090 106.68863678,10.78521347","Address":"179, đường Nam Kỳ Khởi Nghĩa, Quận 3","Lat":10.785351,"Lng":106.688474,"K":0},{"StationId":198,"StationOrder":30,"StationDirection":0,"RouteId":4,"RouteVarId":8,"StationCode":"Q3 055","StationName":"Điện Biên Phủ","pathPoints":"106.68863678,10.78521347 106.69137573,10.78279781","Address":"159, đường Nam Kỳ Khởi Nghĩa, Quận 3","Lat":10.783116,"Lng":106.69099,"K":0},{"StationId":195,"StationOrder":31,"StationDirection":0,"RouteId":4,"RouteVarId":8,"StationCode":"Q3 056","StationName":"Coop Mart Nguyễn Đình Chiểu","pathPoints":"106.69137573,10.78279781 106.69315338,10.78112984","Address":"143, đường Nam Kỳ Khởi Nghĩa, Quận 3","Lat":10.78113,"Lng":106.693152,"K":0},{"StationId":197,"StationOrder":32,"StationDirection":0,"RouteId":4,"RouteVarId":8,"StationCode":"Q3 057","StationName":"Trường THPT Lê Quý Đôn","pathPoints":"106.69315338,10.78112984 106.69462585,10.77977657","Address":"Đối diện 166 - 168, đường Nam Kỳ Khởi Nghĩa, Quận 3","Lat":10.779844,"Lng":106.69452,"K":0},{"StationId":200,"StationOrder":33,"StationDirection":0,"RouteId":4,"RouteVarId":8,"StationCode":"Q1 075","StationName":"Tòa án Nhân dân Thành Phố","pathPoints":"106.69462585,10.77977657 106.69864655,10.77605247","Address":"131, đường Nam Kỳ Khởi Nghĩa, Quận 1","Lat":10.776052,"Lng":106.698647,"K":0},{"StationId":199,"StationOrder":34,"StationDirection":0,"RouteId":4,"RouteVarId":8,"StationCode":"Q1 076","StationName":"Chùa Ông","pathPoints":"106.69864655,10.77605247 106.69903564,10.77582264 106.69972229,10.77395725","Address":"Đối diện 96A, đường Nam Kỳ Khởi Nghĩa, Quận 1","Lat":10.773957,"Lng":106.699722,"K":0},{"StationId":201,"StationOrder":35,"StationDirection":0,"RouteId":4,"RouteVarId":8,"StationCode":"Q1 077","StationName":"Trường CĐKT Cao Thắng","pathPoints":"106.69972229,10.77395725 106.70085144,10.77141571","Address":"Đối diện 86, đường Nam Kỳ Khởi Nghĩa, Quận 1","Lat":10.771416,"Lng":106.700851,"K":0},{"StationId":82,"StationOrder":36,"StationDirection":0,"RouteId":4,"RouteVarId":8,"StationCode":"Q1 023","StationName":"Hàm Nghi N","pathPoints":"106.70085144,10.77141571 106.70112610,10.77104855 106.69935608,10.77116299","Address":"136, đường Hàm Nghi, Quận 1","Lat":10.771163,"Lng":106.699356,"K":0},{"StationId":7273,"StationOrder":37,"StationDirection":0,"RouteId":4,"RouteVarId":8,"StationCode":"Q1 187","StationName":"Khách sạn New World","pathPoints":"106.69935608,10.77116299 106.69873810,10.77131176 106.69881439,10.77164936 106.69864655,10.77190781 106.69834137,10.77191830 106.69812775,10.77178097 106.69594574,10.77096367","Address":"Đối diện cây xanh số 105, đường Lê Lai, Quận 1","Lat":10.770964,"Lng":106.695946,"K":0},{"StationId":7274,"StationOrder":38,"StationDirection":0,"RouteId":4,"RouteVarId":8,"StationCode":"Q1 188","StationName":"Nguyễn Thị Nghĩa","pathPoints":"106.69594574,10.77096367 106.69594574,10.77096367 106.69595337,10.77089024 106.69355774,10.76989460 106.69349670,10.76995182 106.69349670,10.76995182","Address":"94-96, đường Lê Lai, Quận 1","Lat":10.769952,"Lng":106.693495,"K":0},{"StationId":7275,"StationOrder":39,"StationDirection":0,"RouteId":4,"RouteVarId":8,"StationCode":"Q1 189","StationName":"Tôn Thất Tùng","pathPoints":"106.69349670,10.76995182 106.69351196,10.76987362 106.69049835,10.76869774 106.69046783,10.76876068","Address":"202-204, đường Lê Lai, Quận 1","Lat":10.768761,"Lng":106.690469,"K":0},{"StationId":35,"StationOrder":40,"StationDirection":0,"RouteId":4,"RouteVarId":8,"StationCode":"BX 01","StationName":"TĐH xe buýt Sài Gòn","pathPoints":"106.69046783,10.76876068 106.69050598,10.76870823 106.68921661,10.76814461 106.68936157,10.76767635","Address":"TĐH xe buýt Sài Gòn- CV 23/9, đường Lê Lai, Quận 1","Lat":10.767676,"Lng":106.689362,"K":0},{"StationId":35,"StationOrder":0,"StationDirection":1,"RouteId":4,"RouteVarId":7,"StationCode":"BX 01","StationName":"TĐH xe buýt Sài Gòn","pathPoints":"","Address":"TĐH xe buýt Sài Gòn- CV 23/9, đường Lê Lai, Quận 1","Lat":10.767676,"Lng":106.689362,"K":0},{"StationId":7276,"StationOrder":1,"StationDirection":1,"RouteId":4,"RouteVarId":7,"StationCode":"Q1 190","StationName":"Tôn Thất Tùng","pathPoints":"106.68936157,10.76767635 106.68955994,10.76718521 106.69094086,10.76766968","Address":"277-279-275Y, đường Phạm Ngũ Lão, Quận 1","Lat":10.76767,"Lng":106.690941,"K":0},{"StationId":7277,"StationOrder":2,"StationDirection":1,"RouteId":4,"RouteVarId":7,"StationCode":"Q1 191","StationName":"Nguyễn Thị Nghĩa","pathPoints":"106.69094086,10.76766968 106.69089508,10.76772308 106.69366455,10.76882458 106.69370270,10.76878834","Address":"187, đường Phạm Ngũ Lão, Quận 1","Lat":10.768788,"Lng":106.693699,"K":0},{"StationId":7278,"StationOrder":3,"StationDirection":1,"RouteId":4,"RouteVarId":7,"StationCode":"Q1 192","StationName":"Trường Emst Thalmann","pathPoints":"106.69370270,10.76878834 106.69365692,10.76883030 106.69556427,10.76956749 106.69558716,10.76950359","Address":"Trường Emst Thalmann, đường Phạm Ngũ Lão, Quận 1","Lat":10.769504,"Lng":106.695587,"K":0},{"StationId":30,"StationOrder":4,"StationDirection":1,"RouteId":4,"RouteVarId":7,"StationCode":"Q1 015","StationName":"Hàm Nghi A","pathPoints":"106.69558716,10.76950359 106.69558716,10.76950359 106.69554138,10.76956272 106.69613647,10.76978397 106.69644165,10.76908779 106.69740295,10.77022076 106.69905090,10.77082729 106.69918060,10.77093792 106.69956207,10.77094269 106.69956207,10.77094269","Address":"163, đường Hàm Nghi, Quận 1","Lat":10.770943,"Lng":106.699562,"K":0},{"StationId":4271,"StationOrder":5,"StationDirection":1,"RouteId":4,"RouteVarId":7,"StationCode":"Q1 078","StationName":"Đền Thờ Ấn Giáo, Pasteur","pathPoints":"106.69956207,10.77094269 106.70257568,10.77075863 106.70139313,10.77359486","Address":"Đền Thờ Ấn Giáo, đường Pasteur, Quận 1","Lat":10.773595,"Lng":106.70139,"K":0},{"StationId":2724,"StationOrder":6,"StationDirection":1,"RouteId":4,"RouteVarId":7,"StationCode":"Q1 079","StationName":"Lê Thánh Tôn","pathPoints":"106.70139313,10.77359486 106.70076752,10.77508831","Address":"144, đường Pasteur, Quận 1","Lat":10.775088,"Lng":106.700768,"K":0},{"StationId":4272,"StationOrder":7,"StationDirection":1,"RouteId":4,"RouteVarId":7,"StationCode":"Q1 080","StationName":"Lý Tự Trọng","pathPoints":"106.70076752,10.77508831 106.70076752,10.77508831 106.70070648,10.77512741 106.69995117,10.77685070 106.69965363,10.77708912 106.69965363,10.77708912","Address":"158, đường Pasteur, Quận 1","Lat":10.777089,"Lng":106.699657,"K":0},{"StationId":4273,"StationOrder":8,"StationDirection":1,"RouteId":4,"RouteVarId":7,"StationCode":"Q1 081","StationName":"Lê Duẫn","pathPoints":"106.69965363,10.77708912 106.69833374,10.77830791","Address":"178, đường Pasteur, Quận 1","Lat":10.778307999999999,"Lng":106.698333,"K":0},{"StationId":4274,"StationOrder":9,"StationDirection":1,"RouteId":4,"RouteVarId":7,"StationCode":"Q1 082","StationName":"Nguyễn Thị Minh Khai","pathPoints":"106.69833374,10.77830791 106.69665527,10.77978230","Address":"184, đường Pasteur, Quận 1","Lat":10.779782,"Lng":106.696659,"K":0},{"StationId":243,"StationOrder":10,"StationDirection":1,"RouteId":4,"RouteVarId":7,"StationCode":"Q3 082","StationName":"Đại học Kiến Trúc","pathPoints":"106.69665527,10.77978230 106.69665527,10.77978230 106.69662476,10.77984905 106.69456482,10.78173065 106.69458008,10.78180408 106.69458008,10.78180408","Address":"194 D, đường Pasteur, Quận 3","Lat":10.781804,"Lng":106.694579,"K":0},{"StationId":244,"StationOrder":11,"StationDirection":1,"RouteId":4,"RouteVarId":7,"StationCode":"Q3 083","StationName":"Điện Biên Phủ","pathPoints":"106.69458008,10.78180408 106.69458008,10.78180408 106.69458008,10.78180408 106.69438171,10.78187752 106.69274139,10.78336430 106.69274902,10.78341866 106.69274902,10.78341866 106.69274902,10.78341866","Address":"214, đường Pasteur, Quận 3","Lat":10.783419,"Lng":106.692749,"K":0},{"StationId":245,"StationOrder":12,"StationDirection":1,"RouteId":4,"RouteVarId":7,"StationCode":"Q3 084","StationName":"Võ Thị Sáu","pathPoints":"106.69274902,10.78341866 106.69194031,10.78415966 106.69114685,10.78492355","Address":"232, đường Pasteur, Quận 3","Lat":10.784924,"Lng":106.691145,"K":0},{"StationId":246,"StationOrder":13,"StationDirection":1,"RouteId":4,"RouteVarId":7,"StationCode":"Q3 101","StationName":"Nhà thiếu nhi thành phố","pathPoints":"106.69114685,10.78492355 106.69000244,10.78592014 106.68961334,10.78558254","Address":"Đối diện 153 A-B, đường Võ Thị Sáu, Quận 3","Lat":10.785583,"Lng":106.689613,"K":0},{"StationId":247,"StationOrder":14,"StationDirection":1,"RouteId":4,"RouteVarId":7,"StationCode":"Q3 048","StationName":"Viện Pasteur","pathPoints":"106.68961334,10.78558254 106.68961334,10.78558254 106.68945313,10.78546143 106.68929291,10.78534031 106.68908691,10.78522396 106.68887329,10.78539276 106.68868256,10.78557682 106.68868256,10.78557682","Address":"252 (Đối diện 175), đường Nam Kỳ Khởi Nghĩa, Quận 3","Lat":10.785577,"Lng":106.688683,"K":0},{"StationId":248,"StationOrder":15,"StationDirection":1,"RouteId":4,"RouteVarId":7,"StationCode":"Q3 049","StationName":"Trần Quốc Toản","pathPoints":"106.68868256,10.78557682 106.68713379,10.78704739","Address":"260A, đường Nam Kỳ Khởi Nghĩa, Quận 3","Lat":10.787047,"Lng":106.687133,"K":0},{"StationId":250,"StationOrder":16,"StationDirection":1,"RouteId":4,"RouteVarId":7,"StationCode":"Q3 050","StationName":"Lý Chính Thắng","pathPoints":"106.68713379,10.78704739 106.68474579,10.78924465","Address":"288 B7, đường Nam Kỳ Khởi Nghĩa, Quận 3","Lat":10.789245,"Lng":106.684746,"K":0},{"StationId":249,"StationOrder":17,"StationDirection":1,"RouteId":4,"RouteVarId":7,"StationCode":"Q3 051","StationName":"Chùa Vĩnh Nghiêm","pathPoints":"106.68474579,10.78924465 106.68312836,10.79069424","Address":"382E, đường Nam Kỳ Khởi Nghĩa, Quận 3","Lat":10.790694,"Lng":106.683125,"K":0},{"StationId":251,"StationOrder":18,"StationDirection":1,"RouteId":4,"RouteVarId":7,"StationCode":"QPN 048","StationName":"Ngã tư Trần Huy Liệu","pathPoints":"106.68312836,10.79069424 106.68120575,10.79242802 106.67923737,10.79359818","Address":"40, đường Nguyễn Văn Trỗi, Quận Phú Nhuận","Lat":10.793555,"Lng":106.679236,"K":0},{"StationId":252,"StationOrder":19,"StationDirection":1,"RouteId":4,"RouteVarId":7,"StationCode":"QPN 049","StationName":"Trung tâm văn hóa Quận Phú Nhuận","pathPoints":"106.67923737,10.79359818 106.67604065,10.79549980","Address":"68, đường Nguyễn Văn Trỗi, Quận Phú Nhuận","Lat":10.795421,"Lng":106.676093,"K":0},{"StationId":253,"StationOrder":20,"StationDirection":1,"RouteId":4,"RouteVarId":7,"StationCode":"QPN 050","StationName":"Cổng xe lửa","pathPoints":"106.67604065,10.79549980 106.67557526,10.79571056 106.67379761,10.79677010","Address":"104, đường Nguyễn Văn Trỗi, Quận Phú Nhuận","Lat":10.79677,"Lng":106.673797,"K":0},{"StationId":254,"StationOrder":21,"StationDirection":1,"RouteId":4,"RouteVarId":7,"StationCode":"QPN 051","StationName":"Bệnh viện Quận Phú Nhuận","pathPoints":"106.67379761,10.79677010 106.67091370,10.79845619","Address":"142, đường Nguyễn Văn Trỗi, Quận Phú Nhuận","Lat":10.798525,"Lng":106.670793,"K":0},{"StationId":255,"StationOrder":22,"StationDirection":1,"RouteId":4,"RouteVarId":7,"StationCode":"QPN 052 ","StationName":"Cây xăng Quân khu 7","pathPoints":"106.67091370,10.79845619 106.66890717,10.79964161","Address":"180, đường Nguyễn Văn Trỗi, Quận Phú Nhuận","Lat":10.799642,"Lng":106.66891,"K":0},{"StationId":256,"StationOrder":23,"StationDirection":1,"RouteId":4,"RouteVarId":7,"StationCode":"QTB 099","StationName":"Cổng trước SVĐ Quân Khu 7","pathPoints":"106.66890717,10.79964161 106.66764832,10.80027962 106.66709900,10.80061626 106.66662598,10.80095100","Address":"A2 (Sân vận động Quân khu 7), đường Phan Đình Giót, Quận Tân Bình","Lat":10.800848,"Lng":106.66678,"K":0},{"StationId":257,"StationOrder":24,"StationDirection":1,"RouteId":4,"RouteVarId":7,"StationCode":"QTB 108","StationName":"Công viên Hoàng Văn Thụ","pathPoints":"106.66662598,10.80095100 106.66416931,10.80236053","Address":"Công viên Hoàng Văn Thụ, đường Phan Thúc Duyện, Quận Tân Bình","Lat":10.802403,"Lng":106.664221,"K":0},{"StationId":258,"StationOrder":25,"StationDirection":1,"RouteId":4,"RouteVarId":7,"StationCode":"QTB 107","StationName":"Vòng xoay Lăng Cha Cả","pathPoints":"106.66416931,10.80236053 106.66357422,10.80268192 106.66230011,10.80137253","Address":"20, đường Trần Quốc Hoàn, Quận Tân Bình","Lat":10.801365,"Lng":106.662312,"K":0},{"StationId":259,"StationOrder":26,"StationDirection":1,"RouteId":4,"RouteVarId":7,"StationCode":"QTB 110","StationName":"Siêu thị Maximark Cộng Hòa","pathPoints":"106.66231537,10.80136490 106.66171265,10.80083752 106.65916443,10.80103779","Address":"60, đường Cộng Hòa, Quận Tân Bình","Lat":10.801038,"Lng":106.659168,"K":0},{"StationId":260,"StationOrder":27,"StationDirection":1,"RouteId":4,"RouteVarId":7,"StationCode":"QTB 111","StationName":"Nhà hát Quân Đội","pathPoints":"106.65916443,10.80103779 106.65675354,10.80123806","Address":"138 (Kế nhà hát Quân đội), đường Cộng Hòa, Quận Tân Bình","Lat":10.801238,"Lng":106.656754,"K":0},{"StationId":261,"StationOrder":28,"StationDirection":1,"RouteId":4,"RouteVarId":7,"StationCode":"QTB 112","StationName":"Ngân hàng Quân đội","pathPoints":"106.65675354,10.80123806 106.65481567,10.80141163","Address":"Tiệc cưới Hương Sen, đường Cộng Hòa, Quận Tân Bình","Lat":10.801412,"Lng":106.654817,"K":0},{"StationId":262,"StationOrder":29,"StationDirection":1,"RouteId":4,"RouteVarId":7,"StationCode":"QTB 113","StationName":"Công ty Lô Hội","pathPoints":"106.65481567,10.80141163 106.65113068,10.80172825","Address":"184, đường Cộng Hòa, Quận Tân Bình","Lat":10.801728,"Lng":106.651127,"K":0},{"StationId":263,"StationOrder":30,"StationDirection":1,"RouteId":4,"RouteVarId":7,"StationCode":"QTB 114","StationName":"Ngã tư Hoàng Hoa Thám","pathPoints":"106.65113068,10.80172825 106.64694977,10.80210209","Address":"304, đường Cộng Hòa, Quận Tân Bình","Lat":10.802102,"Lng":106.646953,"K":0},{"StationId":264,"StationOrder":31,"StationDirection":1,"RouteId":4,"RouteVarId":7,"StationCode":"QTB 115","StationName":"Ngã ba Bình Giã","pathPoints":"106.64694977,10.80210209 106.64450836,10.80227566","Address":"390, đường Cộng Hòa, Quận Tân Bình","Lat":10.802276,"Lng":106.644512,"K":0},{"StationId":265,"StationOrder":32,"StationDirection":1,"RouteId":4,"RouteVarId":7,"StationCode":"QTB 116","StationName":"ETown","pathPoints":"106.64450836,10.80227566 106.64096832,10.80257130","Address":"496, đường Cộng Hòa, Quận Tân Bình","Lat":10.802571,"Lng":106.640967,"K":0},{"StationId":266,"StationOrder":33,"StationDirection":1,"RouteId":4,"RouteVarId":7,"StationCode":"QTB 117","StationName":"Thượng Uyển","pathPoints":"106.64096832,10.80257130 106.63990021,10.80265045 106.63959503,10.80270290 106.63930511,10.80277729 106.63883972,10.80297184 106.63851929,10.80316639 106.63823700,10.80345154 106.63688660,10.80545330 106.63647461,10.80599689 106.63619232,10.80631256","Address":"660 (kế 592), đường Cộng Hòa, Quận Tân Bình","Lat":10.806313,"Lng":106.636192,"K":0},{"StationId":268,"StationOrder":34,"StationDirection":1,"RouteId":4,"RouteVarId":7,"StationCode":"QTB 075","StationName":"Mũi tàu Cộng Hòa","pathPoints":"106.63619232,10.80631256 106.63536835,10.80705070 106.63490295,10.80757713 106.63469696,10.80807781","Address":"19B1, đường Trường Chinh, Quận Tân Bình","Lat":10.808078,"Lng":106.634696,"K":0},{"StationId":267,"StationOrder":35,"StationDirection":1,"RouteId":4,"RouteVarId":7,"StationCode":"QTB 076","StationName":"Ngã ba Chế Lan Viên","pathPoints":"106.63469696,10.80807781 106.63456726,10.80811977 106.63417053,10.80928993 106.63343811,10.81167984 106.63349915,10.81169510","Address":"9B, đường Trường Chinh, Quận Tân Bình","Lat":10.811695,"Lng":106.633499,"K":0},{"StationId":269,"StationOrder":36,"StationDirection":1,"RouteId":4,"RouteVarId":7,"StationCode":"QTB 077","StationName":"Tân Sơn","pathPoints":"106.63349915,10.81169510 106.63258362,10.81463814","Address":"720, đường Trường Chinh, Quận Tân Bình","Lat":10.814638,"Lng":106.632584,"K":0},{"StationId":270,"StationOrder":37,"StationDirection":1,"RouteId":4,"RouteVarId":7,"StationCode":"QTB 078","StationName":"Siêu thị Coop Mart Thắng Lợi","pathPoints":"106.63258362,10.81463814 106.63169098,10.81754112","Address":"792 (25/19), đường Trường Chinh, Quận Tân Bình","Lat":10.817541,"Lng":106.631691,"K":0},{"StationId":271,"StationOrder":38,"StationDirection":1,"RouteId":4,"RouteVarId":7,"StationCode":"QTB 079","StationName":"Khu Công Nghiệp tân Bình","pathPoints":"106.63169098,10.81754112 106.63044739,10.82164383","Address":"906, đường Trường Chinh, Quận Tân Bình","Lat":10.821644,"Lng":106.630447,"K":0},{"StationId":272,"StationOrder":39,"StationDirection":1,"RouteId":4,"RouteVarId":7,"StationCode":"Q12 128","StationName":"Cầu Tham Lương - Siêu thị Thiên Hòa","pathPoints":"106.63044739,10.82164383 106.63044739,10.82164383 106.63044739,10.82164383 106.63007355,10.82250977 106.62979126,10.82302094 106.62933350,10.82344246 106.62566376,10.82686234 106.62583160,10.82695675 106.62583160,10.82695675 106.62583160,10.82695675","Address":"1/17A, đường Trường Chinh, Quận 12","Lat":10.826957,"Lng":106.625828,"K":0},{"StationId":273,"StationOrder":40,"StationDirection":1,"RouteId":4,"RouteVarId":7,"StationCode":"Q12 129","StationName":"Siêu thị Chợ Lớn","pathPoints":"106.62583160,10.82695675 106.62583160,10.82695675 106.62570190,10.82684135 106.62501526,10.82763100 106.62443542,10.82853222 106.62459564,10.82862663 106.62459564,10.82862663","Address":"189/4, đường Trường Chinh, Quận 12","Lat":10.828627,"Lng":106.624594,"K":0},{"StationId":274,"StationOrder":41,"StationDirection":1,"RouteId":4,"RouteVarId":7,"StationCode":"Q12 130","StationName":"Chùa Vĩnh Phước","pathPoints":"106.62459564,10.82862663 106.62459564,10.82862663 106.62445068,10.82857418 106.62232208,10.83190441 106.62241364,10.83198929 106.62241364,10.83198929","Address":"258, đường Trường Chinh, Quận 12","Lat":10.831989,"Lng":106.622411,"K":0},{"StationId":275,"StationOrder":42,"StationDirection":1,"RouteId":4,"RouteVarId":7,"StationCode":"Q12 132","StationName":"Chùa Lạc Quang","pathPoints":"106.62241364,10.83198929 106.62241364,10.83198929 106.62223816,10.83189392 106.62049103,10.83468628 106.62061310,10.83478069 106.62061310,10.83478069","Address":"408, đường Trường Chinh, Quận 12","Lat":10.834781,"Lng":106.620614,"K":0},{"StationId":277,"StationOrder":43,"StationDirection":1,"RouteId":4,"RouteVarId":7,"StationCode":"Q12 131","StationName":"Bitis","pathPoints":"106.62061310,10.83478069 106.62061310,10.83478069 106.62044525,10.83472824 106.61825562,10.83815289 106.61840057,10.83822155 106.61840057,10.83822155","Address":"640, đường Trường Chinh, Quận 12","Lat":10.838222,"Lng":106.618398,"K":0},{"StationId":276,"StationOrder":44,"StationDirection":1,"RouteId":4,"RouteVarId":7,"StationCode":"Q12 133","StationName":"Chợ Chiều","pathPoints":"106.61840057,10.83822155 106.61840057,10.83822155 106.61824036,10.83813190 106.61632538,10.84117794 106.61647034,10.84123516 106.61647034,10.84123516","Address":"774A, đường Trường Chinh, Quận 12","Lat":10.841235,"Lng":106.616467,"K":0},{"StationId":1115,"StationOrder":45,"StationDirection":1,"RouteId":4,"RouteVarId":7,"StationCode":"Q12 122","StationName":"Bến xe An Sương","pathPoints":"106.61647034,10.84123516 106.61569977,10.84230995 106.61563873,10.84248924 106.61566925,10.84269524 106.61561584,10.84287930 106.61549377,10.84299564 106.61529541,10.84305286 106.61515045,10.84324265 106.61432648,10.84441757 106.61351776,10.84580326","Address":"F42, đường Quốc lộ 22, Quận 12","Lat":10.845803,"Lng":106.613517,"K":0},{"StationId":166,"StationOrder":46,"StationDirection":1,"RouteId":4,"RouteVarId":7,"StationCode":"BX41","StationName":"Bến xe An Sương","pathPoints":"106.61351776,10.84580326 106.61251068,10.84732056 106.61235046,10.84722042 106.61410522,10.84448624 106.61318970,10.84393787 106.61337280,10.84373760","Address":"Bến xe An Sương, đường Quốc lộ 22, Quận 12","Lat":10.843737602233887,"Lng":106.61337280273438,"K":0}]