[{"StationId":538,"StationOrder":0,"StationDirection":0,"RouteId":41,"RouteVarId":82,"StationCode":"BX87","StationName":"Đại học Quốc gia","pathPoints":"","Address":"Bến xe buýt Khu A Đô thị Quốc gia, đường Đường nội bộ Đại học Quốc gia, Quận Thủ Đức","Lat":10.873805046081543,"Lng":106.8020248413086,"K":0},{"StationId":572,"StationOrder":1,"StationDirection":0,"RouteId":41,"RouteVarId":82,"StationCode":"QTD 175","StationName":"Đại học An Ninh Nhân Dân","pathPoints":"106.80202484,10.87380505 106.80200195,10.87363625 106.80133820,10.87379932 106.80068207,10.87411499 106.80020905,10.87440014 106.79998779,10.87479496 106.79992676,10.87519550 106.79991913,10.87552738 106.80021667,10.87573242 106.80061340,10.87582779 106.80110168,10.87587452 106.80146027,10.87588596 106.80175781,10.87595940 106.80239105,10.87612247 106.80274200,10.87621784 106.80303955,10.87633896 106.80325317,10.87647533 106.80354309,10.87638092 106.80383301,10.87631702 106.80434418,10.87613297 106.80471039,10.87591743 106.80504608,10.87559605 106.80528259,10.87529564 106.80522919,10.87506008 106.80654144,10.87452984 106.80673981,10.87444019 106.80734253,10.87413025 106.80784607,10.87375164 106.80819702,10.87336254 106.80754852,10.87251377 106.80664825,10.87131310 106.80683899,10.87118626 106.80697632,10.87112808 106.80697632,10.87112808","Address":"Nhà máy Tiến Thành, đường Quốc lộ 1, Quận Thủ Đức","Lat":10.871128,"Lng":106.806979,"K":0},{"StationId":576,"StationOrder":2,"StationDirection":0,"RouteId":41,"RouteVarId":82,"StationCode":"QTD 176","StationName":"Trường giáo dục Quốc phòng","pathPoints":"106.80697632,10.87112808 106.80657196,10.87133408 106.80546570,10.86978531 106.80406189,10.86844730 106.80436707,10.86821556","Address":"Trường giáo dục Quốc phòng, đường Quốc lộ 1, Quận Thủ Đức","Lat":10.868216,"Lng":106.804367,"K":0},{"StationId":574,"StationOrder":3,"StationDirection":0,"RouteId":41,"RouteVarId":82,"StationCode":"QTD 177","StationName":"Khu DL Suối Tiên","pathPoints":"106.80436707,10.86821556 106.80436707,10.86821556 106.80441284,10.86816978 106.80410767,10.86852074 106.80266571,10.86740398 106.80229950,10.86674500 106.80139160,10.86617661 106.80114746,10.86603260 106.80111694,10.86604977","Address":"9/29, đường Quốc lộ 1, Quận Thủ Đức","Lat":10.86605,"Lng":106.801116,"K":0},{"StationId":4559,"StationOrder":4,"StationDirection":0,"RouteId":41,"RouteVarId":82,"StationCode":"QTD 197","StationName":"Câu vượt Trạm 2","pathPoints":"106.80111694,10.86604977 106.79731750,10.86390018","Address":"Câu vượt Trạm 2, đường Quốc lộ 1, Quận Thủ Đức","Lat":10.8639,"Lng":106.797318,"K":0},{"StationId":500,"StationOrder":5,"StationDirection":0,"RouteId":41,"RouteVarId":82,"StationCode":"QTD 180","StationName":"Đại học Nông Lâm","pathPoints":"106.79731750,10.86390018 106.79592133,10.86296749 106.79460144,10.86216736 106.79413605,10.86219883 106.79371643,10.86242008 106.79353333,10.86294651 106.79373932,10.86333656 106.79418182,10.86362076 106.79460144,10.86349487 106.79521179,10.86283112 106.79635620,10.86096573 106.79804993,10.85921669 106.79828644,10.85943794 106.79662323,10.86109257 106.79486847,10.86394787 106.79335022,10.86561298 106.79232025,10.86638165 106.79109955,10.86696053","Address":"Đối diện 1026-1028, đường Quốc lộ 1, Quận Thủ Đức","Lat":10.866961,"Lng":106.791101,"K":0},{"StationId":1101,"StationOrder":6,"StationDirection":0,"RouteId":41,"RouteVarId":82,"StationCode":"QTD 181","StationName":"ĐH Nông Lâm","pathPoints":"106.79109955,10.86696053 106.79009247,10.86718273 106.78726196,10.86740398","Address":"Kế 21, đường Quốc lộ 1, Quận Thủ Đức","Lat":10.867404,"Lng":106.787265,"K":0},{"StationId":1102,"StationOrder":7,"StationDirection":0,"RouteId":41,"RouteVarId":82,"StationCode":"QTD 182","StationName":"Công ty điện tử Samsung","pathPoints":"106.78726196,10.86740398 106.78545380,10.86739349 106.78442383,10.86742496 106.78344727,10.86752987 106.78237915,10.86775112 106.78220367,10.86786747","Address":"Kế 59/6, đường Quốc lộ 1, Quận Thủ Đức","Lat":10.867867,"Lng":106.782201,"K":0},{"StationId":1103,"StationOrder":8,"StationDirection":0,"RouteId":41,"RouteVarId":82,"StationCode":"QTD 183","StationName":"Đại học Kinh tế -Luật","pathPoints":"106.78220367,10.86786747 106.77790833,10.86927414","Address":"Đại học Kinh tế -Luật, đường Quốc lộ 1, Quận Thủ Đức","Lat":10.869274,"Lng":106.777909,"K":0},{"StationId":2142,"StationOrder":9,"StationDirection":0,"RouteId":41,"RouteVarId":82,"StationCode":"QTD 184","StationName":"Trung tâm kho vận Linh Xuân","pathPoints":"106.77790833,10.86927414 106.77790833,10.86927414 106.77642822,10.86972141 106.77493286,10.87025356 106.77493286,10.87025356","Address":"Trung tâm kho vận Linh Xuân, đường Quốc lộ 1, Quận Thủ Đức","Lat":10.870254,"Lng":106.774932,"K":0},{"StationId":2147,"StationOrder":10,"StationDirection":0,"RouteId":41,"RouteVarId":82,"StationCode":"QTD 185","StationName":"Nghĩa trang Thành phố","pathPoints":"106.77493286,10.87025356 106.77493286,10.87025356 106.77390289,10.87051201 106.77288055,10.87091160 106.77288055,10.87091160","Address":"Cột điện NG/1, đường Quốc lộ 1, Quận Thủ Đức","Lat":10.870912,"Lng":106.772878,"K":0},{"StationId":2143,"StationOrder":11,"StationDirection":0,"RouteId":41,"RouteVarId":82,"StationCode":"QTD 186","StationName":"Công ty Nissan","pathPoints":"106.77288055,10.87091160 106.77288055,10.87091160 106.77182007,10.87117577 106.77082062,10.87157059 106.77082062,10.87157059","Address":"Đối diện công ty Nissan, đường Quốc lộ 1, Quận Thủ Đức","Lat":10.871571,"Lng":106.770823,"K":0},{"StationId":339,"StationOrder":12,"StationDirection":0,"RouteId":41,"RouteVarId":82,"StationCode":"QTD 187","StationName":"Cầu vượt Linh Xuân","pathPoints":"106.77078247,10.87147045 106.76754761,10.87252998 106.76730347,10.87269974 106.76686859,10.87285042 106.76580811,10.87322998 106.76458740,10.87362003 106.76332092,10.87403965 106.76293182,10.87407970 106.76233673,10.87427998 106.76203918,10.87438011","Address":"559, đường Quốc lộ 1, Quận Thủ Đức","Lat":10.874474,"Lng":106.762095,"K":0},{"StationId":341,"StationOrder":13,"StationDirection":0,"RouteId":41,"RouteVarId":82,"StationCode":"QTD 188","StationName":"Giày Thái Bình-Bình Đường","pathPoints":"106.76209259,10.87447357 106.76120758,10.87467957 106.75969696,10.87516880 106.75868988,10.87545395","Address":"467B, đường Quốc lộ 1, Quận Thủ Đức","Lat":10.875454,"Lng":106.758689,"K":0},{"StationId":343,"StationOrder":14,"StationDirection":0,"RouteId":41,"RouteVarId":82,"StationCode":"QTD 189","StationName":"Giày Thái Bình","pathPoints":"106.75868988,10.87545395 106.75868988,10.87545395 106.75799561,10.87555885 106.75730133,10.87573814 106.75730133,10.87573814","Address":"Đối diện 20B/8, đường Quốc lộ 1, Quận Thủ Đức","Lat":10.875738,"Lng":106.757305,"K":0},{"StationId":342,"StationOrder":15,"StationDirection":0,"RouteId":41,"RouteVarId":82,"StationCode":"QTD 190","StationName":"Bến xe Lam Hồng","pathPoints":"106.75730133,10.87573814 106.75730133,10.87573814 106.75650024,10.87586403 106.75563049,10.87604904 106.75563049,10.87604904","Address":"12/28, đường Quốc lộ 1, Quận Thủ Đức","Lat":10.876049,"Lng":106.755631,"K":0},{"StationId":344,"StationOrder":16,"StationDirection":0,"RouteId":41,"RouteVarId":82,"StationCode":"QTD 191","StationName":"Cầu vượt Sóng Thần","pathPoints":"106.75553131,10.87594032 106.75489807,10.87605953 106.75421906,10.87615967 106.75382996,10.87617016 106.75346375,10.87615013 106.75312805,10.87609959 106.75231934,10.87590027 106.75132751,10.87557030 106.74655151,10.87399960","Address":"275, đường Quốc lộ 1, Quận Thủ Đức","Lat":10.874115,"Lng":106.746528,"K":0},{"StationId":346,"StationOrder":17,"StationDirection":0,"RouteId":41,"RouteVarId":82,"StationCode":"QTD 192","StationName":"Chợ Tam Hải","pathPoints":"106.74652863,10.87411499 106.74652863,10.87411499 106.74541473,10.87371540 106.74429321,10.87337303 106.74429321,10.87337303","Address":"251B, đường Quốc lộ 1, Quận Thủ Đức","Lat":10.873373,"Lng":106.744291,"K":0},{"StationId":345,"StationOrder":18,"StationDirection":0,"RouteId":41,"RouteVarId":82,"StationCode":"QTD 193","StationName":"Hồ Bơi","pathPoints":"106.74429321,10.87337303 106.74176788,10.87244987 106.74092102,10.87224007 106.73991394,10.87217712","Address":"179, đường Quốc lộ 1, Quận Thủ Đức","Lat":10.872177,"Lng":106.739913,"K":0},{"StationId":348,"StationOrder":19,"StationDirection":0,"RouteId":41,"RouteVarId":82,"StationCode":"QTD 194","StationName":"Chợ Tam Bình","pathPoints":"106.73991394,10.87217712 106.73837280,10.87187004 106.73751068,10.87174988 106.73639679,10.87148952 106.73533630,10.87110996 106.73447418,10.87082767","Address":"Đối diện Bưu điện Tam Bình, đường Quốc lộ 1, Quận Thủ Đức","Lat":10.870828,"Lng":106.734474,"K":0},{"StationId":347,"StationOrder":20,"StationDirection":0,"RouteId":41,"RouteVarId":82,"StationCode":"QTD 195","StationName":"Chợ đầu mối nông sản Thủ Đức","pathPoints":"106.73447418,10.87082767 106.73307800,10.87003994 106.73204041,10.86952972 106.72915649,10.86812019","Address":"Chợ đầu mối nông sản Thủ Đức, đường Quốc lộ 1, Quận Thủ Đức","Lat":10.86812,"Lng":106.729158,"K":0},{"StationId":349,"StationOrder":21,"StationDirection":0,"RouteId":41,"RouteVarId":82,"StationCode":"QTD 214","StationName":"Ngã 4 Bình Phước","pathPoints":"106.72915649,10.86812019 106.72882080,10.86787033 106.72811127,10.86750031 106.72702026,10.86693001 106.72646332,10.86676979 106.72441864,10.86573029 106.72399139,10.86561012 106.72377777,10.86565018 106.72368622,10.86561966 106.72361755,10.86555958 106.72355652,10.86544991 106.72354889,10.86542034 106.72355652,10.86528015 106.72361755,10.86515045 106.72366333,10.86507034 106.72380066,10.86495018 106.72390747,10.86491013 106.72409058,10.86472034 106.72431946,10.86429024 106.72454834,10.86388969 106.72451019,10.86380863","Address":"777, đường Quốc lộ 13, Quận Thủ Đức","Lat":10.863809,"Lng":106.72451,"K":0},{"StationId":350,"StationOrder":22,"StationDirection":0,"RouteId":41,"RouteVarId":82,"StationCode":"QTD 215","StationName":"Hồ bơi Mèo Mun","pathPoints":"106.72451019,10.86380863 106.72473907,10.86353016 106.72483826,10.86318016 106.72486877,10.86281967 106.72486877,10.86262989 106.72482300,10.86233997 106.72461700,10.86165619 106.72439575,10.86134529","Address":"Đối diện 782, đường Quốc lộ 13, Quận Thủ Đức","Lat":10.861345,"Lng":106.724396,"K":0},{"StationId":353,"StationOrder":23,"StationDirection":0,"RouteId":41,"RouteVarId":82,"StationCode":"QTD 216","StationName":"UBND P.Hiệp Bình Phước","pathPoints":"106.72439575,10.86134529 106.72433472,10.86099720 106.72419739,10.86071014 106.72400665,10.86019707 106.72378540,10.85979080","Address":"715, đường Quốc lộ 13, Quận Thủ Đức","Lat":10.859791,"Lng":106.723782,"K":0},{"StationId":351,"StationOrder":24,"StationDirection":0,"RouteId":41,"RouteVarId":82,"StationCode":"QTD 217","StationName":"Trạm y tế P. Hiệp Bình Phước","pathPoints":"106.72378540,10.85979080 106.72364044,10.85925388 106.72328186,10.85824966 106.72283936,10.85709000 106.72255707,10.85641003 106.72234344,10.85602379","Address":"645, đường Quốc lộ 13, Quận Thủ Đức","Lat":10.856024,"Lng":106.722343,"K":0},{"StationId":355,"StationOrder":25,"StationDirection":0,"RouteId":41,"RouteVarId":82,"StationCode":"QTD 218","StationName":"Ngã 3 Đường Hiệp Bình","pathPoints":"106.72234344,10.85602379 106.72168732,10.85418034 106.72133636,10.85344028 106.72071838,10.85257912","Address":"607, đường Quốc lộ 13, Quận Thủ Đức","Lat":10.852579,"Lng":106.720719,"K":0},{"StationId":352,"StationOrder":26,"StationDirection":0,"RouteId":41,"RouteVarId":82,"StationCode":"QTD 219","StationName":"Ngã 3 Hiệp Bình","pathPoints":"106.72078705,10.85254002 106.71970367,10.85097980 106.71938324,10.85054016 106.71903229,10.84994030 106.71888733,10.84965992 106.71858978,10.84904957 106.71842194,10.84869957","Address":"557A, đường Quốc lộ 13, Quận Thủ Đức","Lat":10.848727,"Lng":106.718346,"K":0},{"StationId":358,"StationOrder":27,"StationDirection":0,"RouteId":41,"RouteVarId":82,"StationCode":"QTD 220","StationName":"Cân Nhơn Hòa","pathPoints":"106.71842194,10.84869957 106.71826172,10.84827995 106.71816254,10.84772968 106.71811676,10.84702969 106.71813965,10.84626007 106.71816254,10.84447956 106.71816254,10.84447002","Address":"447-449, đường Quốc lộ 13, Quận Thủ Đức","Lat":10.844473,"Lng":106.718086,"K":0},{"StationId":354,"StationOrder":28,"StationDirection":0,"RouteId":41,"RouteVarId":82,"StationCode":"QTD 221","StationName":"Đường số 4","pathPoints":"106.71816254,10.84447002 106.71817780,10.84362030 106.71814728,10.84313011 106.71807098,10.84270000 106.71791077,10.84232998 106.71782684,10.84216976 106.71765137,10.84193993 106.71736145,10.84158993 106.71691895,10.84103966","Address":"385, đường Quốc lộ 13, Quận Thủ Đức","Lat":10.84109,"Lng":106.716858,"K":0},{"StationId":359,"StationOrder":29,"StationDirection":0,"RouteId":41,"RouteVarId":82,"StationCode":"QTD 222","StationName":"Đường số 3","pathPoints":"106.71691895,10.84103966 106.71498871,10.83872032","Address":"327-329, đường Quốc lộ 13, Quận Thủ Đức","Lat":10.83877,"Lng":106.714915,"K":0},{"StationId":356,"StationOrder":30,"StationDirection":0,"RouteId":41,"RouteVarId":82,"StationCode":"QTD 223","StationName":"Cầu Ông Dầu","pathPoints":"106.71498871,10.83872032 106.71470642,10.83839035 106.71434784,10.83794022 106.71421814,10.83777046 106.71411133,10.83755970 106.71394348,10.83718967 106.71386719,10.83691978 106.71382904,10.83662033 106.71382904,10.83598995 106.71383667,10.83582973","Address":"261, đường Quốc lộ 13, Quận Thủ Đức","Lat":10.835822,"Lng":106.713745,"K":0},{"StationId":357,"StationOrder":31,"StationDirection":0,"RouteId":41,"RouteVarId":82,"StationCode":"QTD 224","StationName":"Trạm xăng dầu","pathPoints":"106.71383667,10.83582973 106.71389008,10.83508968 106.71392822,10.83368015 106.71396637,10.83294010","Address":"173, đường Quốc lộ 13, Quận Thủ Đức","Lat":10.83294,"Lng":106.71389,"K":0},{"StationId":360,"StationOrder":32,"StationDirection":0,"RouteId":41,"RouteVarId":82,"StationCode":"QTD 225","StationName":"UBND P.Hiệp Bình Chánh","pathPoints":"106.71396637,10.83294010 106.71407318,10.83065033 106.71411133,10.83003998","Address":"328/5 (Đại học Luật), đường Quốc lộ 13, Quận Thủ Đức","Lat":10.830039,"Lng":106.714027,"K":0},{"StationId":361,"StationOrder":33,"StationDirection":0,"RouteId":41,"RouteVarId":82,"StationCode":"QBTH 038","StationName":"Cổng vào-Bến xe Miền Đông","pathPoints":"106.71411133,10.83003998 106.71411896,10.82958984 106.71415710,10.82874012 106.71423340,10.82748985 106.71427155,10.82697964 106.71427917,10.82686043 106.71420288,10.82660961 106.71407318,10.82623005 106.71395111,10.82618046 106.71385956,10.82606983 106.71382141,10.82596016 106.71382141,10.82581043 106.71388245,10.82565975 106.71394348,10.82559013 106.71389771,10.82511997 106.71379089,10.82446957 106.71375275,10.82433033 106.71369171,10.82413006 106.71338654,10.82229996 106.71288300,10.81877995 106.71279907,10.81809044 106.71273804,10.81783962 106.71263885,10.81770992 106.71254730,10.81760979 106.71222687,10.81737995 106.71204376,10.81717968 106.71183777,10.81707954 106.71160889,10.81692028 106.71128845,10.81663990","Address":"78/3, đường Đinh Bộ Lĩnh, Quận Bình Thạnh","Lat":10.816661,"Lng":106.711257,"K":0},{"StationId":1408,"StationOrder":34,"StationDirection":0,"RouteId":41,"RouteVarId":82,"StationCode":"QBTH 071","StationName":"Ngã năm Liệt Sĩ","pathPoints":"106.71128845,10.81663990 106.71118927,10.81651974 106.71092224,10.81604004 106.71038818,10.81499958 106.70954132,10.81330013 106.71063995,10.81206989","Address":"222/4 Ter, đường Nguyễn Xí, Quận Bình Thạnh","Lat":10.81204,"Lng":106.710624,"K":0},{"StationId":1410,"StationOrder":35,"StationDirection":0,"RouteId":41,"RouteVarId":82,"StationCode":"QBTH 131","StationName":"Chợ Phường 25","pathPoints":"106.71062469,10.81204033 106.71196747,10.81052780 106.71345520,10.80904770 106.71467590,10.80830383","Address":"đối diện 134/4A, đường Ung Văn Khiêm, Quận Bình Thạnh","Lat":10.808304,"Lng":106.714674,"K":0},{"StationId":1405,"StationOrder":36,"StationDirection":0,"RouteId":41,"RouteVarId":82,"StationCode":"QBTH 034","StationName":"Đại học Ngoại Thương","pathPoints":"106.71467590,10.80830383 106.71543121,10.80792999 106.71628571,10.80763531 106.71604156,10.80644417","Address":"8A, đường Đường D2, Quận Bình Thạnh","Lat":10.806602,"Lng":106.716047,"K":0},{"StationId":1407,"StationOrder":37,"StationDirection":0,"RouteId":41,"RouteVarId":82,"StationCode":"QBTH 035","StationName":"Trường ĐH Giao thông Vận tải Tp. HCM","pathPoints":"106.71604919,10.80660152 106.71604156,10.80644417 106.71592712,10.80582809 106.71587372,10.80479527","Address":"74 Cư xá Văn Thánh Bắc, đường Đường D2, Quận Bình Thạnh","Lat":10.804795,"Lng":106.715875,"K":0},{"StationId":421,"StationOrder":38,"StationDirection":0,"RouteId":41,"RouteVarId":82,"StationCode":"QBTH 054","StationName":"Đại học Hutech","pathPoints":"106.71584320,10.80405712 106.71579742,10.80341434 106.71574402,10.80294037 106.71563721,10.80251884 106.71512604,10.80114365 106.71485901,10.80122757","Address":"483, đường Điện Biên Phủ, Quận Bình Thạnh","Lat":10.801228,"Lng":106.714856,"K":0},{"StationId":423,"StationOrder":39,"StationDirection":0,"RouteId":41,"RouteVarId":82,"StationCode":"QBTH 053","StationName":"Cây xăng dầu","pathPoints":"106.71485901,10.80122757 106.71485901,10.80122757 106.71370697,10.80155945 106.71331024,10.80165482 106.71292114,10.80166531 106.71283722,10.80169678","Address":"419, đường Điện Biên Phủ, Quận Bình Thạnh","Lat":10.801697,"Lng":106.712834,"K":0},{"StationId":368,"StationOrder":40,"StationDirection":0,"RouteId":41,"RouteVarId":82,"StationCode":"QBTH 130","StationName":"Trường trung học Gia Định","pathPoints":"106.71244812,10.80163860 106.71163940,10.80162811 106.71137238,10.80173397 106.71126556,10.80171776 106.71115875,10.80167580 106.71109009,10.80155945 106.71108246,10.80142784 106.71112061,10.80131245 106.71118927,10.80120659 106.71107483,10.79983711","Address":"221, đường Xô Viết Nghệ Tĩnh, Quận Bình Thạnh","Lat":10.79981,"Lng":106.711037,"K":0},{"StationId":367,"StationOrder":41,"StationDirection":0,"RouteId":41,"RouteVarId":82,"StationCode":"QBTH 129","StationName":"Trường Tiểu học Hồng Hà","pathPoints":"106.71103668,10.79981041 106.71107483,10.79983711 106.71102142,10.79907799 106.71088409,10.79831886 106.71067810,10.79752827 106.71059418,10.79732800","Address":"153, đường Xô Viết Nghệ Tĩnh, Quận Bình Thạnh","Lat":10.797328,"Lng":106.710591,"K":0},{"StationId":369,"StationOrder":42,"StationDirection":0,"RouteId":41,"RouteVarId":82,"StationCode":"QBTH 128","StationName":"Ngã ba Nguyễn Cửu Vân","pathPoints":"106.71041107,10.79673767 106.71023560,10.79620552 106.70999908,10.79567337 106.70968628,10.79529476 106.70936584,10.79497814","Address":"151, đường Xô Viết Nghệ Tĩnh, Quận Bình Thạnh","Lat":10.79511,"Lng":106.709443,"K":0},{"StationId":373,"StationOrder":43,"StationDirection":0,"RouteId":41,"RouteVarId":82,"StationCode":"QBTH 127","StationName":"Nhà thờ Thị Nghè","pathPoints":"106.70936584,10.79497814 106.70797729,10.79353428","Address":"79, đường Xô Viết Nghệ Tĩnh, Quận Bình Thạnh","Lat":10.793661,"Lng":106.708054,"K":0},{"StationId":370,"StationOrder":44,"StationDirection":0,"RouteId":41,"RouteVarId":82,"StationCode":"Q1 098","StationName":"Thảo Cầm Viên","pathPoints":"106.70797729,10.79353428 106.70526123,10.79069424","Address":"2A, đường Nguyễn Thị Minh Khai, Quận 1","Lat":10.790694,"Lng":106.705259,"K":0},{"StationId":374,"StationOrder":45,"StationDirection":0,"RouteId":41,"RouteVarId":82,"StationCode":"Q1 099","StationName":"Đài truyền hình","pathPoints":"106.70526123,10.79069424 106.70201111,10.78715706","Address":"Đối diện 9, đường Nguyễn Thị Minh Khai, Quận 1","Lat":10.787157,"Lng":106.702011,"K":0},{"StationId":1190,"StationOrder":46,"StationDirection":0,"RouteId":41,"RouteVarId":82,"StationCode":"Q1 010","StationName":"Đại học Y Dược","pathPoints":"106.70201111,10.78715706 106.70186615,10.78698921 106.70152283,10.78659916 106.70243835,10.78577995 106.70238495,10.78571606","Address":"43, đường Đinh Tiên Hoàng, Quận 1","Lat":10.785716,"Lng":106.702385,"K":0},{"StationId":2146,"StationOrder":47,"StationDirection":0,"RouteId":41,"RouteVarId":82,"StationCode":"Q1 085","StationName":"Khách sạn Sofitel","pathPoints":"106.70238495,10.78571606 106.70277405,10.78548813 106.70307922,10.78518009 106.70266724,10.78466034 106.70211792,10.78427982","Address":"Đối diện Central Plaza, đường Lê Duẩn, Quận 1","Lat":10.78428,"Lng":106.702118,"K":0},{"StationId":237,"StationOrder":48,"StationDirection":0,"RouteId":41,"RouteVarId":82,"StationCode":"Q1 066","StationName":"Bệnh viện Nhi Đồng 2","pathPoints":"106.70217896,10.78421974 106.69959259,10.78149033 106.70184326,10.77947998","Address":"115Bis, đường Hai Bà Trưng, Quận 1","Lat":10.779385,"Lng":106.701744,"K":0},{"StationId":238,"StationOrder":49,"StationDirection":0,"RouteId":41,"RouteVarId":82,"StationCode":"Q1 067","StationName":"Nhà Hát Thành Phố","pathPoints":"106.70174408,10.77938461 106.70174408,10.77938461 106.70185089,10.77941704 106.70269775,10.77868462 106.70350647,10.77787304 106.70350647,10.77787304","Address":"101, đường Hai Bà Trưng, Quận 1","Lat":10.777873,"Lng":106.70351,"K":0},{"StationId":239,"StationOrder":50,"StationDirection":0,"RouteId":41,"RouteVarId":82,"StationCode":"Q1 068","StationName":"Công Trường Mê Linh","pathPoints":"106.70350647,10.77787304 106.70350647,10.77787304 106.70565796,10.77600765 106.70573425,10.77580738 106.70573425,10.77580738","Address":"Đối diện 2, đường Hai Bà Trưng, Quận 1","Lat":10.775807,"Lng":106.705734,"K":0},{"StationId":79,"StationOrder":51,"StationDirection":0,"RouteId":41,"RouteVarId":82,"StationCode":"Q1 031","StationName":"Bến Bạch Đằng","pathPoints":"106.70573425,10.77580738 106.70603943,10.77565956 106.70597076,10.77552795 106.70593262,10.77537537 106.70594025,10.77521706 106.70601654,10.77505398 106.70614624,10.77492142 106.70629120,10.77483749 106.70645905,10.77478504 106.70652771,10.77466869 106.70635986,10.77329922","Address":"21, đường Tôn Đức Thắng, Quận 1","Lat":10.773299,"Lng":106.706359,"K":0},{"StationId":76,"StationOrder":52,"StationDirection":0,"RouteId":41,"RouteVarId":82,"StationCode":"Q1 020","StationName":"Cục Hải Quan Thành Phố","pathPoints":"106.70635986,10.77329922 106.70623779,10.77154922 106.70623779,10.77100086 106.70613098,10.77089024 106.70597076,10.77084827 106.70555115,10.77088547","Address":"2-4, đường Hàm Nghi, Quận 1","Lat":10.770885,"Lng":106.705549,"K":0},{"StationId":78,"StationOrder":53,"StationDirection":0,"RouteId":41,"RouteVarId":82,"StationCode":"Q1 021","StationName":"Hàm Nghi H","pathPoints":"106.70555115,10.77088547 106.70302582,10.77097988","Address":"84, đường Hàm Nghi, Quận 1","Lat":10.77098,"Lng":106.703027,"K":0},{"StationId":82,"StationOrder":54,"StationDirection":0,"RouteId":41,"RouteVarId":82,"StationCode":"Q1 023","StationName":"Hàm Nghi N","pathPoints":"106.70302582,10.77097988 106.69935608,10.77116299","Address":"136, đường Hàm Nghi, Quận 1","Lat":10.771163,"Lng":106.699356,"K":0},{"StationId":7274,"StationOrder":55,"StationDirection":0,"RouteId":41,"RouteVarId":82,"StationCode":"Q1 188","StationName":"Nguyễn Thị Nghĩa","pathPoints":"106.69935608,10.77116299 106.69873810,10.77128601 106.69880676,10.77152824 106.69877625,10.77177048 106.69861603,10.77191830 106.69842529,10.77191257 106.69819641,10.77186489 106.69805908,10.77165985 106.69785309,10.77167034 106.69349670,10.76995182","Address":"94-96, đường Lê Lai, Quận 1","Lat":10.769952,"Lng":106.693495,"K":0},{"StationId":7275,"StationOrder":56,"StationDirection":0,"RouteId":41,"RouteVarId":82,"StationCode":"Q1 189","StationName":"Tôn Thất Tùng","pathPoints":"106.69349670,10.76995182 106.69349670,10.76989460 106.69046783,10.76876068","Address":"202-204, đường Lê Lai, Quận 1","Lat":10.768761,"Lng":106.690469,"K":0},{"StationId":35,"StationOrder":57,"StationDirection":0,"RouteId":41,"RouteVarId":82,"StationCode":"BX 01","StationName":"TĐH xe buýt Sài Gòn","pathPoints":"106.69046783,10.76876068 106.69050598,10.76870823 106.68921661,10.76814461 106.68936157,10.76767635","Address":"TĐH xe buýt Sài Gòn- CV 23/9, đường Lê Lai, Quận 1","Lat":10.767676,"Lng":106.689362,"K":0},{"StationId":35,"StationOrder":0,"StationDirection":1,"RouteId":41,"RouteVarId":81,"StationCode":"BX 01","StationName":"TĐH xe buýt Sài Gòn","pathPoints":"","Address":"TĐH xe buýt Sài Gòn- CV 23/9, đường Lê Lai, Quận 1","Lat":10.767676,"Lng":106.689362,"K":0},{"StationId":7276,"StationOrder":1,"StationDirection":1,"RouteId":41,"RouteVarId":81,"StationCode":"Q1 190","StationName":"Tôn Thất Tùng","pathPoints":"106.68936157,10.76767635 106.68955994,10.76718521 106.69094086,10.76766968","Address":"277-279-275Y, đường Phạm Ngũ Lão, Quận 1","Lat":10.76767,"Lng":106.690941,"K":0},{"StationId":7277,"StationOrder":2,"StationDirection":1,"RouteId":41,"RouteVarId":81,"StationCode":"Q1 191","StationName":"Nguyễn Thị Nghĩa","pathPoints":"106.69094086,10.76766968 106.69089508,10.76772308 106.69366455,10.76882458 106.69370270,10.76878834","Address":"187, đường Phạm Ngũ Lão, Quận 1","Lat":10.768788,"Lng":106.693699,"K":0},{"StationId":7278,"StationOrder":3,"StationDirection":1,"RouteId":41,"RouteVarId":81,"StationCode":"Q1 192","StationName":"Trường Emst Thalmann","pathPoints":"106.69370270,10.76878834 106.69365692,10.76883030 106.69556427,10.76956749 106.69558716,10.76950359","Address":"Trường Emst Thalmann, đường Phạm Ngũ Lão, Quận 1","Lat":10.769504,"Lng":106.695587,"K":0},{"StationId":7264,"StationOrder":4,"StationDirection":1,"RouteId":41,"RouteVarId":81,"StationCode":"Q1 178","StationName":"Hàm Nghi B","pathPoints":"106.69558716,10.76950359 106.69612885,10.76976299 106.69644165,10.76911449 106.69766998,10.77047920 106.69908142,10.77096462 106.69992065,10.77092743","Address":"151, đường Hàm Nghi, Quận 1","Lat":10.770927,"Lng":106.699921,"K":0},{"StationId":7267,"StationOrder":5,"StationDirection":1,"RouteId":41,"RouteVarId":81,"StationCode":"Q1 181","StationName":"Hàm Nghi F","pathPoints":"106.69992065,10.77092743 106.70284271,10.77077389","Address":"81-85, đường Hàm Nghi, Quận 1","Lat":10.770774,"Lng":106.70284,"K":0},{"StationId":31,"StationOrder":6,"StationDirection":1,"RouteId":41,"RouteVarId":81,"StationCode":"Q1 024","StationName":"Bến Bạch Đằng","pathPoints":"106.70284271,10.77077389 106.70284271,10.77077389 106.70284271,10.77077389 106.70448303,10.77065277 106.70513916,10.76935673 106.70613098,10.76961994 106.70664978,10.77387810 106.70664978,10.77387810 106.70664978,10.77387810","Address":"Bến thủy nội địa Thủ Thiêm, đường Tôn Đức Thắng, Quận 1","Lat":10.773878,"Lng":106.706648,"K":0},{"StationId":34,"StationOrder":7,"StationDirection":1,"RouteId":41,"RouteVarId":81,"StationCode":"Q1 057","StationName":"Công Trường Mê Linh","pathPoints":"106.70664978,10.77387810 106.70672607,10.77569675 106.70666504,10.77578640 106.70659637,10.77584934 106.70645905,10.77585983 106.70631409,10.77583313 106.70619202,10.77578831 106.70606995,10.77574348 106.70571899,10.77604771","Address":"2, đường Hai Bà Trưng, Quận 1","Lat":10.776048,"Lng":106.705719,"K":0},{"StationId":42,"StationOrder":8,"StationDirection":1,"RouteId":41,"RouteVarId":81,"StationCode":"Q1 058","StationName":"Nhà Hát Thành Phố","pathPoints":"106.70571899,10.77604771 106.70355988,10.77803135","Address":"74/A2-74/A4, đường Hai Bà Trưng, Quận 1","Lat":10.778031,"Lng":106.703559,"K":0},{"StationId":44,"StationOrder":9,"StationDirection":1,"RouteId":41,"RouteVarId":81,"StationCode":"Q1 059","StationName":"Bệnh viện Nhi Đồng 2","pathPoints":"106.70355988,10.77803135 106.70153809,10.77988052","Address":"Đối diện 115Ter, đường Hai Bà Trưng, Quận 1","Lat":10.779881,"Lng":106.701536,"K":0},{"StationId":39,"StationOrder":10,"StationDirection":1,"RouteId":41,"RouteVarId":81,"StationCode":"Q1 060","StationName":"Bưu Điện Thành Phố","pathPoints":"106.70153809,10.77988052 106.70067596,10.78064537","Address":"86, đường Hai Bà Trưng, Quận 1","Lat":10.780645,"Lng":106.700673,"K":0},{"StationId":2029,"StationOrder":11,"StationDirection":1,"RouteId":41,"RouteVarId":81,"StationCode":"Q1 084","StationName":"Khách sạn Sofitel","pathPoints":"106.70067596,10.78064537 106.69973755,10.78149891 106.70230103,10.78417015","Address":"Sofitel Plaza, đường Lê Duẩn, Quận 1","Lat":10.78417,"Lng":106.702303,"K":0},{"StationId":1096,"StationOrder":12,"StationDirection":1,"RouteId":41,"RouteVarId":81,"StationCode":"Q1 011","StationName":"Đại học Khoa học xã hội nhân văn","pathPoints":"106.70230103,10.78417015 106.70230103,10.78417015 106.70226288,10.78430748 106.70319366,10.78521919 106.70265961,10.78577805 106.70265961,10.78577805","Address":"10, đường Đinh Tiên Hoàng, Quận 1","Lat":10.785778,"Lng":106.702663,"K":0},{"StationId":293,"StationOrder":13,"StationDirection":1,"RouteId":41,"RouteVarId":81,"StationCode":"Q1 096","StationName":"Thảo Cầm Viên","pathPoints":"106.70265961,10.78577805 106.70175934,10.78662109 106.70458984,10.78959846","Address":"3, đường Nguyễn Thị Minh Khai, Quận 1","Lat":10.789598,"Lng":106.70459,"K":0},{"StationId":295,"StationOrder":14,"StationDirection":1,"RouteId":41,"RouteVarId":81,"StationCode":"Q1 097","StationName":"Cầu Thị Nghè","pathPoints":"106.70458984,10.78959846 106.70516205,10.79027748 106.70559692,10.79066944","Address":"1A, đường Nguyễn Thị Minh Khai, Quận 1","Lat":10.790669,"Lng":106.705597,"K":0},{"StationId":298,"StationOrder":15,"StationDirection":1,"RouteId":41,"RouteVarId":81,"StationCode":"QBTH 126","StationName":"Nhà Thờ Thị Nghè","pathPoints":"106.70559692,10.79066944 106.70813751,10.79344463","Address":"22 B, đường Xô Viết Nghệ Tĩnh, Quận Bình Thạnh","Lat":10.793418,"Lng":106.708156,"K":0},{"StationId":297,"StationOrder":16,"StationDirection":1,"RouteId":41,"RouteVarId":81,"StationCode":"QBTH 125","StationName":"Trung tâm Dưỡng Lão","pathPoints":"106.70815277,10.79341793 106.70815277,10.79341793 106.70819092,10.79356098 106.71000671,10.79547310 106.71046448,10.79649067 106.71057129,10.79653263 106.71057129,10.79653263","Address":"138, đường Xô Viết Nghệ Tĩnh, Quận Bình Thạnh","Lat":10.796533,"Lng":106.71057,"K":0},{"StationId":300,"StationOrder":17,"StationDirection":1,"RouteId":41,"RouteVarId":81,"StationCode":"QBTH 124","StationName":"Trường trung học Gia Định","pathPoints":"106.71057129,10.79653263 106.71087646,10.79750156 106.71112061,10.79859257 106.71120453,10.79899883","Address":"246, đường Xô Viết Nghệ Tĩnh, Quận Bình Thạnh","Lat":10.798999,"Lng":106.711203,"K":0},{"StationId":299,"StationOrder":18,"StationDirection":1,"RouteId":41,"RouteVarId":81,"StationCode":"QBTH 123","StationName":"Ngã Ba Hàng Xanh","pathPoints":"106.71120453,10.79899883 106.71124268,10.79976845 106.71129608,10.80050087 106.71139526,10.80120182 106.71154022,10.80130196 106.71157837,10.80147552 106.71154785,10.80161285 106.71144104,10.80171776 106.71143341,10.80284500 106.71150970,10.80326176","Address":"334-336, đường Xô Viết Nghệ Tĩnh, Quận Bình Thạnh","Lat":10.803262,"Lng":106.711509,"K":0},{"StationId":302,"StationOrder":19,"StationDirection":1,"RouteId":41,"RouteVarId":81,"StationCode":"QBTH 122","StationName":"Đài Liệt sĩ","pathPoints":"106.71154022,10.80474758 106.71163940,10.80783558 106.71174622,10.80835152 106.71196747,10.80883121","Address":"504, đường Xô Viết Nghệ Tĩnh, Quận Bình Thạnh","Lat":10.808831,"Lng":106.711965,"K":0},{"StationId":301,"StationOrder":20,"StationDirection":1,"RouteId":41,"RouteVarId":81,"StationCode":"QBTH 135","StationName":"Siêu thị Coop Mart","pathPoints":"106.71196747,10.80883121 106.71212006,10.80930042 106.71221161,10.80964851 106.71233368,10.81025887 106.71240997,10.81079102","Address":"222/13A, đường Quốc lộ 13, Quận Bình Thạnh","Lat":10.810791,"Lng":106.71241,"K":0},{"StationId":522,"StationOrder":21,"StationDirection":1,"RouteId":41,"RouteVarId":81,"StationCode":"QBTH 136","StationName":"Cổng ra - Bến xe Miền Đông 3","pathPoints":"106.71240997,10.81079102 106.71253204,10.81166553","Address":"100-102, đường Quốc lộ 13, Quận Bình Thạnh","Lat":10.811666,"Lng":106.712532,"K":0},{"StationId":304,"StationOrder":22,"StationDirection":1,"RouteId":41,"RouteVarId":81,"StationCode":"QTD 198","StationName":"Trường TH Bình Triệu","pathPoints":"106.71246338,10.81167030 106.71293640,10.81564045 106.71305084,10.81651974 106.71320343,10.81752968 106.71324158,10.81793976 106.71360016,10.82091999 106.71389771,10.82341957 106.71395111,10.82402992 106.71395874,10.82425976 106.71408081,10.82483006 106.71418762,10.82528019 106.71424866,10.82542038 106.71430969,10.82551003 106.71439362,10.82555008 106.71452332,10.82567024 106.71456146,10.82575035 106.71457672,10.82583046 106.71456909,10.82598972 106.71450043,10.82612038 106.71440887,10.82625008 106.71437836,10.82647991 106.71437836,10.82715034 106.71430969,10.82845974 106.71427917,10.82911015 106.71427155,10.82923985","Address":"136, đường Quốc lộ 13, Quận Thủ Đức","Lat":10.829247,"Lng":106.71434,"K":0},{"StationId":309,"StationOrder":23,"StationDirection":1,"RouteId":41,"RouteVarId":81,"StationCode":"QTD 199","StationName":"Trạm xăng dầu","pathPoints":"106.71434021,10.82924747 106.71414948,10.83265495","Address":"64/1, đường Quốc lộ 13, Quận Thủ Đức","Lat":10.832655,"Lng":106.714149,"K":0},{"StationId":306,"StationOrder":24,"StationDirection":1,"RouteId":41,"RouteVarId":81,"StationCode":"QTD 200","StationName":"Cầu Ông Dầu","pathPoints":"106.71414948,10.83265495 106.71401215,10.83613491","Address":"416, đường Quốc lộ 13, Quận Thủ Đức","Lat":10.836135,"Lng":106.714012,"K":0},{"StationId":310,"StationOrder":25,"StationDirection":1,"RouteId":41,"RouteVarId":81,"StationCode":"QTD 201","StationName":"Đường số 3","pathPoints":"106.71391296,10.83619022 106.71391296,10.83650970 106.71394348,10.83681011 106.71401215,10.83708000 106.71412659,10.83742046 106.71427917,10.83771038 106.71449280,10.83800030 106.71515656,10.83878040 106.71524048,10.83887959","Address":"486, đường Quốc lộ 13, Quận Thủ Đức","Lat":10.838815,"Lng":106.715317,"K":0},{"StationId":312,"StationOrder":26,"StationDirection":1,"RouteId":41,"RouteVarId":81,"StationCode":"QTD 202","StationName":"Đường số 4","pathPoints":"106.71531677,10.83881474 106.71714020,10.84107208","Address":"510, đường Quốc lộ 13, Quận Thủ Đức","Lat":10.841072,"Lng":106.71714,"K":0},{"StationId":307,"StationOrder":27,"StationDirection":1,"RouteId":41,"RouteVarId":81,"StationCode":"QTD 203","StationName":"Cân Nhơn Hòa","pathPoints":"106.71708679,10.84111023 106.71772003,10.84187984 106.71788025,10.84210014 106.71803284,10.84237957 106.71814728,10.84270954 106.71823120,10.84305954 106.71826172,10.84362984 106.71824646,10.84469032","Address":"Cân Nhơn Hòa, đường Quốc lộ 13, Quận Thủ Đức","Lat":10.844687,"Lng":106.718307,"K":0},{"StationId":308,"StationOrder":28,"StationDirection":1,"RouteId":41,"RouteVarId":81,"StationCode":"QTD 204","StationName":"Ngã 3 Hiệp Bình","pathPoints":"106.71824646,10.84469032 106.71823120,10.84589958 106.71822357,10.84700966 106.71823120,10.84759998 106.71832275,10.84811974 106.71843719,10.84848976 106.71864319,10.84897995","Address":"1/42A, đường Quốc lộ 13, Quận Thủ Đức","Lat":10.848944,"Lng":106.718704,"K":0},{"StationId":314,"StationOrder":29,"StationDirection":1,"RouteId":41,"RouteVarId":81,"StationCode":"QTD 205","StationName":"Ngã 3 Đường Hiệp Bình","pathPoints":"106.71864319,10.84897995 106.71903992,10.84974957 106.71926880,10.85019016 106.71974945,10.85093975 106.72103119,10.85272980 106.72116089,10.85295010","Address":"620, đường Quốc lộ 13, Quận Thủ Đức","Lat":10.852921,"Lng":106.721222,"K":0},{"StationId":316,"StationOrder":30,"StationDirection":1,"RouteId":41,"RouteVarId":81,"StationCode":"QTD 206","StationName":"Trạm y tế Hiệp Bình Phước","pathPoints":"106.72116089,10.85295010 106.72158813,10.85377026 106.72202301,10.85478020 106.72242737,10.85581017","Address":"702, đường Quốc lộ 13, Quận Thủ Đức","Lat":10.855787,"Lng":106.722504,"K":0},{"StationId":311,"StationOrder":31,"StationDirection":1,"RouteId":41,"RouteVarId":81,"StationCode":"QTD 207","StationName":"UBND P.Hiệp Bình Phước","pathPoints":"106.72242737,10.85581017 106.72274017,10.85661030 106.72328949,10.85807037 106.72358704,10.85883045","Address":"750, đường Quốc lộ 13, Quận Thủ Đức","Lat":10.858809,"Lng":106.723663,"K":0},{"StationId":313,"StationOrder":32,"StationDirection":1,"RouteId":41,"RouteVarId":81,"StationCode":"QTD 208","StationName":"Hồ Bơi","pathPoints":"106.72366333,10.85880947 106.72456360,10.86117172","Address":"784, đường Quốc lộ 13, Quận Thủ Đức","Lat":10.861172,"Lng":106.724564,"K":0},{"StationId":318,"StationOrder":33,"StationDirection":1,"RouteId":41,"RouteVarId":81,"StationCode":"QTD 209","StationName":"Ngã 4 Bình Phước","pathPoints":"106.72450256,10.86120033 106.72486115,10.86213017 106.72496033,10.86248016 106.72498322,10.86283016 106.72495270,10.86308956 106.72486877,10.86340046 106.72470093,10.86380005","Address":"828, đường Quốc lộ 13, Quận Thủ Đức","Lat":10.863845,"Lng":106.724792,"K":0},{"StationId":315,"StationOrder":34,"StationDirection":1,"RouteId":41,"RouteVarId":81,"StationCode":"QTD 159","StationName":"Ngã ba mũi tàu đường Gò Dưa ","pathPoints":"106.72470093,10.86380005 106.72431946,10.86454964 106.72418213,10.86485004 106.72416687,10.86505985 106.72418976,10.86513042 106.72427368,10.86524010 106.72438049,10.86532974 106.72454834,10.86540985 106.72463989,10.86544991 106.72666168,10.86645985 106.72680664,10.86657047 106.72705841,10.86676025 106.72728729,10.86688042 106.72740173,10.86693001","Address":"120, đường Quốc lộ 1, Quận Thủ Đức","Lat":10.86689,"Lng":106.727425,"K":0},{"StationId":320,"StationOrder":35,"StationDirection":1,"RouteId":41,"RouteVarId":81,"StationCode":"QTD 160","StationName":"Chợ Đầu Mối","pathPoints":"106.72742462,10.86688995 106.72742462,10.86688995 106.72737885,10.86697006 106.72898865,10.86783600 106.73007202,10.86837292 106.73020172,10.86830997 106.73020172,10.86830997","Address":"160, đường Quốc lộ 1, Quận Thủ Đức","Lat":10.86831,"Lng":106.730198,"K":0},{"StationId":317,"StationOrder":36,"StationDirection":1,"RouteId":41,"RouteVarId":81,"StationCode":"QTD 161","StationName":"Chợ Tam Bình","pathPoints":"106.73020172,10.86830997 106.73054504,10.86859989 106.73095703,10.86884022 106.73193359,10.86931038 106.73319244,10.86993027 106.73468781,10.87067986 106.73535919,10.87098026 106.73538208,10.87086010","Address":"Chợ Tam Bình, đường Quốc lộ 1, Quận Thủ Đức","Lat":10.87086,"Lng":106.73538,"K":0},{"StationId":322,"StationOrder":37,"StationDirection":1,"RouteId":41,"RouteVarId":81,"StationCode":"QTD 162","StationName":"Hồ Bơi","pathPoints":"106.73535919,10.87098026 106.73597717,10.87121964 106.73674774,10.87143993 106.73748779,10.87160969 106.73834991,10.87172985 106.73964691,10.87189960","Address":"376, đường Quốc lộ 1, Quận Thủ Đức","Lat":10.871766,"Lng":106.739666,"K":0},{"StationId":319,"StationOrder":38,"StationDirection":1,"RouteId":41,"RouteVarId":81,"StationCode":"QTD 163","StationName":"Chợ Tam Hải","pathPoints":"106.73966980,10.87176609 106.73964691,10.87189960 106.74080658,10.87203407 106.74259186,10.87253475 106.74403381,10.87304974 106.74407959,10.87293530","Address":"450, đường Quốc lộ 1, Quận Thủ Đức","Lat":10.872935,"Lng":106.744081,"K":0},{"StationId":321,"StationOrder":39,"StationDirection":1,"RouteId":41,"RouteVarId":81,"StationCode":"QTD 164","StationName":"Cầu vượt Sóng Thần","pathPoints":"106.74407959,10.87293530 106.74467468,10.87319851 106.74561310,10.87350941 106.74673462,10.87382603 106.74713135,10.87390518","Address":"Đối diện 275, đường Quốc lộ 1, Quận Thủ Đức","Lat":10.873905,"Lng":106.747128,"K":0},{"StationId":323,"StationOrder":40,"StationDirection":1,"RouteId":41,"RouteVarId":81,"StationCode":"QTD 165","StationName":"Bến xe Lam Hồng","pathPoints":"106.74707794,10.87403011 106.74913025,10.87469006 106.75228119,10.87574005 106.75308990,10.87596035 106.75370026,10.87602043 106.75434113,10.87600994 106.75489807,10.87592983 106.75566101,10.87580013","Address":"6/8, đường Quốc lộ 1, Quận Thủ Đức","Lat":10.875706,"Lng":106.75562,"K":0},{"StationId":325,"StationOrder":41,"StationDirection":1,"RouteId":41,"RouteVarId":81,"StationCode":"QTD 166","StationName":"Giày da Thái Bình","pathPoints":"106.75562286,10.87570572 106.75746918,10.87535286","Address":"20/8, đường Quốc lộ 1, Quận Thủ Đức","Lat":10.875353,"Lng":106.757466,"K":0},{"StationId":328,"StationOrder":42,"StationDirection":1,"RouteId":41,"RouteVarId":81,"StationCode":"QTD 167","StationName":"Linh Xuân","pathPoints":"106.75746918,10.87535286 106.75749969,10.87541676 106.75918579,10.87510014 106.76084900,10.87463665 106.76091003,10.87447357","Address":"54/8, đường Quốc lộ 1, Quận Thủ Đức","Lat":10.874474,"Lng":106.76091,"K":0},{"StationId":324,"StationOrder":43,"StationDirection":1,"RouteId":41,"RouteVarId":81,"StationCode":"QTD 168","StationName":"Cầu vượt Linh Xuân","pathPoints":"106.76091003,10.87447357 106.76091003,10.87447357 106.76098633,10.87458992 106.76246643,10.87408352 106.76247406,10.87397289 106.76247406,10.87397289","Address":"Kho 856, đường Quốc lộ 1, Quận Thủ Đức","Lat":10.873973,"Lng":106.762476,"K":0},{"StationId":2083,"StationOrder":44,"StationDirection":1,"RouteId":41,"RouteVarId":81,"StationCode":"QTD 169","StationName":"Vietcombank","pathPoints":"106.76247406,10.87397289 106.76248169,10.87404919 106.76261902,10.87403679 106.76309204,10.87384033 106.76686859,10.87255001 106.76715088,10.87254524 106.76966095,10.87170982 106.76964569,10.87165546 106.76964569,10.87159729","Address":"Ngân hàng Vietcombank, đường Quốc lộ 1, Quận Thủ Đức","Lat":10.871597,"Lng":106.769643,"K":0},{"StationId":2084,"StationOrder":45,"StationDirection":1,"RouteId":41,"RouteVarId":81,"StationCode":"QTD 170","StationName":"Nghĩa trang TP","pathPoints":"106.76964569,10.87159729 106.76964569,10.87159729 106.77136230,10.87109661 106.77304077,10.87050724 106.77304077,10.87050724","Address":"Cổng nghĩa trang thành phố, đường Quốc lộ 1, Quận Thủ Đức","Lat":10.870507,"Lng":106.773039,"K":0},{"StationId":1040,"StationOrder":46,"StationDirection":1,"RouteId":41,"RouteVarId":81,"StationCode":"QTD 171","StationName":"ĐH Kinh tế Luật","pathPoints":"106.77304077,10.87050724 106.77307129,10.87059975 106.77671051,10.86938477 106.77672577,10.86930561","Address":"Đối diện 665, đường Quốc lộ 1, Quận Thủ Đức","Lat":10.869306,"Lng":106.776724,"K":0},{"StationId":1041,"StationOrder":47,"StationDirection":1,"RouteId":41,"RouteVarId":81,"StationCode":"QTD 172","StationName":"Công ty điện tử Samsung","pathPoints":"106.77672577,10.86930561 106.77672577,10.86930561 106.77677917,10.86936855 106.77867889,10.86874962 106.77865601,10.86869144 106.77865601,10.86869144","Address":"Công ty điện tử Samsung, đường Quốc lộ 1, Quận Thủ Đức","Lat":10.868691,"Lng":106.778656,"K":0},{"StationId":1042,"StationOrder":48,"StationDirection":1,"RouteId":41,"RouteVarId":81,"StationCode":"QTD 173","StationName":"ĐH Nông Lâm","pathPoints":"106.77865601,10.86869144 106.77938843,10.86856270 106.78088379,10.86806297 106.78207397,10.86769390 106.78311920,10.86743546 106.78416443,10.86732483 106.78519440,10.86727905 106.78636932,10.86724091 106.78727722,10.86712170","Address":"Cột điện SI 2, đường Quốc lộ 1, Quận Thủ Đức","Lat":10.867122,"Lng":106.787277,"K":0},{"StationId":396,"StationOrder":49,"StationDirection":1,"RouteId":41,"RouteVarId":81,"StationCode":"QTD 174","StationName":"ĐH Nông Lâm","pathPoints":"106.78727722,10.86717987 106.78822327,10.86713028 106.78961182,10.86707020 106.79029846,10.86695957","Address":"1030, đường Quốc lộ 1, Quận Thủ Đức","Lat":10.866912,"Lng":106.790283,"K":0},{"StationId":536,"StationOrder":50,"StationDirection":1,"RouteId":41,"RouteVarId":81,"StationCode":"Q9 221","StationName":"Cầu Vượt Trạm 2","pathPoints":"106.79028320,10.86691189 106.79219818,10.86613941 106.79380035,10.86489582 106.79590607,10.86160851 106.79586792,10.86110306 106.79556274,10.86076546 106.79508972,10.86070251 106.79463959,10.86120796 106.79457855,10.86154556 106.79479218,10.86190414 106.79541016,10.86238861 106.79753876,10.86359501","Address":"Tiệm vàng Kim Lợi, đường Quốc lộ 1, Quận 9","Lat":10.863595,"Lng":106.797538,"K":0},{"StationId":537,"StationOrder":51,"StationDirection":1,"RouteId":41,"RouteVarId":81,"StationCode":"Q9 223","StationName":"Suối Tiên","pathPoints":"106.79753876,10.86359501 106.80237579,10.86649799","Address":"Suối Tiên, đường Quốc lộ 1, Quận 9","Lat":10.866498,"Lng":106.802377,"K":0},{"StationId":538,"StationOrder":52,"StationDirection":1,"RouteId":41,"RouteVarId":81,"StationCode":"BX87","StationName":"Đại học Quốc gia","pathPoints":"106.80237579,10.86649799 106.80237579,10.86649799 106.80237579,10.86649799 106.80237579,10.86649799 106.80237579,10.86649799 106.80237579,10.86649799 106.80450439,10.86799431 106.80545807,10.86890030 106.80622864,10.86978531 106.81400299,10.88036823 106.81391907,10.88045311 106.81214905,10.87810898 106.81142426,10.87764549 106.80916595,10.87469482 106.80818939,10.87347794 106.80795288,10.87373638 106.80767822,10.87399387 106.80741119,10.87416267 106.80671692,10.87453175 106.80557251,10.87504292 106.80529785,10.87532711 106.80524445,10.87603855 106.80505371,10.87674904 106.80477142,10.87722397 106.80408478,10.87745571 106.80387878,10.87726021 106.80367279,10.87701797 106.80334473,10.87661743 106.80319977,10.87662792 106.80313110,10.87655449 106.80316162,10.87644386 106.80305481,10.87634373 106.80262756,10.87616444 106.80199432,10.87603855 106.80144501,10.87587452 106.80071259,10.87584305 106.80039978,10.87579632 106.80021667,10.87574291 106.80001831,10.87563801 106.79984283,10.87549591 106.79979706,10.87536907 106.79981995,10.87521076 106.79988861,10.87488461 106.79996490,10.87459469 106.80017090,10.87431526 106.80059814,10.87403107 106.80098724,10.87386227 106.80169678,10.87363625 106.80195618,10.87358379 106.80202484,10.87380505","Address":"Bến xe buýt Khu A Đô thị Quốc gia, đường Đường nội bộ Đại học Quốc gia, Quận Thủ Đức","Lat":10.873805046081543,"Lng":106.8020248413086,"K":0}]