[{"StationId":2479,"StationOrder":0,"StationDirection":0,"RouteId":50,"RouteVarId":100,"StationCode":"BX77","StationName":"Chợ nông sản Thủ Đức","pathPoints":"","Address":"ĐẦU BẾN CHỢ NÔNG SẢN THỦ ĐỨC, đường Quốc lộ 1, Quận Thủ Đức","Lat":10.868857383728027,"Lng":106.72943115234375,"K":0},{"StationId":347,"StationOrder":1,"StationDirection":0,"RouteId":50,"RouteVarId":100,"StationCode":"QTD 195","StationName":"Chợ đầu mối nông sản Thủ Đức","pathPoints":"106.72943115,10.86885738 106.72959137,10.86894226 106.72983551,10.86849976 106.72915649,10.86812019 106.72915649,10.86812019","Address":"Chợ đầu mối nông sản Thủ Đức, đường Quốc lộ 1, Quận Thủ Đức","Lat":10.86812,"Lng":106.729158,"K":0},{"StationId":315,"StationOrder":2,"StationDirection":0,"RouteId":50,"RouteVarId":100,"StationCode":"QTD 159","StationName":"Ngã ba mũi tàu đường Gò Dưa ","pathPoints":"106.72915649,10.86812019 106.72915649,10.86812019 106.72792816,10.86750889 106.72713470,10.86706638 106.72615814,10.86655045 106.72390747,10.86552811 106.72354126,10.86533833 106.72348785,10.86508560 106.72370148,10.86494923 106.72401428,10.86497021 106.72420502,10.86519146 106.72436523,10.86535931 106.72742462,10.86688995 106.72742462,10.86688995","Address":"120, đường Quốc lộ 1, Quận Thủ Đức","Lat":10.86689,"Lng":106.727425,"K":0},{"StationId":320,"StationOrder":3,"StationDirection":0,"RouteId":50,"RouteVarId":100,"StationCode":"QTD 160","StationName":"Chợ Đầu Mối","pathPoints":"106.72742462,10.86688995 106.72798157,10.86724091 106.72880554,10.86766148 106.72973633,10.86813068 106.73020172,10.86830997","Address":"160, đường Quốc lộ 1, Quận Thủ Đức","Lat":10.86831,"Lng":106.730198,"K":0},{"StationId":4378,"StationOrder":4,"StationDirection":0,"RouteId":50,"RouteVarId":100,"StationCode":"QTD 242","StationName":"Đường 12","pathPoints":"106.73020172,10.86830997 106.73203278,10.86927414 106.73220825,10.86925793 106.73236084,10.86918449 106.73243713,10.86905289 106.73262024,10.86837292 106.73346710,10.86720943","Address":"Trụ chiếu sáng T2.9, đường Đường nhánh N8 nút giao Gò Dưa, Quận Thủ Đức","Lat":10.867209,"Lng":106.733465,"K":0},{"StationId":1485,"StationOrder":5,"StationDirection":0,"RouteId":50,"RouteVarId":100,"StationCode":"QTD 043","StationName":"Phường Tam Bình","pathPoints":"106.73346710,10.86720943 106.73387909,10.86682415 106.73397827,10.86679840 106.73417664,10.86617088 106.73438263,10.86619186 106.73453522,10.86635017 106.73426819,10.86648750 106.73374176,10.86818314 106.73480225,10.86860466 106.73561096,10.86814690","Address":"691, đường Tô Ngọc Vân, Quận Thủ Đức","Lat":10.868147,"Lng":106.735611,"K":0},{"StationId":1492,"StationOrder":6,"StationDirection":0,"RouteId":50,"RouteVarId":100,"StationCode":"QTD 044","StationName":"Điện lực Thủ Đức","pathPoints":"106.73561096,10.86814690 106.73596191,10.86805725 106.73693848,10.86769867 106.73741150,10.86751938 106.73771667,10.86736679 106.73798370,10.86707211 106.73814392,10.86687565","Address":"Điện lực Thủ Đức, đường Tô Ngọc Vân, Quận Thủ Đức","Lat":10.866876,"Lng":106.738144,"K":0},{"StationId":1488,"StationOrder":7,"StationDirection":0,"RouteId":50,"RouteVarId":100,"StationCode":"QTD 045","StationName":"Công ty Minh Nghệ","pathPoints":"106.73814392,10.86687565 106.73831177,10.86671925 106.73875427,10.86626625 106.73902893,10.86618137 106.73997498,10.86604977 106.74035645,10.86598110","Address":"601, đường Tô Ngọc Vân, Quận Thủ Đức","Lat":10.865981,"Lng":106.740358,"K":0},{"StationId":1494,"StationOrder":8,"StationDirection":0,"RouteId":50,"RouteVarId":100,"StationCode":"QTD 046","StationName":"Chùa Vạn Hạnh","pathPoints":"106.74035645,10.86598110 106.74106598,10.86592865 106.74141693,10.86577606 106.74158478,10.86558056 106.74171448,10.86528111 106.74183655,10.86455441","Address":"579, đường Tô Ngọc Vân, Quận Thủ Đức","Lat":10.864554,"Lng":106.741839,"K":0},{"StationId":1490,"StationOrder":9,"StationDirection":0,"RouteId":50,"RouteVarId":100,"StationCode":"QTD 047","StationName":"Chùa Vạn Đức","pathPoints":"106.74183655,10.86455441 106.74194336,10.86436939 106.74204254,10.86400604 106.74217987,10.86364746 106.74229431,10.86343670 106.74245453,10.86321545 106.74271393,10.86296844","Address":"521, đường Tô Ngọc Vân, Quận Thủ Đức","Lat":10.862968,"Lng":106.742713,"K":0},{"StationId":2530,"StationOrder":10,"StationDirection":0,"RouteId":50,"RouteVarId":100,"StationCode":"QTD 015","StationName":"Đường Phú Châu","pathPoints":"106.74271393,10.86296844 106.74409485,10.86214638 106.74507904,10.86294746","Address":"Đối diện 21, đường Phú Châu, Quận Thủ Đức","Lat":10.862947,"Lng":106.745079,"K":0},{"StationId":2509,"StationOrder":11,"StationDirection":0,"RouteId":50,"RouteVarId":100,"StationCode":"QTD 016","StationName":"Bệnh viện Thủ Đức","pathPoints":"106.74507904,10.86297989 106.74550629,10.86336040 106.74571228,10.86312962","Address":"108, đường Tam Hà, Quận Thủ Đức","Lat":10.863108,"Lng":106.745682,"K":0},{"StationId":2540,"StationOrder":12,"StationDirection":0,"RouteId":50,"RouteVarId":100,"StationCode":"QTD 017","StationName":"Ngã  Ba Tam Hà - Tô Ngọc Vân","pathPoints":"106.74571228,10.86312962 106.74613953,10.86264038 106.74697113,10.86145020 106.74787903,10.86005020","Address":"28, đường Tam Hà, Quận Thủ Đức","Lat":10.860026,"Lng":106.747833,"K":0},{"StationId":1498,"StationOrder":13,"StationDirection":0,"RouteId":50,"RouteVarId":100,"StationCode":"QTD 050","StationName":"Ngã Ba Linh Đông","pathPoints":"106.74787903,10.86005020 106.74846649,10.85914040 106.74910736,10.85795975 106.74949646,10.85748959 106.74983978,10.85706997 106.75048828,10.85587025","Address":"219, đường Tô Ngọc Vân, Quận Thủ Đức","Lat":10.855843,"Lng":106.75045,"K":0},{"StationId":1493,"StationOrder":14,"StationDirection":0,"RouteId":50,"RouteVarId":100,"StationCode":"QTD 051","StationName":"Bồn nước","pathPoints":"106.75045013,10.85584259 106.75054932,10.85571861 106.75083160,10.85425949 106.75092316,10.85399055 106.75110626,10.85368538 106.75133514,10.85338974 106.75160980,10.85311127 106.75203705,10.85285378","Address":"111, đường Tô Ngọc Vân, Quận Thủ Đức","Lat":10.852854,"Lng":106.752037,"K":0},{"StationId":1500,"StationOrder":15,"StationDirection":0,"RouteId":50,"RouteVarId":100,"StationCode":"QTD 052","StationName":"Chợ Thủ Đức","pathPoints":"106.75203705,10.85285378 106.75247192,10.85263634 106.75289154,10.85232544 106.75327301,10.85160446 106.75357819,10.85126114 106.75428009,10.85119820","Address":"13, đường Tô Ngọc Vân, Quận Thủ Đức","Lat":10.851198,"Lng":106.75428,"K":0},{"StationId":406,"StationOrder":16,"StationDirection":0,"RouteId":50,"RouteVarId":100,"StationCode":"QTD 059","StationName":"Làng trẻ em SOS","pathPoints":"106.75428009,10.85122967 106.75485992,10.85120010 106.75485229,10.85118961 106.75483704,10.85118008 106.75482941,10.85114956 106.75483704,10.85107994 106.75491333,10.85103035 106.75498962,10.85103989 106.75504303,10.85109997 106.75504303,10.85114002 106.75504303,10.85116005 106.75566101,10.85111046 106.75601959,10.85109997 106.75675964,10.85122013 106.75714111,10.85124969 106.75746918,10.85112953 106.75782013,10.85105038 106.75804901,10.85099030 106.75818634,10.85091019 106.75852203,10.85068035 106.75862122,10.85064983 106.75868225,10.85041046 106.75875854,10.84972954","Address":"249, đường Đặng Văn Bi, Quận Thủ Đức","Lat":10.849723,"Lng":106.758698,"K":0},{"StationId":408,"StationOrder":17,"StationDirection":0,"RouteId":50,"RouteVarId":100,"StationCode":"QTD 060","StationName":"Trường THPT Quận Thủ Đức","pathPoints":"106.75869751,10.84972286 106.75875092,10.84960175 106.75875854,10.84946537 106.75880432,10.84929657 106.75885773,10.84915447 106.75893402,10.84900093 106.75961304,10.84820747","Address":"229-231, đường Đặng Văn Bi, Quận Thủ Đức","Lat":10.848207,"Lng":106.759613,"K":0},{"StationId":407,"StationOrder":18,"StationDirection":0,"RouteId":50,"RouteVarId":100,"StationCode":"QTD 061","StationName":"Công ty may Sài Gòn","pathPoints":"106.75961304,10.84820747 106.76051331,10.84720516 106.76083374,10.84683609 106.76111603,10.84643555 106.76135254,10.84595108 106.76147461,10.84551907 106.76161957,10.84501266 106.76191711,10.84454918 106.76213074,10.84410667","Address":"Kế 145B, đường Đặng Văn Bi, Quận Thủ Đức","Lat":10.844107,"Lng":106.762133,"K":0},{"StationId":411,"StationOrder":19,"StationDirection":0,"RouteId":50,"RouteVarId":100,"StationCode":"QTD 062","StationName":"Công ty Sanofi Aventis","pathPoints":"106.76213074,10.84410667 106.76260376,10.84348488 106.76312256,10.84254742 106.76362610,10.84192562 106.76435089,10.84132004","Address":"15/6C, đường Đặng Văn Bi, Quận Thủ Đức","Lat":10.84132,"Lng":106.764354,"K":0},{"StationId":409,"StationOrder":20,"StationDirection":0,"RouteId":50,"RouteVarId":100,"StationCode":"QTD 063","StationName":"Tu viện Quảng Đức","pathPoints":"106.76435089,10.84132004 106.76473999,10.84113026 106.76567841,10.84055042 106.76595306,10.84022903 106.76609802,10.83988094 106.76613617,10.83960724","Address":"Tu viện Quảng Đức, đường Đặng Văn Bi, Quận Thủ Đức","Lat":10.839607,"Lng":106.766136,"K":0},{"StationId":1113,"StationOrder":21,"StationDirection":0,"RouteId":50,"RouteVarId":100,"StationCode":"QTD 077","StationName":"Ngã tư Thủ Đức","pathPoints":"106.76613617,10.83960724 106.76634216,10.83935452 106.77213287,10.84964371 106.77304077,10.84950161 106.77331543,10.84926987 106.77339172,10.84895897 106.77333832,10.84871197 106.77298737,10.84827995","Address":"Đối diện Coopmart, đường Xa Lộ Hà Nội, Quận Thủ Đức","Lat":10.84828,"Lng":106.77299,"K":0},{"StationId":1111,"StationOrder":22,"StationDirection":0,"RouteId":50,"RouteVarId":100,"StationCode":"QTD 078","StationName":"Betong Hải Âu","pathPoints":"106.77298737,10.84827995 106.77062988,10.84429741","Address":"Đối diện Betong Hải Âu, đường Xa Lộ Hà Nội, Quận Thủ Đức","Lat":10.844297,"Lng":106.77063,"K":0},{"StationId":1112,"StationOrder":23,"StationDirection":0,"RouteId":50,"RouteVarId":100,"StationCode":"QTD 079","StationName":"UBND Quận 9","pathPoints":"106.77062988,10.84429741 106.76860809,10.84074497","Address":"126, đường Xa Lộ Hà Nội, Quận Thủ Đức","Lat":10.840745,"Lng":106.768607,"K":0},{"StationId":4174,"StationOrder":24,"StationDirection":0,"RouteId":50,"RouteVarId":100,"StationCode":"Q9 007","StationName":"10-12, Đỗ Xuân Hợp","pathPoints":"106.76860809,10.84074497 106.76571655,10.83558178 106.76629639,10.83518696 106.76701355,10.83440113","Address":"10-12, đường Đỗ Xuân Hợp, Quận 9","Lat":10.834401,"Lng":106.767012,"K":0},{"StationId":4175,"StationOrder":25,"StationDirection":0,"RouteId":50,"RouteVarId":100,"StationCode":"Q9 008","StationName":"Đường 98","pathPoints":"106.76701355,10.83440113 106.76709747,10.83425426 106.76718903,10.83389091 106.76714325,10.83295250 106.76718140,10.83246803 106.76741028,10.83192539 106.76769257,10.83159351 106.76778412,10.83125687 106.76779938,10.83094597","Address":"42, đường Đỗ Xuân Hợp, Quận 9","Lat":10.830946,"Lng":106.767801,"K":0},{"StationId":4176,"StationOrder":26,"StationDirection":0,"RouteId":50,"RouteVarId":100,"StationCode":"Q9 009","StationName":"Chợ Phước Long B","pathPoints":"106.76779938,10.83094597 106.76841736,10.82903290","Address":"178, đường Đỗ Xuân Hợp, Quận 9","Lat":10.829033,"Lng":106.76842,"K":0},{"StationId":4114,"StationOrder":27,"StationDirection":0,"RouteId":50,"RouteVarId":100,"StationCode":"Q9 010","StationName":"UBND Phường Phước Long B","pathPoints":"106.76841736,10.82903290 106.76841736,10.82903290 106.76863861,10.82823753 106.76876831,10.82665730 106.76876831,10.82665730","Address":"Đối diện UBND phường Phước Long B, đường Đỗ Xuân Hợp, Quận 9","Lat":10.826657,"Lng":106.768768,"K":0},{"StationId":4177,"StationOrder":28,"StationDirection":0,"RouteId":50,"RouteVarId":100,"StationCode":"Q9 011","StationName":"Đại học văn Hoá cơ sở 2","pathPoints":"106.76876831,10.82665730 106.76902008,10.82511806 106.76946259,10.82352734 106.77044678,10.82294178","Address":"254, đường Đỗ Xuân Hợp, Quận 9","Lat":10.822942,"Lng":106.770447,"K":0},{"StationId":4178,"StationOrder":29,"StationDirection":0,"RouteId":50,"RouteVarId":100,"StationCode":"Q9 012","StationName":"Trường Cao đẳng Kỹ thuật Công nghệ Tp.HCM","pathPoints":"106.77044678,10.82294178 106.77088928,10.82268906 106.77165985,10.82188797 106.77193451,10.82137966","Address":"502, đường Đỗ Xuân Hợp, Quận 9","Lat":10.82138,"Lng":106.771934,"K":0},{"StationId":4179,"StationOrder":30,"StationDirection":0,"RouteId":50,"RouteVarId":100,"StationCode":"Q9 013","StationName":"Đại lộ 2","pathPoints":"106.77193451,10.82137966 106.77271271,10.82004929 106.77291870,10.81950092 106.77317047,10.81813145","Address":"Đối diện 362C, đường Đỗ Xuân Hợp, Quận 9","Lat":10.818131,"Lng":106.773167,"K":0},{"StationId":3199,"StationOrder":31,"StationDirection":0,"RouteId":50,"RouteVarId":100,"StationCode":"Q9 014","StationName":"Chùa Thiên Minh","pathPoints":"106.77317047,10.81813145 106.77423096,10.81671906 106.77440643,10.81607246","Address":"616, đường Đỗ Xuân Hợp, Quận 9","Lat":10.816072,"Lng":106.774406,"K":0},{"StationId":4180,"StationOrder":32,"StationDirection":0,"RouteId":50,"RouteVarId":100,"StationCode":"Q9 015","StationName":"Đình Bình Thái","pathPoints":"106.77440643,10.81607246 106.77539825,10.81332302","Address":"Đối diện 141, đường Đỗ Xuân Hợp, Quận 9","Lat":10.813323,"Lng":106.775401,"K":0},{"StationId":4181,"StationOrder":33,"StationDirection":0,"RouteId":50,"RouteVarId":100,"StationCode":"Q9 016","StationName":"Cầu Nam Lý","pathPoints":"106.77539825,10.81332302 106.77601624,10.81098080","Address":"91B, đường Đỗ Xuân Hợp, Quận 9","Lat":10.810981,"Lng":106.776019,"K":0},{"StationId":4183,"StationOrder":34,"StationDirection":0,"RouteId":50,"RouteVarId":100,"StationCode":"Q9 018","StationName":"Trường cao đẳng sư phạm trung ương (cơ sở 2)","pathPoints":"106.77601624,10.81098080 106.77606964,10.81098080 106.77638245,10.80964851 106.77693176,10.80869389 106.77709198,10.80793571 106.77775574,10.80581760 106.77884674,10.80639172 106.78381348,10.80970097 106.78511047,10.80769825 106.78302002,10.80660725 106.78031158,10.80496883 106.77835846,10.80376720 106.77839661,10.80342484","Address":"Cột điện FC 120, đường Đỗ Xuân Hợp, Quận 9","Lat":10.803425,"Lng":106.778398,"K":0},{"StationId":4184,"StationOrder":35,"StationDirection":0,"RouteId":50,"RouteVarId":100,"StationCode":"Q9 019","StationName":"Đường 655","pathPoints":"106.77839661,10.80342484 106.77915955,10.80069160","Address":"Đối diện 366, đường Đỗ Xuân Hợp, Quận 9","Lat":10.800692,"Lng":106.779162,"K":0},{"StationId":4185,"StationOrder":36,"StationDirection":0,"RouteId":50,"RouteVarId":100,"StationCode":"Q9 020","StationName":"Khu dân cư Sông Giồng","pathPoints":"106.77915955,10.80069160 106.78124237,10.79360771","Address":"147, đường Đỗ Xuân Hợp, Quận 9","Lat":10.793608,"Lng":106.781241,"K":0},{"StationId":4186,"StationOrder":37,"StationDirection":0,"RouteId":50,"RouteVarId":100,"StationCode":"Q9 021","StationName":"Cầu Ông Kỳ 2","pathPoints":"106.78124237,10.79360771 106.78155518,10.79269123 106.78153992,10.79106331","Address":"127A, đường Đỗ Xuân Hợp, Quận 9","Lat":10.791063,"Lng":106.781541,"K":0},{"StationId":4062,"StationOrder":38,"StationDirection":0,"RouteId":50,"RouteVarId":100,"StationCode":"Q2 055","StationName":"Đỗ Xuân Hợp","pathPoints":"106.78153992,10.79106331 106.78160858,10.79049873 106.78114319,10.79048824 106.77967072,10.78975105","Address":"953-955, đường Nguyễn Duy Trinh, Quận 2","Lat":10.789751,"Lng":106.779674,"K":0},{"StationId":4058,"StationOrder":39,"StationDirection":0,"RouteId":50,"RouteVarId":100,"StationCode":"Q2 056","StationName":"Trường Nguyễn Văn Trỗi","pathPoints":"106.77967072,10.78975105 106.77755737,10.78867054","Address":"Đối diện 618, đường Nguyễn Duy Trinh, Quận 2","Lat":10.788671,"Lng":106.777557,"K":0},{"StationId":4064,"StationOrder":40,"StationDirection":0,"RouteId":50,"RouteVarId":100,"StationCode":"Q2 057","StationName":"Đường số 6","pathPoints":"106.77755737,10.78867054 106.77755737,10.78867054 106.77750397,10.78860188 106.77651215,10.78811169 106.77614594,10.78806973 106.77566528,10.78812218 106.77561188,10.78818035 106.77561188,10.78818035","Address":"671-673, đường Nguyễn Duy Trinh, Quận 2","Lat":10.78818,"Lng":106.775613,"K":0},{"StationId":4066,"StationOrder":41,"StationDirection":0,"RouteId":50,"RouteVarId":100,"StationCode":"Q2 058","StationName":"Nhà Sách Nguyễn Văn Cừ","pathPoints":"106.77561188,10.78818035 106.77561188,10.78818035 106.77555084,10.78812218 106.77323914,10.78834343 106.77317047,10.78840160 106.77317047,10.78840160","Address":"587-589, đường Nguyễn Duy Trinh, Quận 2","Lat":10.788402,"Lng":106.773167,"K":0},{"StationId":4068,"StationOrder":42,"StationDirection":0,"RouteId":50,"RouteVarId":100,"StationCode":"Q2 059","StationName":"Lê Văn Thịnh","pathPoints":"106.77317047,10.78840160 106.77317047,10.78840160 106.77302551,10.78835964 106.77082825,10.78855991 106.77076721,10.78863907 106.77076721,10.78863907","Address":"537-537D, đường Nguyễn Duy Trinh, Quận 2","Lat":10.788639,"Lng":106.770764,"K":0},{"StationId":4166,"StationOrder":43,"StationDirection":0,"RouteId":50,"RouteVarId":100,"StationCode":"Q2 063","StationName":"36, Lê Văn Thịnh","pathPoints":"106.77076721,10.78863907 106.76955414,10.78868103 106.76901245,10.78855419 106.76916504,10.78743744 106.76907349,10.78704262","Address":"36, đường Lê Văn Thịnh, Quận 2","Lat":10.787043,"Lng":106.76907,"K":0},{"StationId":4167,"StationOrder":44,"StationDirection":0,"RouteId":50,"RouteVarId":100,"StationCode":"Q2 064","StationName":"Bệnh viện Quận 2, Lê Văn Thịnh","pathPoints":"106.76907349,10.78704262 106.76880646,10.78533459 106.76927948,10.78236961","Address":"Bệnh viện Quận 2, đường Lê Văn Thịnh, Quận 2","Lat":10.78237,"Lng":106.769279,"K":0},{"StationId":4168,"StationOrder":45,"StationDirection":0,"RouteId":50,"RouteVarId":100,"StationCode":"Q2 065","StationName":"176, Lê Văn Thịnh","pathPoints":"106.76927948,10.78236961 106.76942444,10.78207779 106.76953888,10.78120327 106.76948547,10.78094482 106.76930237,10.78069210 106.76899719,10.78033924 106.76881409,10.78003311 106.76877594,10.77937508 106.76879120,10.77877426 106.76872253,10.77857304","Address":"176, đường Lê Văn Thịnh, Quận 2","Lat":10.778574,"Lng":106.768747,"K":0},{"StationId":4169,"StationOrder":46,"StationDirection":0,"RouteId":50,"RouteVarId":100,"StationCode":"Q2 066","StationName":"Chợ Cây Xoài","pathPoints":"106.76872253,10.77857304 106.76882935,10.77839470 106.76885223,10.77760983 106.76760864,10.77736664 106.76681519,10.77737331","Address":"238A, đường Đường số 22, Quận 2","Lat":10.777373,"Lng":106.766815,"K":0},{"StationId":2531,"StationOrder":47,"StationDirection":0,"RouteId":50,"RouteVarId":100,"StationCode":"Q2 030","StationName":"Chợ Cây Xoài","pathPoints":"106.76681519,10.77737331 106.76639557,10.77731419 106.76622772,10.77724552 106.76573944,10.77657700 106.76661682,10.77591610","Address":"676, đường Nguyễn Thị Định, Quận 2","Lat":10.775916,"Lng":106.766617,"K":0},{"StationId":2528,"StationOrder":48,"StationDirection":0,"RouteId":50,"RouteVarId":100,"StationCode":"Q2 031","StationName":"UBND Phường Cát Lái","pathPoints":"106.76666260,10.77598000 106.76815796,10.77507019 106.76891327,10.77453995 106.76909637,10.77439022 106.76947784,10.77414989","Address":"Đối diện trường mầm non Cát Lái, đường Nguyễn Thị Định, Quận 2","Lat":10.774142,"Lng":106.769348,"K":0},{"StationId":2532,"StationOrder":49,"StationDirection":0,"RouteId":50,"RouteVarId":100,"StationCode":"Q2 032","StationName":"Khu Dân Cư Phố Đông","pathPoints":"106.76947784,10.77414989 106.76986694,10.77390003 106.76995850,10.77361012 106.77001953,10.77352047 106.77017975,10.77324963 106.77033997,10.77307034 106.77043915,10.77297974 106.77062225,10.77287960 106.77086639,10.77278996 106.77120209,10.77270985 106.77147675,10.77260971 106.77162933,10.77252007 106.77204132,10.77225018 106.77288055,10.77153015 106.77374268,10.77081966 106.77485657,10.76988983 106.77517700,10.76961040 106.77552795,10.76935959 106.77655029,10.76861000 106.77735901,10.76807022 106.77780151,10.76770020 106.77790833,10.76760006","Address":"918, đường Nguyễn Thị Định, Quận 2","Lat":10.767412,"Lng":106.778081,"K":0},{"StationId":2538,"StationOrder":50,"StationDirection":0,"RouteId":50,"RouteVarId":100,"StationCode":"Q2 033","StationName":"Sân bóng đá mini","pathPoints":"106.77808380,10.76741219 106.77813721,10.76748562 106.78040314,10.76546001 106.78046417,10.76536179","Address":"936, đường Nguyễn Thị Định, Quận 2","Lat":10.765362,"Lng":106.780463,"K":0},{"StationId":2533,"StationOrder":51,"StationDirection":0,"RouteId":50,"RouteVarId":100,"StationCode":"Q2 034","StationName":"Trường Hải Quân","pathPoints":"106.78046417,10.76536179 106.78290558,10.76324368","Address":"940, đường Nguyễn Thị Định, Quận 2","Lat":10.763244,"Lng":106.782909,"K":0},{"StationId":2542,"StationOrder":52,"StationDirection":0,"RouteId":50,"RouteVarId":100,"StationCode":"Q2ĐB 001","StationName":"Phà Cát Lái","pathPoints":"106.78289795,10.76325989 106.78589630,10.76064014 106.78626251,10.76031017 106.78640747,10.76021957 106.78684235,10.75988007 106.78813934,10.75879002","Address":"1349, đường Nguyễn Thị Định, Quận 2","Lat":10.758901,"Lng":106.788239,"K":0},{"StationId":2467,"StationOrder":53,"StationDirection":0,"RouteId":50,"RouteVarId":100,"StationCode":"BX 10","StationName":"Cát Lái","pathPoints":"106.78813934,10.75879002 106.78684235,10.75988007 106.78640747,10.76021957 106.78630066,10.76035976 106.78594208,10.76068020 106.78443909,10.76200962 106.78337097,10.76294041 106.78333282,10.76288986 106.78315735,10.76282978 106.78256226,10.76216984","Address":"ĐẦU BẾN PHÀ CÁT LÁI, đường Đường A-Q2, Quận 2","Lat":10.762,"Lng":106.782669,"K":0},{"StationId":2467,"StationOrder":0,"StationDirection":1,"RouteId":50,"RouteVarId":99,"StationCode":"BX 10","StationName":"Cát Lái","pathPoints":"","Address":"ĐẦU BẾN PHÀ CÁT LÁI, đường Đường A-Q2, Quận 2","Lat":10.762,"Lng":106.782669,"K":0},{"StationId":2472,"StationOrder":1,"StationDirection":1,"RouteId":50,"RouteVarId":99,"StationCode":"Q2 036","StationName":"Sân bóng đá mini","pathPoints":"106.78266907,10.76200008 106.78350830,10.76288509 106.78072357,10.76537800","Address":"Đối diện cột điện FB 203, đường Nguyễn Thị Định, Quận 2","Lat":10.765378,"Lng":106.780726,"K":0},{"StationId":2480,"StationOrder":2,"StationDirection":1,"RouteId":50,"RouteVarId":99,"StationCode":"Q2 037","StationName":"Khu Dân Cư Phố Đông","pathPoints":"106.78072357,10.76537800 106.77801514,10.76774979","Address":"1127, đường Nguyễn Thị Định, Quận 2","Lat":10.76775,"Lng":106.778017,"K":0},{"StationId":2482,"StationOrder":3,"StationDirection":1,"RouteId":50,"RouteVarId":99,"StationCode":"Q2 038","StationName":"UBND Phường Cát Lái","pathPoints":"106.77801514,10.76774979 106.77350616,10.77157021 106.77064514,10.77349377","Address":"19, đường Nguyễn Thị Định, Quận 2","Lat":10.773494,"Lng":106.770646,"K":0},{"StationId":2474,"StationOrder":4,"StationDirection":1,"RouteId":50,"RouteVarId":99,"StationCode":"Q2 039","StationName":"Chợ Cây Xoài","pathPoints":"106.77064514,10.77349377 106.76715088,10.77582836","Address":"625-627, đường Nguyễn Thị Định, Quận 2","Lat":10.775828,"Lng":106.767154,"K":0},{"StationId":4170,"StationOrder":5,"StationDirection":1,"RouteId":50,"RouteVarId":99,"StationCode":"Q2 067","StationName":"Chợ Cây Xoài","pathPoints":"106.76715088,10.77582836 106.76576233,10.77658749 106.76622772,10.77724552 106.76638031,10.77730942 106.76705933,10.77725315","Address":"335, đường Đường số 22, Quận 2","Lat":10.777253,"Lng":106.767057,"K":0},{"StationId":4171,"StationOrder":6,"StationDirection":1,"RouteId":50,"RouteVarId":99,"StationCode":"Q2 068","StationName":"257, Lê Văn Thịnh","pathPoints":"106.76705933,10.77725315 106.76705933,10.77725315 106.76807404,10.77742481 106.76885223,10.77759933 106.76888275,10.77774620 106.76889801,10.77837372 106.76889801,10.77837372","Address":"257, đường Lê Văn Thịnh, Quận 2","Lat":10.778374,"Lng":106.768898,"K":0},{"StationId":4172,"StationOrder":7,"StationDirection":1,"RouteId":50,"RouteVarId":99,"StationCode":"Q2 069","StationName":"Bệnh viện Quận 2","pathPoints":"106.76889801,10.77837372 106.76877594,10.77931690 106.76881409,10.78006554 106.76949310,10.78097153 106.76954651,10.78121376 106.76953125,10.78201008","Address":"145, đường Lê Văn Thịnh, Quận 2","Lat":10.78201,"Lng":106.76953,"K":0},{"StationId":4173,"StationOrder":8,"StationDirection":1,"RouteId":50,"RouteVarId":99,"StationCode":"Q2 070","StationName":"23-25, Lê Văn Thịnh","pathPoints":"106.76953125,10.78201008 106.76888275,10.78522968 106.76894379,10.78597736 106.76918030,10.78670979","Address":"23-25, đường Lê Văn Thịnh, Quận 2","Lat":10.78671,"Lng":106.769183,"K":0},{"StationId":4002,"StationOrder":9,"StationDirection":1,"RouteId":50,"RouteVarId":99,"StationCode":"Q2 050","StationName":"Lê Văn Thịnh","pathPoints":"106.76918030,10.78670979 106.76922607,10.78737926 106.76910400,10.78851795 106.76959229,10.78859138 106.77021027,10.78851414","Address":"396A (400), đường Nguyễn Duy Trinh, Quận 2","Lat":10.788514,"Lng":106.77021,"K":0},{"StationId":4004,"StationOrder":10,"StationDirection":1,"RouteId":50,"RouteVarId":99,"StationCode":"Q2 051","StationName":"Nhà Sách Nguyễn Văn Cừ","pathPoints":"106.77021790,10.78857040 106.77285004,10.78831005","Address":"476-480, đường Nguyễn Duy Trinh, Quận 2","Lat":10.788264,"Lng":106.772842,"K":0},{"StationId":3996,"StationOrder":11,"StationDirection":1,"RouteId":50,"RouteVarId":99,"StationCode":"Q2 052","StationName":"Đường số 6","pathPoints":"106.77285004,10.78831005 106.77401733,10.78818989 106.77462769,10.78814030 106.77519989,10.78808975","Address":"546-548, đường Nguyễn Duy Trinh, Quận 2","Lat":10.788046,"Lng":106.7752,"K":0},{"StationId":3997,"StationOrder":12,"StationDirection":1,"RouteId":50,"RouteVarId":99,"StationCode":"Q2 053","StationName":"Trường Nguyễn Văn Trỗi","pathPoints":"106.77519989,10.78808975 106.77603149,10.78800011 106.77635193,10.78800964 106.77657318,10.78808975 106.77696228,10.78829956 106.77790070,10.78872967 106.77810669,10.78884029","Address":"630, đường Nguyễn Duy Trinh, Quận 2","Lat":10.788806,"Lng":106.778122,"K":0},{"StationId":4006,"StationOrder":13,"StationDirection":1,"RouteId":50,"RouteVarId":99,"StationCode":"Q2 054","StationName":"Đỗ Xuân Hợp","pathPoints":"106.77810669,10.78884029 106.77941132,10.78948021","Address":"672-674, đường Nguyễn Duy Trinh, Quận 2","Lat":10.789444,"Lng":106.779427,"K":0},{"StationId":4187,"StationOrder":14,"StationDirection":1,"RouteId":50,"RouteVarId":99,"StationCode":"Q9 022","StationName":"Cầu Ông Kỳ 2","pathPoints":"106.77942657,10.78944397 106.78120422,10.79040432 106.78168488,10.79047298 106.78166199,10.79106808 106.78171539,10.79163170","Address":"741, đường Đỗ Xuân Hợp, Quận 9","Lat":10.791632,"Lng":106.781718,"K":0},{"StationId":4188,"StationOrder":15,"StationDirection":1,"RouteId":50,"RouteVarId":99,"StationCode":"Q9 023","StationName":"Khu dân cư Sông Giồng","pathPoints":"106.78171539,10.79163170 106.78167725,10.79258537 106.78129578,10.79425144","Address":"701, đường Đỗ Xuân Hợp, Quận 9","Lat":10.794251,"Lng":106.781294,"K":0},{"StationId":4189,"StationOrder":16,"StationDirection":1,"RouteId":50,"RouteVarId":99,"StationCode":"Q9 024","StationName":"Đường 655","pathPoints":"106.78129578,10.79425144 106.77911377,10.80156517","Address":"366, đường Đỗ Xuân Hợp, Quận 9","Lat":10.801565,"Lng":106.779111,"K":0},{"StationId":4191,"StationOrder":17,"StationDirection":1,"RouteId":50,"RouteVarId":99,"StationCode":"Q9 026","StationName":"Đường D3","pathPoints":"106.77911377,10.80156517 106.77845764,10.80377769 106.78308868,10.80658150 106.78524017,10.80768299 106.78380585,10.80979061 106.78088379,10.80779839 106.77902222,10.80657578 106.77782440,10.80593872 106.77760315,10.80686569","Address":"Đối diện 147F, đường Đỗ Xuân Hợp, Quận 9","Lat":10.805812,"Lng":106.777904,"K":0},{"StationId":4192,"StationOrder":18,"StationDirection":1,"RouteId":50,"RouteVarId":99,"StationCode":"Q9 027","StationName":"Cầu Nam Lý","pathPoints":"106.77760315,10.80686569 106.77697754,10.80875206 106.77654266,10.80958462 106.77601624,10.81169319","Address":"585, đường Đỗ Xuân Hợp, Quận 9","Lat":10.811693,"Lng":106.776016,"K":0},{"StationId":4533,"StationOrder":19,"StationDirection":1,"RouteId":50,"RouteVarId":99,"StationCode":"Q9 028","StationName":"Đình Bình Thái","pathPoints":"106.77601624,10.81169319 106.77538300,10.81384182","Address":"Đình Bình Thái (Sân banh), đường Đỗ Xuân Hợp, Quận 9","Lat":10.813842,"Lng":106.775383,"K":0},{"StationId":3265,"StationOrder":20,"StationDirection":1,"RouteId":50,"RouteVarId":99,"StationCode":"Q9 029","StationName":"Chùa Thiện Minh","pathPoints":"106.77538300,10.81384182 106.77446747,10.81635571","Address":"505, đường Đỗ Xuân Hợp, Quận 9","Lat":10.816356,"Lng":106.774465,"K":0},{"StationId":4193,"StationOrder":21,"StationDirection":1,"RouteId":50,"RouteVarId":99,"StationCode":"Q9 030","StationName":"Đại lộ 2","pathPoints":"106.77446747,10.81635571 106.77426910,10.81677723 106.77334595,10.81799412 106.77326965,10.81837940","Address":"433-435, đường Đỗ Xuân Hợp, Quận 9","Lat":10.818379,"Lng":106.773269,"K":0},{"StationId":4194,"StationOrder":22,"StationDirection":1,"RouteId":50,"RouteVarId":99,"StationCode":"Q9 031","StationName":"Trường Cao đẳng Kỹ thuật Công nghệ Tp.HCM","pathPoints":"106.77326965,10.81837940 106.77317047,10.81904793 106.77288055,10.82005978 106.77252960,10.82080841","Address":"Đối diện 502, đường Đỗ Xuân Hợp, Quận 9","Lat":10.820808,"Lng":106.772529,"K":0},{"StationId":4195,"StationOrder":23,"StationDirection":1,"RouteId":50,"RouteVarId":99,"StationCode":"Q9 032","StationName":"Đại học văn Hoá cơ sở 2","pathPoints":"106.77252960,10.82080841 106.77169037,10.82197762 106.77094269,10.82278919 106.76995087,10.82341576","Address":"287, đường Đỗ Xuân Hợp, Quận 9","Lat":10.823416,"Lng":106.769954,"K":0},{"StationId":4196,"StationOrder":24,"StationDirection":1,"RouteId":50,"RouteVarId":99,"StationCode":"Q9 033","StationName":"UBND phường Phước Long B","pathPoints":"106.76995087,10.82341576 106.76957703,10.82370567 106.76927948,10.82442284 106.76904297,10.82573986","Address":"171, đường Đỗ Xuân Hợp, Quận 9","Lat":10.82574,"Lng":106.769042,"K":0},{"StationId":4197,"StationOrder":25,"StationDirection":1,"RouteId":50,"RouteVarId":99,"StationCode":"Q9 034","StationName":"Chợ Phước Long B","pathPoints":"106.76904297,10.82573986 106.76870728,10.82852173 106.76837921,10.82964897","Address":"133, đường Đỗ Xuân Hợp, Quận 9","Lat":10.829649,"Lng":106.768377,"K":0},{"StationId":4198,"StationOrder":26,"StationDirection":1,"RouteId":50,"RouteVarId":99,"StationCode":"Q9 035","StationName":"Đường 98","pathPoints":"106.76837921,10.82964897 106.76808929,10.83034992 106.76793671,10.83087730 106.76789093,10.83136654","Address":"63-65, đường Đỗ Xuân Hợp, Quận 9","Lat":10.831367,"Lng":106.767889,"K":0},{"StationId":4199,"StationOrder":27,"StationDirection":1,"RouteId":50,"RouteVarId":99,"StationCode":"Q9 036","StationName":"21, Đỗ Xuân Hợp","pathPoints":"106.76789093,10.83136654 106.76749420,10.83199978 106.76729584,10.83244228 106.76725769,10.83329582 106.76731110,10.83390617 106.76719666,10.83440208 106.76675415,10.83495998","Address":"21, đường Đỗ Xuân Hợp, Quận 9","Lat":10.83496,"Lng":106.766751,"K":0},{"StationId":1025,"StationOrder":28,"StationDirection":1,"RouteId":50,"RouteVarId":99,"StationCode":"Q9 214","StationName":"Ngã 4 Bình Thái","pathPoints":"106.76675415,10.83495998 106.76617432,10.83539200 106.76666260,10.83616161","Address":"Kho 71, đường Xa Lộ Hà Nội, Quận 9","Lat":10.836162,"Lng":106.76666,"K":0},{"StationId":1030,"StationOrder":29,"StationDirection":1,"RouteId":50,"RouteVarId":99,"StationCode":"Q9 215","StationName":"UBND quận 9","pathPoints":"106.76666260,10.83616161 106.76666260,10.83616161 106.76672363,10.83649921 106.76885986,10.84041882 106.76907349,10.84046555 106.76907349,10.84046555","Address":"1B, đường Xa Lộ Hà Nội, Quận 9","Lat":10.840466,"Lng":106.769074,"K":0},{"StationId":1026,"StationOrder":30,"StationDirection":1,"RouteId":50,"RouteVarId":99,"StationCode":"Q9 216","StationName":"Bê tông Hải Âu","pathPoints":"106.76907349,10.84046555 106.76907349,10.84046555 106.76905060,10.84073448 106.77065277,10.84377003 106.77079010,10.84383392 106.77079010,10.84383392","Address":"Bê tông Hải Âu, đường Xa Lộ Hà Nội, Quận 9","Lat":10.843834,"Lng":106.77079,"K":0},{"StationId":1028,"StationOrder":31,"StationDirection":1,"RouteId":50,"RouteVarId":99,"StationCode":"Q9 217","StationName":"Ngã 4 Thủ Đức","pathPoints":"106.77079010,10.84383392 106.77076721,10.84383011 106.77150726,10.84517956 106.77175903,10.84545994 106.77225494,10.84623051 106.77278137,10.84714127 106.77297211,10.84714222","Address":"712, đường Xa Lộ Hà Nội, Quận 9","Lat":10.847142,"Lng":106.772974,"K":0},{"StationId":486,"StationOrder":32,"StationDirection":1,"RouteId":50,"RouteVarId":99,"StationCode":"QTD 055","StationName":"Công ty Sanofi Aventis","pathPoints":"106.77297211,10.84714222 106.77292633,10.84727287 106.77362061,10.84827995 106.77434540,10.84902763 106.77352142,10.84964943 106.77219391,10.84972858 106.76638794,10.83946514 106.76597595,10.84025002 106.76571655,10.84060287 106.76449585,10.84140968 106.76417542,10.84165192","Address":"Kế 50, đường Đặng Văn Bi, Quận Thủ Đức","Lat":10.841652,"Lng":106.764175,"K":0},{"StationId":489,"StationOrder":33,"StationDirection":1,"RouteId":50,"RouteVarId":99,"StationCode":"QTD 056","StationName":"Công ty may Sài Gòn","pathPoints":"106.76417542,10.84165192 106.76382446,10.84188366 106.76351929,10.84215736 106.76312256,10.84275818 106.76246643,10.84389687","Address":"Đối diện 139, đường Đặng Văn Bi, Quận Thủ Đức","Lat":10.843897,"Lng":106.762466,"K":0},{"StationId":491,"StationOrder":34,"StationDirection":1,"RouteId":50,"RouteVarId":99,"StationCode":"QTD 057","StationName":"Trường mầm non Vành Khuyên","pathPoints":"106.76246643,10.84389687 106.76206970,10.84443378 106.76169586,10.84499168 106.76157379,10.84523392 106.76153564,10.84557152 106.76141357,10.84591961 106.76123047,10.84638309 106.76091003,10.84685707 106.76005554,10.84788799","Address":"Trường mầm non Họa Mi, đường Đặng Văn Bi, Quận Thủ Đức","Lat":10.847888,"Lng":106.760056,"K":0},{"StationId":488,"StationOrder":35,"StationDirection":1,"RouteId":50,"RouteVarId":99,"StationCode":"QTD 058","StationName":"Làng trẻ em SOS","pathPoints":"106.76005554,10.84788799 106.75920105,10.84873295 106.75887299,10.84923840 106.75877380,10.84962845 106.75878143,10.85001469","Address":"238-240, đường Đặng Văn Bi, Quận Thủ Đức","Lat":10.850015,"Lng":106.758781,"K":0},{"StationId":1540,"StationOrder":36,"StationDirection":1,"RouteId":50,"RouteVarId":99,"StationCode":"QTD 020","StationName":"Nhà Sách Thủ Đức","pathPoints":"106.75878143,10.85001469 106.75871277,10.85071373 106.75811768,10.85105038 106.75714111,10.85135651 106.75594330,10.85120869 106.75439453,10.85133553 106.75365448,10.85136700 106.75335693,10.85170364 106.75323486,10.85197735","Address":"68-70, đường Tô Ngọc Vân, Quận Thủ Đức","Lat":10.851977,"Lng":106.753235,"K":0},{"StationId":1542,"StationOrder":37,"StationDirection":1,"RouteId":50,"RouteVarId":99,"StationCode":"QTD 021","StationName":"Ngã Ba Linh Đông","pathPoints":"106.75323486,10.85197735 106.75295258,10.85240459 106.75256348,10.85270023 106.75166321,10.85320568 106.75146484,10.85338497 106.75126648,10.85365391 106.75110626,10.85389042 106.75093842,10.85425949 106.75068665,10.85564518","Address":"192, đường Tô Ngọc Vân, Quận Thủ Đức","Lat":10.855645,"Lng":106.75069,"K":0},{"StationId":1543,"StationOrder":38,"StationDirection":1,"RouteId":50,"RouteVarId":99,"StationCode":"QTD 018","StationName":"Ngã Ba Tam Hà - Tô Ngọc Vân","pathPoints":"106.75068665,10.85564518 106.75003815,10.85692024 106.74929810,10.85785770 106.74782562,10.86026287","Address":"15, đường Tam Hà, Quận Thủ Đức","Lat":10.860263,"Lng":106.747826,"K":0},{"StationId":1545,"StationOrder":39,"StationDirection":1,"RouteId":50,"RouteVarId":99,"StationCode":"QTD 019","StationName":"Bệnh viện Thủ Đức","pathPoints":"106.74782562,10.86026287 106.74587250,10.86305714","Address":"127-129, đường Tam Hà, Quận Thủ Đức","Lat":10.863057,"Lng":106.745872,"K":0},{"StationId":1544,"StationOrder":40,"StationDirection":1,"RouteId":50,"RouteVarId":99,"StationCode":"QTD 014","StationName":"Đường Phú Châu","pathPoints":"106.74587250,10.86305714 106.74549866,10.86343670 106.74470520,10.86283112","Address":"23, đường Phú Châu, Quận Thủ Đức","Lat":10.862831,"Lng":106.744709,"K":0},{"StationId":1547,"StationOrder":41,"StationDirection":1,"RouteId":50,"RouteVarId":99,"StationCode":"QTD 022","StationName":"Chùa  Vạn Đức","pathPoints":"106.74470520,10.86283112 106.74407959,10.86226177 106.74293518,10.86295223 106.74262238,10.86324215","Address":"476, đường Tô Ngọc Vân, Quận Thủ Đức","Lat":10.863242,"Lng":106.742622,"K":0},{"StationId":1546,"StationOrder":42,"StationDirection":1,"RouteId":50,"RouteVarId":99,"StationCode":"QTD 023","StationName":"Chùa Vạn Hạnh","pathPoints":"106.74262238,10.86324215 106.74237061,10.86348438 106.74226379,10.86368465 106.74203491,10.86445332 106.74192810,10.86497021","Address":"522, đường Tô Ngọc Vân, Quận Thủ Đức","Lat":10.86497,"Lng":106.741928,"K":0},{"StationId":1550,"StationOrder":43,"StationDirection":1,"RouteId":50,"RouteVarId":99,"StationCode":"QTD 024","StationName":"Công ty Minh Nghệ","pathPoints":"106.74192810,10.86497021 106.74168396,10.86562347 106.74149323,10.86587048 106.74111176,10.86602879 106.73992920,10.86619186","Address":"96D3, đường Tô Ngọc Vân, Quận Thủ Đức","Lat":10.866192,"Lng":106.739929,"K":0},{"StationId":1548,"StationOrder":44,"StationDirection":1,"RouteId":50,"RouteVarId":99,"StationCode":"QTD 025","StationName":"Điện lực Thủ Đức","pathPoints":"106.73992920,10.86619186 106.73905182,10.86625576 106.73881531,10.86633396 106.73856354,10.86660099","Address":"562, đường Tô Ngọc Vân, Quận Thủ Đức","Lat":10.866601,"Lng":106.738564,"K":0},{"StationId":1552,"StationOrder":45,"StationDirection":1,"RouteId":50,"RouteVarId":99,"StationCode":"QTD 026","StationName":"UBND Phường Tam Bình","pathPoints":"106.73856354,10.86660099 106.73778534,10.86745167 106.73752594,10.86759377 106.73721313,10.86770916 106.73581696,10.86824131 106.73538208,10.86845779","Address":"640, đường Tô Ngọc Vân, Quận Thủ Đức","Lat":10.868458,"Lng":106.735382,"K":0},{"StationId":2479,"StationOrder":46,"StationDirection":1,"RouteId":50,"RouteVarId":99,"StationCode":"BX77","StationName":"Chợ nông sản Thủ Đức","pathPoints":"106.73535919,10.86839962 106.73487091,10.86865044 106.73423004,10.86841965 106.73371124,10.86822987 106.73361206,10.86855984 106.73317719,10.86995029 106.73297882,10.87065983 106.73277283,10.87137032 106.73280334,10.87145042 106.73287964,10.87156010 106.73298645,10.87164021 106.73312378,10.87166977 106.73325348,10.87162971 106.73336792,10.87154961 106.73362732,10.87063980 106.73361969,10.87053013 106.73355865,10.87040043 106.73342896,10.87020016 106.73314667,10.87007046 106.73269653,10.86985016 106.72991180,10.86843967 106.72962952,10.86896038","Address":"ĐẦU BẾN CHỢ NÔNG SẢN THỦ ĐỨC, đường Quốc lộ 1, Quận Thủ Đức","Lat":10.868857383728027,"Lng":106.72943115234375,"K":0}]