[{"StationId":1945,"StationOrder":0,"StationDirection":1,"RouteId":208,"RouteVarId":1,"StationCode":"BX 50","StationName":"Sân bay Tân Sơn Nhất","pathPoints":"","Address":"Sân bay Tân Sơn Nhất, đường Trường Sơn_QTB, Quận Tân Bình","Lat":10.815592,"Lng":106.66383,"K":0},{"StationId":995,"StationOrder":1,"StationDirection":1,"RouteId":208,"RouteVarId":1,"StationCode":"QTB 012","StationName":"Trường Ngô Sỹ Liên","pathPoints":"106.66383362,10.81559181 106.66384888,10.81553936 106.66288757,10.81504345 106.66272736,10.81487465 106.66263580,10.81407452 106.66250610,10.81280994 106.66269684,10.81264114 106.66444397,10.81247234 106.66469574,10.81229305 106.66488647,10.81201935 106.66467285,10.81025696 106.66467285,10.81025696","Address":"53, đường Trường Sơn, Quận Tân Bình","Lat":10.810257,"Lng":106.664673,"K":0},{"StationId":997,"StationOrder":2,"StationDirection":1,"RouteId":208,"RouteVarId":1,"StationCode":"QTB 013","StationName":"Siêu thị Super Bow","pathPoints":"106.66467285,10.81025696 106.66448975,10.80804920","Address":"Siêu thị super Bow, đường Trường Sơn, Quận Tân Bình","Lat":10.808049,"Lng":106.66449,"K":0},{"StationId":999,"StationOrder":3,"StationDirection":1,"RouteId":208,"RouteVarId":1,"StationCode":"QTB 109","StationName":"Trần Quốc Hoàn","pathPoints":"106.66448975,10.80804920 106.66424561,10.80493736 106.66423035,10.80460548 106.66411591,10.80414200 106.66392517,10.80364418","Address":"65, đường Trần Quốc Hoàn, Quận Tân Bình","Lat":10.803644,"Lng":106.663925,"K":0},{"StationId":258,"StationOrder":4,"StationDirection":1,"RouteId":208,"RouteVarId":1,"StationCode":"QTB 107","StationName":"Vòng xoay Lăng Cha Cả","pathPoints":"106.66392517,10.80364418 106.66392517,10.80364418 106.66352081,10.80269241 106.66230011,10.80137253 106.66231537,10.80136490","Address":"20, đường Trần Quốc Hoàn, Quận Tân Bình","Lat":10.801365,"Lng":106.662312,"K":0},{"StationId":186,"StationOrder":5,"StationDirection":1,"RouteId":208,"RouteVarId":1,"StationCode":"QTB 037","StationName":"Bảo Tàng Miền Đông","pathPoints":"106.66231537,10.80136490 106.66214752,10.80110645 106.66210938,10.80099106 106.66211700,10.80085373 106.66220856,10.80078506 106.66236877,10.80074310 106.66637421,10.80023670","Address":"247, đường Hoàng Văn Thụ, Quận Tân Bình","Lat":10.800237,"Lng":106.666372,"K":0},{"StationId":188,"StationOrder":6,"StationDirection":1,"RouteId":208,"RouteVarId":1,"StationCode":"QPN 043","StationName":"Cây xăng Quân khu 7","pathPoints":"106.66635132,10.80023193 106.66679382,10.80025768 106.66738892,10.80021572 106.66782379,10.80006313 106.66820526,10.79982090 106.66841888,10.79960537","Address":"307, đường Nguyễn Văn Trỗi, Quận Phú Nhuận","Lat":10.799589,"Lng":106.66847,"K":0},{"StationId":190,"StationOrder":7,"StationDirection":1,"RouteId":208,"RouteVarId":1,"StationCode":"QPN 044","StationName":"Bệnh viện Quận Phú Nhuận","pathPoints":"106.66847229,10.79958916 106.67074585,10.79828167","Address":"279, đường Nguyễn Văn Trỗi, Quận Phú Nhuận","Lat":10.798282,"Lng":106.670744,"K":0},{"StationId":191,"StationOrder":8,"StationDirection":1,"RouteId":208,"RouteVarId":1,"StationCode":"QPN 045","StationName":"Cổng Xe lửa","pathPoints":"106.67074585,10.79828167 106.67360687,10.79659557","Address":"253, đường Nguyễn Văn Trỗi, Quận Phú Nhuận","Lat":10.796596,"Lng":106.673609,"K":0},{"StationId":189,"StationOrder":9,"StationDirection":1,"RouteId":208,"RouteVarId":1,"StationCode":"QPN 046","StationName":"Trung tâm Văn hóa Quận Phú Nhuận","pathPoints":"106.67396545,10.79639530 106.67580414,10.79529667","Address":"157, đường Nguyễn Văn Trỗi, Quận Phú Nhuận","Lat":10.795236,"Lng":106.675894,"K":0},{"StationId":193,"StationOrder":10,"StationDirection":1,"RouteId":208,"RouteVarId":1,"StationCode":"QPN 047","StationName":"Ngã tư Trần Huy Liệu","pathPoints":"106.67580414,10.79529667 106.67916870,10.79327583","Address":"101, đường Nguyễn Văn Trỗi, Quận Phú Nhuận","Lat":10.793276,"Lng":106.679167,"K":0},{"StationId":192,"StationOrder":11,"StationDirection":1,"RouteId":208,"RouteVarId":1,"StationCode":"Q3 052","StationName":"Chùa Vĩnh Nghiêm","pathPoints":"106.67916870,10.79327583 106.67916870,10.79327583 106.68019867,10.79280758 106.68131256,10.79212189 106.68244171,10.79109955 106.68302155,10.79038143 106.68302155,10.79038143","Address":"321-323, đường Nam Kỳ Khởi Nghĩa, Quận 3","Lat":10.790381,"Lng":106.683022,"K":0},{"StationId":196,"StationOrder":12,"StationDirection":1,"RouteId":208,"RouteVarId":1,"StationCode":"Q3 053","StationName":"Trần Quốc Toản","pathPoints":"106.68302155,10.79038143 106.68689728,10.78683090","Address":"201 F-E, đường Nam Kỳ Khởi Nghĩa, Quận 3","Lat":10.786831,"Lng":106.686897,"K":0},{"StationId":194,"StationOrder":13,"StationDirection":1,"RouteId":208,"RouteVarId":1,"StationCode":"Q3 054","StationName":"Viện Pasteur","pathPoints":"106.68689728,10.78683090 106.68863678,10.78521347","Address":"179, đường Nam Kỳ Khởi Nghĩa, Quận 3","Lat":10.785351,"Lng":106.688474,"K":0},{"StationId":198,"StationOrder":14,"StationDirection":1,"RouteId":208,"RouteVarId":1,"StationCode":"Q3 055","StationName":"Điện Biên Phủ","pathPoints":"106.68863678,10.78521347 106.69137573,10.78279781","Address":"159, đường Nam Kỳ Khởi Nghĩa, Quận 3","Lat":10.783116,"Lng":106.69099,"K":0},{"StationId":195,"StationOrder":15,"StationDirection":1,"RouteId":208,"RouteVarId":1,"StationCode":"Q3 056","StationName":"Coop Mart Nguyễn Đình Chiểu","pathPoints":"106.69137573,10.78279781 106.69315338,10.78112984","Address":"143, đường Nam Kỳ Khởi Nghĩa, Quận 3","Lat":10.78113,"Lng":106.693152,"K":0},{"StationId":197,"StationOrder":16,"StationDirection":1,"RouteId":208,"RouteVarId":1,"StationCode":"Q3 057","StationName":"Trường THPT Lê Quý Đôn","pathPoints":"106.69315338,10.78112984 106.69315338,10.78112984 106.69320679,10.78116131 106.69393158,10.78046608 106.69465637,10.77979660 106.69462585,10.77977657 106.69462585,10.77977657","Address":"Đối diện 166 - 168, đường Nam Kỳ Khởi Nghĩa, Quận 3","Lat":10.779844,"Lng":106.69452,"K":0},{"StationId":2568,"StationOrder":17,"StationDirection":1,"RouteId":208,"RouteVarId":1,"StationCode":"Q1 005","StationName":"Nhà Thờ Đức Bà","pathPoints":"106.69462585,10.77977657 106.69647980,10.77815723 106.69845581,10.78010750 106.69915771,10.77923298","Address":"1, đường Công xã Paris, Quận 1","Lat":10.779233,"Lng":106.699154,"K":0},{"StationId":4224,"StationOrder":18,"StationDirection":1,"RouteId":208,"RouteVarId":1,"StationCode":"Q1 172","StationName":"Trung tâm VinCom","pathPoints":"106.69915771,10.77923298 106.69979095,10.77880001 106.69995117,10.77895355 106.70141602,10.77755642 106.70133209,10.77751446","Address":"Đối diện Trung tâm VinCom, đường Đồng Khởi, Quận 1","Lat":10.777514,"Lng":106.701333,"K":0},{"StationId":7078,"StationOrder":19,"StationDirection":1,"RouteId":208,"RouteVarId":1,"StationCode":"Q1 174","StationName":"Nhà hát Thành phố","pathPoints":"106.70133209,10.77751446 106.70141602,10.77757263 106.70371246,10.77540684","Address":"127-129, đường Đồng Khởi, Quận 1","Lat":10.775407,"Lng":106.703709,"K":0},{"StationId":1191,"StationOrder":20,"StationDirection":1,"RouteId":208,"RouteVarId":1,"StationCode":"Q1 173","StationName":"Hồ Huấn Nghiệp","pathPoints":"106.70371246,10.77540684 106.70372772,10.77543831 106.70459747,10.77463245 106.70458221,10.77461147","Address":"Đối diện 34-36, đường Đồng Khởi, Quận 1","Lat":10.774611,"Lng":106.704583,"K":0},{"StationId":76,"StationOrder":21,"StationDirection":1,"RouteId":208,"RouteVarId":1,"StationCode":"Q1 020","StationName":"Cục Hải Quan Thành Phố","pathPoints":"106.70461273,10.77464962 106.70562744,10.77365971 106.70644379,10.77293968 106.70636749,10.77198982 106.70635223,10.77178955 106.70632935,10.77157021 106.70632172,10.77140045 106.70620728,10.77097988 106.70613861,10.77089977 106.70597839,10.77083969 106.70564270,10.77085972","Address":"2-4, đường Hàm Nghi, Quận 1","Lat":10.770885,"Lng":106.705549,"K":0},{"StationId":78,"StationOrder":22,"StationDirection":1,"RouteId":208,"RouteVarId":1,"StationCode":"Q1 021","StationName":"Hàm Nghi H","pathPoints":"106.70555115,10.77088547 106.70302582,10.77097988","Address":"84, đường Hàm Nghi, Quận 1","Lat":10.77098,"Lng":106.703027,"K":0},{"StationId":80,"StationOrder":23,"StationDirection":1,"RouteId":208,"RouteVarId":1,"StationCode":"Q1 022","StationName":"Hàm Nghi K","pathPoints":"106.70302582,10.77097988 106.70167542,10.77105427","Address":"122, đường Hàm Nghi, Quận 1","Lat":10.771054,"Lng":106.701676,"K":0},{"StationId":82,"StationOrder":24,"StationDirection":1,"RouteId":208,"RouteVarId":1,"StationCode":"Q1 023","StationName":"Hàm Nghi N","pathPoints":"106.70167542,10.77105427 106.69935608,10.77116299","Address":"136, đường Hàm Nghi, Quận 1","Lat":10.771163,"Lng":106.699356,"K":0},{"StationId":7273,"StationOrder":25,"StationDirection":1,"RouteId":208,"RouteVarId":1,"StationCode":"Q1 187","StationName":"Khách sạn New World","pathPoints":"106.69935608,10.77116299 106.69873810,10.77131176 106.69881439,10.77164936 106.69864655,10.77190781 106.69834137,10.77191830 106.69812775,10.77178097 106.69594574,10.77096367","Address":"Đối diện cây xanh số 105, đường Lê Lai, Quận 1","Lat":10.770964,"Lng":106.695946,"K":0},{"StationId":7274,"StationOrder":26,"StationDirection":1,"RouteId":208,"RouteVarId":1,"StationCode":"Q1 188","StationName":"Nguyễn Thị Nghĩa","pathPoints":"106.69594574,10.77096367 106.69594574,10.77096367 106.69595337,10.77089024 106.69355774,10.76989460 106.69349670,10.76995182 106.69349670,10.76995182","Address":"94-96, đường Lê Lai, Quận 1","Lat":10.769952,"Lng":106.693495,"K":0},{"StationId":7275,"StationOrder":27,"StationDirection":1,"RouteId":208,"RouteVarId":1,"StationCode":"Q1 189","StationName":"Tôn Thất Tùng","pathPoints":"106.69349670,10.76995182 106.69351196,10.76987362 106.69049835,10.76869774 106.69046783,10.76876068","Address":"202-204, đường Lê Lai, Quận 1","Lat":10.768761,"Lng":106.690469,"K":0},{"StationId":86,"StationOrder":28,"StationDirection":1,"RouteId":208,"RouteVarId":1,"StationCode":"Q1 147","StationName":"Nhà thờ Huyện Sỹ","pathPoints":"106.69046783,10.76876068 106.69046783,10.76876068 106.69048309,10.76867199 106.68895721,10.76806068 106.68864441,10.76768589 106.68859100,10.76769161 106.68859100,10.76769161","Address":"206Bis, đường Nguyễn Trãi, Quận 1","Lat":10.767692,"Lng":106.688591,"K":0},{"StationId":7276,"StationOrder":29,"StationDirection":1,"RouteId":208,"RouteVarId":1,"StationCode":"Q1 190","StationName":"Tôn Thất Tùng","pathPoints":"106.68859100,10.76769161 106.68817139,10.76677418 106.68820190,10.76660061 106.68836212,10.76656914 106.68850708,10.76668453 106.68858337,10.76682186 106.69091034,10.76772308 106.69094086,10.76766968","Address":"277-279-275Y, đường Phạm Ngũ Lão, Quận 1","Lat":10.76767,"Lng":106.690941,"K":0},{"StationId":7277,"StationOrder":30,"StationDirection":1,"RouteId":208,"RouteVarId":1,"StationCode":"Q1 191","StationName":"Nguyễn Thị Nghĩa","pathPoints":"106.69094086,10.76766968 106.69090271,10.76773357 106.69362640,10.76885128 106.69370270,10.76878834","Address":"187, đường Phạm Ngũ Lão, Quận 1","Lat":10.768788,"Lng":106.693699,"K":0},{"StationId":7278,"StationOrder":31,"StationDirection":1,"RouteId":208,"RouteVarId":1,"StationCode":"Q1 192","StationName":"Trường Emst Thalmann","pathPoints":"106.69370270,10.76878834 106.69366455,10.76887226 106.69554138,10.76958847 106.69558716,10.76950359","Address":"Trường Emst Thalmann, đường Phạm Ngũ Lão, Quận 1","Lat":10.769504,"Lng":106.695587,"K":0},{"StationId":241,"StationOrder":32,"StationDirection":1,"RouteId":208,"RouteVarId":1,"StationCode":"Q1 105","StationName":"Chùa Bà Ấn","pathPoints":"106.69558716,10.76950359 106.69618988,10.76975727 106.69641876,10.76916695 106.69769287,10.77050591 106.69902802,10.77095890 106.69868469,10.77124310 106.69879150,10.77147007 106.69882202,10.77169704 106.69873810,10.77183342 106.69859314,10.77192879 106.69842529,10.77194977 106.69824219,10.77191830 106.69807434,10.77175999 106.69667816,10.77121735 106.69583893,10.77241898","Address":"42, đường Trương Định, Quận 1","Lat":10.772419,"Lng":106.695839,"K":0},{"StationId":2951,"StationOrder":33,"StationDirection":1,"RouteId":208,"RouteVarId":1,"StationCode":"Q1 106","StationName":"Khách sạn Golden","pathPoints":"106.69580841,10.77239037 106.69545746,10.77280998 106.69616699,10.77332020","Address":"189 - 191, đường Lý Tự Trọng, Quận 1","Lat":10.773244,"Lng":106.696228,"K":0},{"StationId":2952,"StationOrder":34,"StationDirection":1,"RouteId":208,"RouteVarId":1,"StationCode":"Q1 107","StationName":"Nguyễn Trung Trực","pathPoints":"106.69616699,10.77332020 106.69696808,10.77388000 106.69715881,10.77396011 106.69754791,10.77425003","Address":"109, đường Lý Tự Trọng, Quận 1","Lat":10.77421,"Lng":106.697586,"K":0},{"StationId":2954,"StationOrder":35,"StationDirection":1,"RouteId":208,"RouteVarId":1,"StationCode":"Q1 108","StationName":"Thư Viện Khoa Học Tổng Hợp","pathPoints":"106.69754791,10.77425003 106.69786072,10.77447987 106.69818878,10.77482986 106.69879913,10.77548981","Address":"69, đường Lý Tự Trọng, Quận 1","Lat":10.775442,"Lng":106.698853,"K":0},{"StationId":2725,"StationOrder":36,"StationDirection":1,"RouteId":208,"RouteVarId":1,"StationCode":"Q1 109","StationName":"Sở Tài nguyên Môi trường","pathPoints":"106.69879913,10.77548981 106.70033264,10.77715969","Address":"63, đường Lý Tự Trọng, Quận 1","Lat":10.777108,"Lng":106.700386,"K":0},{"StationId":2569,"StationOrder":37,"StationDirection":1,"RouteId":208,"RouteVarId":1,"StationCode":"Q1 110","StationName":"TTTM Vincom","pathPoints":"106.70038605,10.77710819 106.70172119,10.77856827","Address":"47, đường Lý Tự Trọng, Quận 1","Lat":10.778568,"Lng":106.701721,"K":0},{"StationId":44,"StationOrder":38,"StationDirection":1,"RouteId":208,"RouteVarId":1,"StationCode":"Q1 059","StationName":"Bệnh viện Nhi Đồng 2","pathPoints":"106.70172119,10.77856827 106.70226288,10.77921104 106.70153809,10.77988052","Address":"Đối diện 115Ter, đường Hai Bà Trưng, Quận 1","Lat":10.779881,"Lng":106.701536,"K":0},{"StationId":39,"StationOrder":39,"StationDirection":1,"RouteId":208,"RouteVarId":1,"StationCode":"Q1 060","StationName":"Bưu Điện Thành Phố","pathPoints":"106.70153809,10.77988052 106.70148468,10.77985477 106.70063019,10.78061295 106.70067596,10.78064537","Address":"86, đường Hai Bà Trưng, Quận 1","Lat":10.780645,"Lng":106.700673,"K":0},{"StationId":41,"StationOrder":40,"StationDirection":1,"RouteId":208,"RouteVarId":1,"StationCode":"Q1 061","StationName":"Sở Công Thương","pathPoints":"106.70067596,10.78064537 106.69652557,10.78429699","Address":"142, đường Hai Bà Trưng, Quận 1","Lat":10.784297,"Lng":106.696526,"K":0},{"StationId":43,"StationOrder":41,"StationDirection":1,"RouteId":208,"RouteVarId":1,"StationCode":"Q1 062","StationName":"Công viên Lê Văn Tám","pathPoints":"106.69652557,10.78429699 106.69259644,10.78742695","Address":"Đối diện 245, đường Hai Bà Trưng, Quận 1","Lat":10.787427,"Lng":106.692599,"K":0},{"StationId":46,"StationOrder":42,"StationDirection":1,"RouteId":208,"RouteVarId":1,"StationCode":"Q1 063","StationName":"Nhà thờ Tân Định","pathPoints":"106.69259644,10.78742695 106.69142914,10.78834343 106.69039917,10.78921509","Address":"298, đường Hai Bà Trưng, Quận 1","Lat":10.789215,"Lng":106.690399,"K":0},{"StationId":45,"StationOrder":43,"StationDirection":1,"RouteId":208,"RouteVarId":1,"StationCode":"QPN 012","StationName":"Cầu Kiệu","pathPoints":"106.69039917,10.78921509 106.68480682,10.79364967","Address":"28 - 30, đường Phan Đình Phùng, Quận Phú Nhuận","Lat":10.79365,"Lng":106.68481,"K":0},{"StationId":49,"StationOrder":44,"StationDirection":1,"RouteId":208,"RouteVarId":1,"StationCode":"QPN 013","StationName":"Chợ Phú Nhuận","pathPoints":"106.68480682,10.79364967 106.68331146,10.79483604 106.68302155,10.79506207","Address":"158 - 160, đường Phan Đình Phùng, Quận Phú Nhuận","Lat":10.795062,"Lng":106.683018,"K":0},{"StationId":48,"StationOrder":45,"StationDirection":1,"RouteId":208,"RouteVarId":1,"StationCode":"QPN 014","StationName":"Trường Cao đẳng Kinh tế Đối ngoại","pathPoints":"106.68331146,10.79483604 106.68219757,10.79568958 106.68164825,10.79625320 106.68091583,10.79799843","Address":"312 - 314, đường Phan Đình Phùng, Quận Phú Nhuận","Lat":10.79795,"Lng":106.680905,"K":0},{"StationId":599,"StationOrder":46,"StationDirection":1,"RouteId":208,"RouteVarId":1,"StationCode":"QPN 010","StationName":"Ngã tư Phú Nhuận","pathPoints":"106.68090820,10.79794979 106.68023682,10.79932594 106.68000793,10.79923630 106.67923737,10.79932499","Address":"24, đường Hoàng Văn Thụ, Quận Phú Nhuận","Lat":10.799325,"Lng":106.679236,"K":0},{"StationId":601,"StationOrder":47,"StationDirection":1,"RouteId":208,"RouteVarId":1,"StationCode":"QPN 011","StationName":"Siêu thị Big C","pathPoints":"106.67923737,10.79932499 106.67922211,10.79924679 106.67492676,10.79959011 106.66955566,10.80006313 106.66955566,10.80015278","Address":"202, đường Hoàng Văn Thụ, Quận Phú Nhuận","Lat":10.800153,"Lng":106.669559,"K":0},{"StationId":256,"StationOrder":48,"StationDirection":1,"RouteId":208,"RouteVarId":1,"StationCode":"QTB 099","StationName":"Cổng trước SVĐ Quân Khu 7","pathPoints":"106.66955566,10.80015278 106.66955566,10.80008411 106.66767120,10.80024242 106.66674042,10.80080128 106.66677856,10.80084801","Address":"A2 (Sân vận động Quân khu 7), đường Phan Đình Giót, Quận Tân Bình","Lat":10.800848,"Lng":106.66678,"K":0},{"StationId":911,"StationOrder":49,"StationDirection":1,"RouteId":208,"RouteVarId":1,"StationCode":"QTB 100","StationName":"Quán Vườn Dừa","pathPoints":"106.66677856,10.80084801 106.66606903,10.80126953 106.66568756,10.80177593 106.66535187,10.80228710 106.66516876,10.80269814 106.66500854,10.80317783 106.66490936,10.80364132","Address":"12 (1A), đường Phan Đình Giót, Quận Tân Bình","Lat":10.803641,"Lng":106.664909,"K":0},{"StationId":913,"StationOrder":50,"StationDirection":1,"RouteId":208,"RouteVarId":1,"StationCode":"QTB 014","StationName":"Sông Đáy","pathPoints":"106.66490936,10.80364132 106.66462708,10.80486393 106.66455841,10.80593872 106.66467285,10.80696106","Address":"Hông số 2 Sông Đáy, đường Trường Sơn, Quận Tân Bình","Lat":10.806961,"Lng":106.664673,"K":0},{"StationId":1945,"StationOrder":51,"StationDirection":1,"RouteId":208,"RouteVarId":1,"StationCode":"BX 50","StationName":"Sân bay Tân Sơn Nhất","pathPoints":"106.66467285,10.80696106 106.66527557,10.81374741 106.66531372,10.81425381 106.66549683,10.81473827 106.66606903,10.81540203 106.66612244,10.81570721 106.66593933,10.81609726 106.66552734,10.81627655 106.66394043,10.81567574 106.66383362,10.81559181","Address":"Sân bay Tân Sơn Nhất, đường Trường Sơn_QTB, Quận Tân Bình","Lat":10.815592,"Lng":106.66383,"K":0}]