[{"StationId":6845,"StationOrder":0,"StationDirection":0,"RouteId":70,"RouteVarId":2,"StationCode":"BX 87","StationName":"Đầu bến Đại học Bách Khoa - Cơ sở 2","pathPoints":"","Address":"Đại học Bách Khoa, đường Đại học Bách Khoa, Quận Thủ Đức","Lat":10.880932,"Lng":106.806378,"K":0},{"StationId":2145,"StationOrder":1,"StationDirection":0,"RouteId":70,"RouteVarId":2,"StationCode":"QTD 179","StationName":"Thảo Nguyên","pathPoints":"106.80638123,10.88093185 106.80638123,10.88093185 106.80646515,10.88101673 106.80480957,10.88213348 106.80252838,10.87869835 106.80319977,10.87661266 106.80316925,10.87645435 106.80380249,10.87630653 106.80438995,10.87608528 106.80486298,10.87577534 106.80523682,10.87530041 106.80512238,10.87452126 106.80480194,10.87405205 106.80432892,10.87375164 106.80326843,10.87358379 106.80162811,10.87367249 106.80123901,10.87358856 106.80102539,10.87339878 106.80017853,10.87289333 106.79946136,10.87249279 106.79901886,10.87220860 106.79870605,10.87207127 106.79827881,10.87206078 106.79795837,10.87161350 106.79791260,10.87130260 106.79772186,10.87078571 106.79756927,10.87031174 106.79572296,10.87055397 106.79541016,10.87044907 106.79530334,10.87010098 106.79532623,10.86895275 106.79524994,10.86839390 106.79508209,10.86784649 106.79463959,10.86659241 106.79414368,10.86525440 106.79393768,10.86533546 106.79393768,10.86533546","Address":"35B, đường Quốc lộ 1, Quận Thủ Đức","Lat":10.865335,"Lng":106.793938,"K":0},{"StationId":500,"StationOrder":2,"StationDirection":0,"RouteId":70,"RouteVarId":2,"StationCode":"QTD 180","StationName":"Đại học Nông Lâm","pathPoints":"106.79393768,10.86533546 106.79309845,10.86587048 106.79233551,10.86637115 106.79109955,10.86696053","Address":"Đối diện 1026-1028, đường Quốc lộ 1, Quận Thủ Đức","Lat":10.866961,"Lng":106.791101,"K":0},{"StationId":1101,"StationOrder":3,"StationDirection":0,"RouteId":70,"RouteVarId":2,"StationCode":"QTD 181","StationName":"ĐH Nông Lâm","pathPoints":"106.79109955,10.86696053 106.79009247,10.86718273 106.78726196,10.86740398","Address":"Kế 21, đường Quốc lộ 1, Quận Thủ Đức","Lat":10.867404,"Lng":106.787265,"K":0},{"StationId":1102,"StationOrder":4,"StationDirection":0,"RouteId":70,"RouteVarId":2,"StationCode":"QTD 182","StationName":"Công ty điện tử Samsung","pathPoints":"106.78726196,10.86740398 106.78545380,10.86739349 106.78442383,10.86742496 106.78344727,10.86752987 106.78237915,10.86775112 106.78220367,10.86786747","Address":"Kế 59/6, đường Quốc lộ 1, Quận Thủ Đức","Lat":10.867867,"Lng":106.782201,"K":0},{"StationId":1103,"StationOrder":5,"StationDirection":0,"RouteId":70,"RouteVarId":2,"StationCode":"QTD 183","StationName":"Đại học Kinh tế -Luật","pathPoints":"106.78220367,10.86786747 106.77790833,10.86927414","Address":"Đại học Kinh tế -Luật, đường Quốc lộ 1, Quận Thủ Đức","Lat":10.869274,"Lng":106.777909,"K":0},{"StationId":2142,"StationOrder":6,"StationDirection":0,"RouteId":70,"RouteVarId":2,"StationCode":"QTD 184","StationName":"Trung tâm kho vận Linh Xuân","pathPoints":"106.77790833,10.86927414 106.77493286,10.87025356","Address":"Trung tâm kho vận Linh Xuân, đường Quốc lộ 1, Quận Thủ Đức","Lat":10.870254,"Lng":106.774932,"K":0},{"StationId":2147,"StationOrder":7,"StationDirection":0,"RouteId":70,"RouteVarId":2,"StationCode":"QTD 185","StationName":"Nghĩa trang Thành phố","pathPoints":"106.77493286,10.87025356 106.77288055,10.87091160","Address":"Cột điện NG/1, đường Quốc lộ 1, Quận Thủ Đức","Lat":10.870912,"Lng":106.772878,"K":0},{"StationId":2143,"StationOrder":8,"StationDirection":0,"RouteId":70,"RouteVarId":2,"StationCode":"QTD 186","StationName":"Công ty Nissan","pathPoints":"106.77288055,10.87091160 106.77082062,10.87157059","Address":"Đối diện công ty Nissan, đường Quốc lộ 1, Quận Thủ Đức","Lat":10.871571,"Lng":106.770823,"K":0},{"StationId":3385,"StationOrder":9,"StationDirection":0,"RouteId":70,"RouteVarId":2,"StationCode":"QTD 137","StationName":"Trạm cầu vượt Linh Xuân","pathPoints":"106.77082062,10.87157059 106.76509094,10.87341976 106.76469421,10.87263012 106.76429749,10.87211323","Address":"1123, đường Kha Vạn Cân, Quận Thủ Đức","Lat":10.871423,"Lng":106.76371,"K":0},{"StationId":3384,"StationOrder":10,"StationDirection":0,"RouteId":70,"RouteVarId":2,"StationCode":"QTD 136","StationName":"Nhà hàng tiệc cưới Phố Đôi","pathPoints":"106.76435852,10.87205982 106.76400757,10.87164974 106.76376343,10.87131977 106.76342010,10.87084007 106.76329803,10.87059021 106.76325989,10.87034988 106.76329041,10.86966991 106.76328278,10.86935997 106.76319122,10.86907959 106.76304626,10.86882019","Address":"7/16, đường Kha Vạn Cân, Quận Thủ Đức","Lat":10.867778,"Lng":106.762476,"K":0},{"StationId":4557,"StationOrder":11,"StationDirection":0,"RouteId":70,"RouteVarId":2,"StationCode":"QTĐT0017","StationName":"Ngã tư Bình Đường","pathPoints":"106.76247406,10.86777782 106.76210785,10.86706638 106.76157379,10.86651897 106.75963593,10.86537266","Address":"Trụ chiếu sáng A.0, đường Phạm Văn Đồng, Quận Thủ Đức","Lat":10.865373,"Lng":106.759639,"K":0},{"StationId":4676,"StationOrder":12,"StationDirection":0,"RouteId":70,"RouteVarId":2,"StationCode":"QTĐT0018","StationName":"Đường số 9","pathPoints":"106.75963593,10.86537266 106.75551605,10.86320972","Address":"Trụ chiếu sáng A300, đường Phạm Văn Đồng, Quận Thủ Đức","Lat":10.86321,"Lng":106.755513,"K":0},{"StationId":580,"StationOrder":13,"StationDirection":0,"RouteId":70,"RouteVarId":2,"StationCode":"QTD 150","StationName":"Đại học CSND","pathPoints":"106.75551605,10.86320972 106.75444794,10.86243057 106.75357819,10.86135578 106.75257874,10.86032295","Address":"953-951, đường Phạm Văn Đồng, Quận Thủ Đức","Lat":10.860323,"Lng":106.752579,"K":0},{"StationId":581,"StationOrder":14,"StationDirection":0,"RouteId":70,"RouteVarId":2,"StationCode":"QTD 151","StationName":"Ngã tư Tô Ngọc Vân - Phạm Văn Đồng","pathPoints":"106.75257874,10.86032295 106.75192261,10.85910130 106.75170135,10.85524464 106.75135040,10.85392189","Address":"Trụ chiếu sáng A271, đường Phạm Văn Đồng, Quận Thủ Đức","Lat":10.853922,"Lng":106.75135,"K":0},{"StationId":582,"StationOrder":15,"StationDirection":0,"RouteId":70,"RouteVarId":2,"StationCode":"QTD 152","StationName":"Đình thần Bình Quới Đông","pathPoints":"106.75135040,10.85392189 106.74793243,10.84787178","Address":"Trụ chiếu sáng A250, đường Phạm Văn Đồng, Quận Thủ Đức","Lat":10.847872,"Lng":106.747935,"K":0},{"StationId":583,"StationOrder":16,"StationDirection":0,"RouteId":70,"RouteVarId":2,"StationCode":"QTD 153","StationName":"Nút giao Linh Đông -PVĐ","pathPoints":"106.74793243,10.84787178 106.74406433,10.84131432 106.74268341,10.84076977","Address":"Trụ chiếu sáng A226, đường Phạm Văn Đồng, Quận Thủ Đức","Lat":10.84077,"Lng":106.742682,"K":0},{"StationId":585,"StationOrder":17,"StationDirection":0,"RouteId":70,"RouteVarId":2,"StationCode":"QTD 154","StationName":"Chùa An Lạc","pathPoints":"106.74268341,10.84076977 106.73861694,10.83958626 106.73535156,10.83878517 106.73233032,10.83728409","Address":"Ngã tư Hiệp Bình - PVĐ, đường Phạm Văn Đồng, Quận Thủ Đức","Lat":10.837284,"Lng":106.732328,"K":0},{"StationId":584,"StationOrder":18,"StationDirection":0,"RouteId":70,"RouteVarId":2,"StationCode":"QTD 155","StationName":"Cá sấu Hoa Cà","pathPoints":"106.73233032,10.83728409 106.72791290,10.83363438","Address":"Trụ chiếu sáng B194, đường Phạm Văn Đồng, Quận Thủ Đức","Lat":10.833634,"Lng":106.727916,"K":0},{"StationId":587,"StationOrder":19,"StationDirection":0,"RouteId":70,"RouteVarId":2,"StationCode":"QTD 156","StationName":"Đường số 20","pathPoints":"106.72791290,10.83363438 106.72098541,10.82823181","Address":"218, đường Phạm Văn Đồng, Quận Thủ Đức","Lat":10.828232,"Lng":106.720988,"K":0},{"StationId":586,"StationOrder":20,"StationDirection":0,"RouteId":70,"RouteVarId":2,"StationCode":"QTD 157","StationName":"Ngã tư Bình Triệu","pathPoints":"106.72098541,10.82823181 106.71984863,10.82766819 106.71861267,10.82725716 106.71667480,10.82670975 106.71585083,10.82655716","Address":"599, đường Phạm Văn Đồng, Quận Thủ Đức","Lat":10.826557,"Lng":106.715848,"K":0},{"StationId":7145,"StationOrder":21,"StationDirection":0,"RouteId":70,"RouteVarId":2,"StationCode":"QBTH 149","StationName":"Cầu Bình Lợi","pathPoints":"106.71585083,10.82655716 106.70396423,10.82333660","Address":"525-527, đường Phạm Văn Đồng, Quận Bình Thạnh","Lat":10.823337,"Lng":106.703966,"K":0},{"StationId":7146,"StationOrder":22,"StationDirection":0,"RouteId":70,"RouteVarId":2,"StationCode":"QBTH 150","StationName":"Chung cư Cửu Long","pathPoints":"106.70396423,10.82333660 106.70056152,10.82243061","Address":"42, đường Phạm Văn Đồng, Quận Bình Thạnh","Lat":10.822431,"Lng":106.70056,"K":0},{"StationId":7147,"StationOrder":23,"StationDirection":0,"RouteId":70,"RouteVarId":2,"StationCode":"QBTH 151","StationName":"Cầu Rạch Lăng","pathPoints":"106.70056152,10.82243061 106.69677734,10.82142544","Address":"443-445 (CS A95), đường Phạm Văn Đồng, Quận Bình Thạnh","Lat":10.821425,"Lng":106.696778,"K":0},{"StationId":6850,"StationOrder":24,"StationDirection":0,"RouteId":70,"RouteVarId":2,"StationCode":"QGV 193","StationName":"Chùa Phổ Minh","pathPoints":"106.69677734,10.82142544 106.69441223,10.82073402 106.69418335,10.82070827 106.69407654,10.82075024 106.69398499,10.82074451 106.69391632,10.82069778 106.69386292,10.82064438 106.69369507,10.82057095 106.69314575,10.82042313","Address":"337, đường Phạm Văn Đồng, Quận Gò Vấp","Lat":10.820423,"Lng":106.693146,"K":0},{"StationId":6851,"StationOrder":25,"StationDirection":0,"RouteId":70,"RouteVarId":2,"StationCode":"QGV 194","StationName":"Vòng xoay Lê Quang Định","pathPoints":"106.69314575,10.82042313 106.69021606,10.81961727 106.69008636,10.81965923 106.68997955,10.81965446 106.68991089,10.81961155 106.68984985,10.81954384 106.68958282,10.81943798 106.68909454,10.81929111","Address":"263-265, đường Phạm Văn Đồng, Quận Gò Vấp","Lat":10.819291,"Lng":106.689096,"K":0},{"StationId":6852,"StationOrder":26,"StationDirection":0,"RouteId":70,"RouteVarId":2,"StationCode":"QGV 195","StationName":"Lê Lợi","pathPoints":"106.68909454,10.81929111 106.68811798,10.81891155 106.68716431,10.81850529 106.68539429,10.81763077","Address":"119-121, đường Phạm Văn Đồng, Quận Gò Vấp","Lat":10.817631,"Lng":106.685395,"K":0},{"StationId":224,"StationOrder":27,"StationDirection":0,"RouteId":70,"RouteVarId":2,"StationCode":"QPN 034","StationName":"Đầu công viên Gia Định","pathPoints":"106.68539429,10.81763077 106.68182373,10.81545448 106.67912292,10.81429577 106.67868042,10.81432724 106.67828369,10.81388474 106.67789459,10.81354237","Address":"Đối diện cây xanh số 7, đường Hoàng Minh Giám, Quận Phú Nhuận","Lat":10.813542,"Lng":106.677895,"K":0},{"StationId":225,"StationOrder":28,"StationDirection":0,"RouteId":70,"RouteVarId":2,"StationCode":"QPN 035","StationName":"Cuối công viên Gia Định","pathPoints":"106.67787170,10.81356812 106.67459106,10.80976391","Address":"Đối diện số 5, đường Hoàng Minh Giám, Quận Phú Nhuận","Lat":10.809906,"Lng":106.674741,"K":0},{"StationId":1772,"StationOrder":29,"StationDirection":0,"RouteId":70,"RouteVarId":2,"StationCode":"QPN 032 ","StationName":"Trường Đại học Kỹ Thuật Công nghệ","pathPoints":"106.67459106,10.80976391 106.67465210,10.80973721 106.67405701,10.80898952 106.67366028,10.80848312 106.67356110,10.80828857 106.67337036,10.80811501 106.67317963,10.80804062 106.67299652,10.80797768 106.67270660,10.80797291 106.67192841,10.80846024 106.67196655,10.80851269","Address":"199, đường Phổ Quang, Quận Phú Nhuận","Lat":10.808426,"Lng":106.672107,"K":0},{"StationId":1773,"StationOrder":30,"StationDirection":0,"RouteId":70,"RouteVarId":2,"StationCode":"QTB 104","StationName":"Cây xăng Quân đội","pathPoints":"106.67210388,10.80842590 106.67154694,10.80866814 106.66865540,10.80881023 106.66841888,10.80746746","Address":"75, đường Phổ Quang, Quận Tân Bình","Lat":10.807467,"Lng":106.668422,"K":0},{"StationId":1775,"StationOrder":31,"StationDirection":0,"RouteId":70,"RouteVarId":2,"StationCode":"QTB 105","StationName":"Bãi xe buýt Phổ Quang","pathPoints":"106.66847992,10.80747032 106.66822052,10.80595970 106.66816711,10.80591965 106.66809082,10.80591011 106.66696930,10.80607033 106.66687012,10.80605984 106.66680145,10.80597973 106.66667938,10.80550957","Address":"Công ty Waseco, đường Phổ Quang, Quận Tân Bình","Lat":10.805359,"Lng":106.666555,"K":0},{"StationId":1774,"StationOrder":32,"StationDirection":0,"RouteId":70,"RouteVarId":2,"StationCode":"QTB 106","StationName":"Rạp Tân Sơn Nhất","pathPoints":"106.66667938,10.80550957 106.66648865,10.80478954 106.66636658,10.80438995 106.66597748,10.80294037 106.66580963,10.80230999","Address":"Rạp Tân Sơn Nhất, đường Phổ Quang, Quận Tân Bình","Lat":10.802321,"Lng":106.665756,"K":0},{"StationId":911,"StationOrder":33,"StationDirection":0,"RouteId":70,"RouteVarId":2,"StationCode":"QTB 100","StationName":"Quán Vườn Dừa","pathPoints":"106.66580963,10.80230999 106.66577148,10.80216980 106.66570282,10.80210972 106.66560364,10.80208969 106.66548920,10.80210018 106.66536713,10.80214024 106.66512299,10.80274963 106.66490173,10.80338001 106.66484070,10.80362034","Address":"12 (1A), đường Phan Đình Giót, Quận Tân Bình","Lat":10.803641,"Lng":106.664909,"K":0},{"StationId":999,"StationOrder":34,"StationDirection":0,"RouteId":70,"RouteVarId":2,"StationCode":"QTB 109","StationName":"Trần Quốc Hoàn","pathPoints":"106.66490936,10.80364132 106.66484070,10.80362034 106.66460419,10.80466366 106.66446686,10.80469990 106.66433716,10.80466366 106.66426086,10.80459023 106.66416168,10.80416965 106.66398621,10.80362034 106.66392517,10.80364418","Address":"65, đường Trần Quốc Hoàn, Quận Tân Bình","Lat":10.803644,"Lng":106.663925,"K":0},{"StationId":258,"StationOrder":35,"StationDirection":0,"RouteId":70,"RouteVarId":2,"StationCode":"QTB 107","StationName":"Vòng xoay Lăng Cha Cả","pathPoints":"106.66392517,10.80364418 106.66375732,10.80310917 106.66356659,10.80271912 106.66333771,10.80244541 106.66231537,10.80136490","Address":"20, đường Trần Quốc Hoàn, Quận Tân Bình","Lat":10.801365,"Lng":106.662312,"K":0},{"StationId":600,"StationOrder":36,"StationDirection":0,"RouteId":70,"RouteVarId":2,"StationCode":"QTB 038","StationName":"Vòng xoay Lăng Cha Cả","pathPoints":"106.66230011,10.80137253 106.66171265,10.80082703 106.66140747,10.80073738 106.66107941,10.80070114 106.66094208,10.80062675 106.66085052,10.80052185 106.66081238,10.80039501 106.66080475,10.80022621 106.66038513,10.79983616","Address":"216, đường Hoàng Văn Thụ, Quận Tân Bình","Lat":10.7999,"Lng":106.660321,"K":0},{"StationId":602,"StationOrder":37,"StationDirection":0,"RouteId":70,"RouteVarId":2,"StationCode":"QTB 039","StationName":"Công an Quận Tân Bình","pathPoints":"106.66032410,10.79990005 106.66038513,10.79983616 106.65742493,10.79716969","Address":"340H, đường Hoàng Văn Thụ, Quận Tân Bình","Lat":10.79717,"Lng":106.657425,"K":0},{"StationId":604,"StationOrder":38,"StationDirection":0,"RouteId":70,"RouteVarId":2,"StationCode":"QTB 064","StationName":"Hội Chợ Triển lãm Tân Bình","pathPoints":"106.65695190,10.79657745 106.65575409,10.79549503 106.65519714,10.79608059","Address":"20 (B9), đường Xuân Diệu, Quận Tân Bình","Lat":10.796122,"Lng":106.655145,"K":0},{"StationId":603,"StationOrder":39,"StationDirection":0,"RouteId":70,"RouteVarId":2,"StationCode":"QTB 065","StationName":"Trường Phạm Ngũ Lão","pathPoints":"106.65519714,10.79608059 106.65464783,10.79654980 106.65387726,10.79585266","Address":"149 (E62), đường Xuân Hồng, Quận Tân Bình","Lat":10.796032,"Lng":106.654066,"K":0},{"StationId":606,"StationOrder":40,"StationDirection":0,"RouteId":70,"RouteVarId":2,"StationCode":"QTB 066","StationName":"Cây xăng Đôi","pathPoints":"106.65387726,10.79585266 106.65390778,10.79584026 106.65233612,10.79437923","Address":"23, đường Xuân Hồng, Quận Tân Bình","Lat":10.794256,"Lng":106.652184,"K":0},{"StationId":605,"StationOrder":41,"StationDirection":0,"RouteId":70,"RouteVarId":2,"StationCode":"QTB 029","StationName":"Bệnh viện Thống Nhất","pathPoints":"106.65233612,10.79437923 106.65173340,10.79373455 106.65305328,10.79297543 106.65309906,10.79274368 106.65305328,10.79252243 106.65280151,10.79212189","Address":"733-739, đường Lý Thường Kiệt, Quận Tân Bình","Lat":10.792122,"Lng":106.6528,"K":0},{"StationId":608,"StationOrder":42,"StationDirection":0,"RouteId":70,"RouteVarId":2,"StationCode":"QTB 030","StationName":"Bệnh viện chỉnh hình và phục hồi chức năng","pathPoints":"106.65280151,10.79212189 106.65248108,10.79114151 106.65241241,10.79038334 106.65241241,10.79012012 106.65255737,10.79000378 106.65266418,10.78958225 106.65280914,10.78871822","Address":"589 , đường Lý Thường Kiệt, Quận Tân Bình","Lat":10.788718,"Lng":106.652806,"K":0},{"StationId":607,"StationOrder":43,"StationDirection":0,"RouteId":70,"RouteVarId":2,"StationCode":"QTB 031","StationName":"Chợ Tân Bình","pathPoints":"106.65280914,10.78871822 106.65358734,10.78613091","Address":"Chợ Tân Bình, đường Lý Thường Kiệt, Quận Tân Bình","Lat":10.786131,"Lng":106.653584,"K":0},{"StationId":610,"StationOrder":44,"StationDirection":0,"RouteId":70,"RouteVarId":2,"StationCode":"QTB 032","StationName":"Siêu thị Nguyễn Kim - CMC Tân Bình","pathPoints":"106.65358734,10.78613091 106.65457153,10.78269482","Address":"79B (siêu thị CMC Tân Bình), đường Lý Thường Kiệt, Quận Tân Bình","Lat":10.782695,"Lng":106.654571,"K":0},{"StationId":609,"StationOrder":45,"StationDirection":0,"RouteId":70,"RouteVarId":2,"StationCode":"QTB 033","StationName":"Trường Nguyễn Thái Bình","pathPoints":"106.65457153,10.78269482 106.65560913,10.77923298","Address":"349 (74), đường Lý Thường Kiệt, Quận Tân Bình","Lat":10.779233,"Lng":106.655609,"K":0},{"StationId":612,"StationOrder":46,"StationDirection":0,"RouteId":70,"RouteVarId":2,"StationCode":"Q11 016","StationName":"Bưu Điện Phú Thọ","pathPoints":"106.65560913,10.77923298 106.65669250,10.77531433","Address":"285A, đường Lý Thường Kiệt, Quận 11","Lat":10.775314,"Lng":106.656693,"K":0},{"StationId":3157,"StationOrder":47,"StationDirection":0,"RouteId":70,"RouteVarId":2,"StationCode":"BX33","StationName":"ĐH BÁCH KHOA TP HCM","pathPoints":"106.65669250,10.77531433 106.65781403,10.77138042 106.65808868,10.77146721","Address":"ĐẦU BẾN ĐH BÁCH KHOA TP HCM, đường Lý Thường Kiệt, Quận 10","Lat":10.771467208862305,"Lng":106.65808868408203,"K":0},{"StationId":3157,"StationOrder":0,"StationDirection":1,"RouteId":70,"RouteVarId":1,"StationCode":"BX33","StationName":"ĐH BÁCH KHOA TP HCM","pathPoints":"","Address":"ĐẦU BẾN ĐH BÁCH KHOA TP HCM, đường Lý Thường Kiệt, Quận 10","Lat":10.771467208862305,"Lng":106.65808868408203,"K":0},{"StationId":506,"StationOrder":1,"StationDirection":1,"RouteId":70,"RouteVarId":1,"StationCode":"Q10 055","StationName":"Đại Học Bách Khoa","pathPoints":"106.65808868,10.77146721 106.65793610,10.77141190 106.65758514,10.77249527","Address":"268, đường Lý Thường Kiệt, Quận 10","Lat":10.772603,"Lng":106.657698,"K":0},{"StationId":547,"StationOrder":2,"StationDirection":1,"RouteId":70,"RouteVarId":1,"StationCode":"Q10 056","StationName":"Bưu Điện Phú Thọ","pathPoints":"106.65758514,10.77249527 106.65641785,10.77676105","Address":"270Bis, đường Lý Thường Kiệt, Quận 10","Lat":10.776487,"Lng":106.656625,"K":0},{"StationId":507,"StationOrder":3,"StationDirection":1,"RouteId":70,"RouteVarId":1,"StationCode":"QTB 023","StationName":"Ngã ba Thành Thái","pathPoints":"106.65641785,10.77676105 106.65582275,10.77899265","Address":"270, đường Lý Thường Kiệt, Quận Tân Bình","Lat":10.778974,"Lng":106.655896,"K":0},{"StationId":548,"StationOrder":4,"StationDirection":1,"RouteId":70,"RouteVarId":1,"StationCode":"QTB 024","StationName":"Siêu thị Nguyễn Kim - CMC Tân Bình","pathPoints":"106.65582275,10.77899265 106.65519714,10.78113461","Address":"320 (Quận đoàn Tân Bình), đường Lý Thường Kiệt, Quận Tân Bình","Lat":10.781072,"Lng":106.65529,"K":0},{"StationId":551,"StationOrder":5,"StationDirection":1,"RouteId":70,"RouteVarId":1,"StationCode":"QTB 025","StationName":"Cây xăng Đôi","pathPoints":"106.65519714,10.78113461 106.65439606,10.78401470","Address":"151A, đường Lý Thường Kiệt, Quận Tân Bình","Lat":10.784002,"Lng":106.654431,"K":0},{"StationId":508,"StationOrder":6,"StationDirection":1,"RouteId":70,"RouteVarId":1,"StationCode":"QTB 026","StationName":"Chợ Tân Bình","pathPoints":"106.65439606,10.78401470 106.65378571,10.78622246","Address":"470, đường Lý Thường Kiệt, Quận Tân Bình","Lat":10.786222,"Lng":106.653786,"K":0},{"StationId":509,"StationOrder":7,"StationDirection":1,"RouteId":70,"RouteVarId":1,"StationCode":"QTB 027","StationName":"Bệnh viện chỉnh hình và Phục hồi chức năng","pathPoints":"106.65378571,10.78622246 106.65307617,10.78868866","Address":"1A (Trung tâm phục hồi người tàn tật), đường Lý Thường Kiệt, Quận Tân Bình","Lat":10.788689,"Lng":106.653076,"K":0},{"StationId":553,"StationOrder":8,"StationDirection":1,"RouteId":70,"RouteVarId":1,"StationCode":"QTB 028","StationName":"Bệnh viện Thống Nhất","pathPoints":"106.65307617,10.78868866 106.65274048,10.78962421 106.65260315,10.79010868 106.65249634,10.79057312 106.65258026,10.79105759 106.65273285,10.79153156 106.65304565,10.79212761","Address":"Bệnh viện Thống Nhất, đường Lý Thường Kiệt, Quận Tân Bình","Lat":10.792101,"Lng":106.653074,"K":0},{"StationId":510,"StationOrder":9,"StationDirection":1,"RouteId":70,"RouteVarId":1,"StationCode":"QTB 034","StationName":"Hội Chợ Triển lãm Tân Bình","pathPoints":"106.65304565,10.79212761 106.65338135,10.79282856 106.65386963,10.79345036 106.65444946,10.79404068 106.65505981,10.79458714","Address":"605 (Bệnh viện Tân Bình), đường Hoàng Văn Thụ, Quận Tân Bình","Lat":10.79472,"Lng":106.655198,"K":0},{"StationId":555,"StationOrder":10,"StationDirection":1,"RouteId":70,"RouteVarId":1,"StationCode":"QTB 035","StationName":"Nhà hàng Đông Phương","pathPoints":"106.65505981,10.79458714 106.65928650,10.79862213","Address":"431, đường Hoàng Văn Thụ, Quận Tân Bình","Lat":10.798556,"Lng":106.659216,"K":0},{"StationId":187,"StationOrder":11,"StationDirection":1,"RouteId":70,"RouteVarId":1,"StationCode":"QTB 036","StationName":"Công viên Hoàng Văn Thụ","pathPoints":"106.65928650,10.79862213 106.65975952,10.79919338 106.66032410,10.79974174 106.66065979,10.80002594 106.66101074,10.80024719 106.66117096,10.80037403 106.66149902,10.80059528 106.66200256,10.80065823 106.66285706,10.80060577 106.66330719,10.80050278","Address":"259, đường Hoàng Văn Thụ, Quận Tân Bình","Lat":10.800469,"Lng":106.663578,"K":0},{"StationId":256,"StationOrder":12,"StationDirection":1,"RouteId":70,"RouteVarId":1,"StationCode":"QTB 099","StationName":"Cổng trước SVĐ Quân Khu 7","pathPoints":"106.66330719,10.80050278 106.66689301,10.80030060 106.66695404,10.80035782 106.66699219,10.80043697 106.66699219,10.80053711 106.66693878,10.80063725 106.66662598,10.80095100","Address":"A2 (Sân vận động Quân khu 7), đường Phan Đình Giót, Quận Tân Bình","Lat":10.800848,"Lng":106.66678,"K":0},{"StationId":455,"StationOrder":13,"StationDirection":1,"RouteId":70,"RouteVarId":1,"StationCode":"QTB 101","StationName":"Rạp Tân Sơn Nhất","pathPoints":"106.66662598,10.80095100 106.66662598,10.80095100 106.66597748,10.80134392 106.66578674,10.80161285 106.66568756,10.80178070 106.66576385,10.80207062 106.66584015,10.80229187 106.66592407,10.80243969 106.66592407,10.80243969","Address":"2B (Hông sân vận động Quân Khu 7), đường Phổ Quang, Quận Tân Bình","Lat":10.80244,"Lng":106.665924,"K":0},{"StationId":457,"StationOrder":14,"StationDirection":1,"RouteId":70,"RouteVarId":1,"StationCode":"QTB 102","StationName":"Bãi xe buýt Phổ Quang","pathPoints":"106.66592407,10.80243969 106.66674805,10.80549812","Address":"66 (Công ty Xe khách Sài Gòn), đường Phổ Quang, Quận Tân Bình","Lat":10.805417,"Lng":106.6667,"K":0},{"StationId":454,"StationOrder":15,"StationDirection":1,"RouteId":70,"RouteVarId":1,"StationCode":"QTB 103","StationName":"Cây xăng Quân đội","pathPoints":"106.66674805,10.80549812 106.66674805,10.80549812 106.66684723,10.80607510 106.66820526,10.80591202 106.66849518,10.80722141 106.66849518,10.80722141","Address":"96-100, đường Phổ Quang, Quận Tân Bình","Lat":10.807221,"Lng":106.668495,"K":0},{"StationId":456,"StationOrder":16,"StationDirection":1,"RouteId":70,"RouteVarId":1,"StationCode":"QPN 033","StationName":"Trường Đại học Kỹ thuật Công nghệ","pathPoints":"106.66849518,10.80722141 106.66849518,10.80722141 106.66870117,10.80875206 106.66963196,10.80872631 106.67145538,10.80864143 106.67177582,10.80853653 106.67199707,10.80834389 106.67199707,10.80834389","Address":"140, đường Phổ Quang, Quận Phú Nhuận","Lat":10.808204,"Lng":106.672236,"K":0},{"StationId":459,"StationOrder":17,"StationDirection":1,"RouteId":70,"RouteVarId":1,"StationCode":"QPN 036","StationName":"Cuối công viên Gia Định","pathPoints":"106.67199707,10.80834389 106.67266846,10.80799866 106.67285156,10.80797768 106.67306519,10.80800438 106.67329407,10.80807781 106.67346954,10.80819893 106.67478180,10.80965900 106.67492676,10.80972672","Address":"7, đường Hoàng Minh Giám, Quận Phú Nhuận","Lat":10.809727,"Lng":106.674929,"K":0},{"StationId":458,"StationOrder":18,"StationDirection":1,"RouteId":70,"RouteVarId":1,"StationCode":"QPN 037","StationName":"Ngã ba Đặng Văn Sâm","pathPoints":"106.67492676,10.80972672 106.67639923,10.81138229","Address":"Ngã ba Đặng Văn Sâm, đường Hoàng Minh Giám, Quận Phú Nhuận","Lat":10.811382,"Lng":106.676399,"K":0},{"StationId":461,"StationOrder":19,"StationDirection":1,"RouteId":70,"RouteVarId":1,"StationCode":"QPN 038","StationName":"Đầu công viên Gia Định","pathPoints":"106.67639923,10.81138229 106.67822266,10.81350040","Address":"Cây xanh số 7, đường Hoàng Minh Giám, Quận Phú Nhuận","Lat":10.8135,"Lng":106.678222,"K":0},{"StationId":6847,"StationOrder":20,"StationDirection":1,"RouteId":70,"RouteVarId":1,"StationCode":"QGV 190","StationName":"Lê Lai","pathPoints":"106.67822266,10.81350040 106.67877960,10.81344223 106.67914581,10.81365299 106.67922974,10.81407452 106.68197632,10.81532860 106.68548584,10.81739426","Address":"150 (115A), đường Phạm Văn Đồng, Quận Gò Vấp","Lat":10.817394,"Lng":106.685486,"K":0},{"StationId":6848,"StationOrder":21,"StationDirection":1,"RouteId":70,"RouteVarId":1,"StationCode":"QGV 191","StationName":"Phạm Văn Đồng","pathPoints":"106.68548584,10.81739426 106.68676758,10.81805229 106.68809509,10.81863689","Address":"262, đường Phạm Văn Đồng, Quận Gò Vấp","Lat":10.818637,"Lng":106.688093,"K":0},{"StationId":6849,"StationOrder":22,"StationDirection":1,"RouteId":70,"RouteVarId":1,"StationCode":"QGV 192","StationName":"Vòng xoay Lê Quang Định","pathPoints":"106.68809509,10.81863689 106.68892670,10.81896877 106.68977356,10.81925392 106.69079590,10.81954384","Address":"314, đường Phạm Văn Đồng, Quận Gò Vấp","Lat":10.819544,"Lng":106.690797,"K":0},{"StationId":7148,"StationOrder":23,"StationDirection":1,"RouteId":70,"RouteVarId":1,"StationCode":"QBTH 152","StationName":"Nút giao Phạm Văn Đồng - Phan Văn Trị","pathPoints":"106.69079590,10.81954384 106.69509125,10.82066631","Address":"380, đường Phạm Văn Đồng, Quận Bình Thạnh","Lat":10.820666,"Lng":106.695094,"K":0},{"StationId":7149,"StationOrder":24,"StationDirection":1,"RouteId":70,"RouteVarId":1,"StationCode":"QBTH 153","StationName":"Cầu Rạch Lăng","pathPoints":"106.69509125,10.82066631 106.69754791,10.82133007","Address":"332-334 (CS C63), đường Phạm Văn Đồng, Quận Bình Thạnh","Lat":10.82133,"Lng":106.697545,"K":0},{"StationId":7150,"StationOrder":25,"StationDirection":1,"RouteId":70,"RouteVarId":1,"StationCode":"QBTH 154","StationName":"Chung cư Cửu Long","pathPoints":"106.69754791,10.82133007 106.70064545,10.82213783","Address":"Chung cư Cửu Long, đường Phạm Văn Đồng, Quận Bình Thạnh","Lat":10.822138,"Lng":106.700648,"K":0},{"StationId":7151,"StationOrder":26,"StationDirection":1,"RouteId":70,"RouteVarId":1,"StationCode":"QBTH 155","StationName":"Cầu Bình Lợi","pathPoints":"106.70064545,10.82213783 106.70253754,10.82266808 106.70400238,10.82302094","Address":"Chung cư 548, đường Phạm Văn Đồng, Quận Bình Thạnh","Lat":10.823021,"Lng":106.704004,"K":0},{"StationId":523,"StationOrder":27,"StationDirection":1,"RouteId":70,"RouteVarId":1,"StationCode":"QTD 118","StationName":"Ngã tư Bình Triệu","pathPoints":"106.70400238,10.82302094 106.71565247,10.82602978","Address":"54, đường Phạm Văn Đồng, Quận Thủ Đức","Lat":10.82603,"Lng":106.715655,"K":0},{"StationId":524,"StationOrder":28,"StationDirection":1,"RouteId":70,"RouteVarId":1,"StationCode":"QTD 119","StationName":"Đường số 20","pathPoints":"106.71565247,10.82602978 106.71702576,10.82654095 106.71881104,10.82701015 106.72003174,10.82745743 106.72103119,10.82787800","Address":"Đối diện 216 , đường Phạm Văn Đồng, Quận Thủ Đức","Lat":10.827878,"Lng":106.721032,"K":0},{"StationId":525,"StationOrder":29,"StationDirection":1,"RouteId":70,"RouteVarId":1,"StationCode":"QTD 120","StationName":"Chùa Ưu Đàm","pathPoints":"106.72103119,10.82787800 106.72142792,10.82817936 106.72213745,10.82865334 106.72280884,10.82914352 106.72476196,10.83067894","Address":"Khu dân cư Opal Tower, đường Phạm Văn Đồng, Quận Thủ Đức","Lat":10.830679,"Lng":106.72476,"K":0},{"StationId":526,"StationOrder":30,"StationDirection":1,"RouteId":70,"RouteVarId":1,"StationCode":"QTD 121","StationName":"Cá sấu Hoa cà","pathPoints":"106.72476196,10.83067894 106.72772217,10.83313751 106.72833252,10.83360577","Address":"Đối diện Cá sấu Hoa Cà, đường Phạm Văn Đồng, Quận Thủ Đức","Lat":10.833606,"Lng":106.728331,"K":0},{"StationId":527,"StationOrder":31,"StationDirection":1,"RouteId":70,"RouteVarId":1,"StationCode":"QTD 122","StationName":"THCS Ngô Chí Quốc","pathPoints":"106.72833252,10.83360577 106.73043823,10.83531857 106.73071289,10.83555031","Address":"412, đường Phạm Văn Đồng, Quận Thủ Đức","Lat":10.83555,"Lng":106.730713,"K":0},{"StationId":528,"StationOrder":32,"StationDirection":1,"RouteId":70,"RouteVarId":1,"StationCode":"QTD 123","StationName":"Chùa An Lạc","pathPoints":"106.73071289,10.83555031 106.73318481,10.83758450 106.73329163,10.83748436","Address":"Chùa Ưu Đàm, đường Phạm Văn Đồng, Quận Thủ Đức","Lat":10.837484,"Lng":106.733288,"K":0},{"StationId":529,"StationOrder":33,"StationDirection":1,"RouteId":70,"RouteVarId":1,"StationCode":"QTD 124","StationName":"Cầu Gò Dưa","pathPoints":"106.73329163,10.83748436 106.73320007,10.83759499 106.73463440,10.83837414 106.73616028,10.83885956 106.73699188,10.83899593 106.74050903,10.83977604","Address":"Trụ chiếu sáng C185, đường Phạm Văn Đồng, Quận Thủ Đức","Lat":10.839776,"Lng":106.740509,"K":0},{"StationId":530,"StationOrder":34,"StationDirection":1,"RouteId":70,"RouteVarId":1,"StationCode":"QTD 125","StationName":"Đường 30","pathPoints":"106.74050903,10.83977604 106.74050903,10.83977604 106.74140930,10.84001350 106.74327850,10.84065628 106.74397278,10.84113026 106.74481964,10.84182072 106.74481964,10.84182072","Address":"1136, đường Phạm Văn Đồng, Quận Thủ Đức","Lat":10.841821,"Lng":106.744822,"K":0},{"StationId":4463,"StationOrder":35,"StationDirection":1,"RouteId":70,"RouteVarId":1,"StationCode":"QTĐT0010","StationName":"Chùa Quan Âm","pathPoints":"106.74481964,10.84182072 106.74800873,10.84744740","Address":"Chùa Quan Âm, đường Phạm Văn Đồng, Quận Thủ Đức","Lat":10.847447,"Lng":106.748008,"K":0},{"StationId":4470,"StationOrder":36,"StationDirection":1,"RouteId":70,"RouteVarId":1,"StationCode":"QTĐT0011","StationName":"Ngã tư Tô Ngọc Vân - Phạm Văn Đồng","pathPoints":"106.74800873,10.84744740 106.75041962,10.85159874","Address":"1216, đường Phạm Văn Đồng, Quận Thủ Đức","Lat":10.851599,"Lng":106.750422,"K":0},{"StationId":4471,"StationOrder":37,"StationDirection":1,"RouteId":70,"RouteVarId":1,"StationCode":"QTĐT0012","StationName":"Đại học CSND","pathPoints":"106.75041962,10.85159874 106.75187683,10.85414886 106.75217438,10.85924816 106.75287628,10.86019230","Address":"1348 - 1350, đường Phạm Văn Đồng, Quận Thủ Đức","Lat":10.860192,"Lng":106.752879,"K":0},{"StationId":4486,"StationOrder":38,"StationDirection":1,"RouteId":70,"RouteVarId":1,"StationCode":"QTĐT0013","StationName":"Đường số 9","pathPoints":"106.75287628,10.86019230 106.75428009,10.86184025 106.75539398,10.86289406 106.75563049,10.86289406","Address":"Cột chiếu sáng C270, đường Phạm Văn Đồng, Quận Thủ Đức","Lat":10.862894,"Lng":106.755631,"K":0},{"StationId":4553,"StationOrder":39,"StationDirection":1,"RouteId":70,"RouteVarId":1,"StationCode":"QTĐT0014","StationName":"Ngã tư Bình Đường","pathPoints":"106.75563049,10.86289406 106.75553894,10.86297321 106.75608826,10.86333656 106.75883484,10.86481190 106.75889587,10.86472225","Address":"Ngã tư Bình Đường, đường Phạm Văn Đồng, Quận Thủ Đức","Lat":10.864722,"Lng":106.758898,"K":0},{"StationId":4554,"StationOrder":40,"StationDirection":1,"RouteId":70,"RouteVarId":1,"StationCode":"QTĐT0015","StationName":"Nút giao Kha Vạn Cân - Phạm Văn Đồng","pathPoints":"106.75889587,10.86472225 106.75881958,10.86478043 106.76107025,10.86598682 106.76111603,10.86591434","Address":"Cột chiếu sáng C287, đường Phạm Văn Đồng, Quận Thủ Đức","Lat":10.865914,"Lng":106.761117,"K":0},{"StationId":3383,"StationOrder":41,"StationDirection":1,"RouteId":70,"RouteVarId":1,"StationCode":"QTD 139","StationName":"Nhà hàng tiệc cưới Phố Đôi","pathPoints":"106.76111603,10.86591434 106.76209259,10.86662388 106.76339722,10.86878872","Address":"15/3, đường Kha Vạn Cân, Quận Thủ Đức","Lat":10.868789,"Lng":106.763399,"K":0},{"StationId":3381,"StationOrder":42,"StationDirection":1,"RouteId":70,"RouteVarId":1,"StationCode":"QTD 138","StationName":"Trạm cầu vượt Linh Xuân","pathPoints":"106.76339722,10.86878872 106.76339722,10.86878872 106.76352692,10.86938953 106.76354218,10.86960602 106.76351929,10.87006950 106.76354980,10.87038040 106.76362610,10.87078094 106.76382446,10.87115955 106.76399994,10.87135029 106.76399994,10.87135029","Address":"1129-1131, đường Kha Vạn Cân, Quận Thủ Đức","Lat":10.87135,"Lng":106.763999,"K":0},{"StationId":2083,"StationOrder":43,"StationDirection":1,"RouteId":70,"RouteVarId":1,"StationCode":"QTD 169","StationName":"Vietcombank","pathPoints":"106.76423645,10.87191010 106.76442719,10.87213993 106.76470184,10.87254047 106.76484680,10.87287045 106.76499176,10.87318993 106.76542664,10.87304020 106.76715088,10.87246037 106.76750946,10.87240982 106.76898193,10.87191010 106.76965332,10.87168980","Address":"Ngân hàng Vietcombank, đường Quốc lộ 1, Quận Thủ Đức","Lat":10.871597,"Lng":106.769643,"K":0},{"StationId":2084,"StationOrder":44,"StationDirection":1,"RouteId":70,"RouteVarId":1,"StationCode":"QTD 170","StationName":"Nghĩa trang TP","pathPoints":"106.76964569,10.87159729 106.76964569,10.87159729 106.77136230,10.87109661 106.77304077,10.87050724 106.77304077,10.87050724","Address":"Cổng nghĩa trang thành phố, đường Quốc lộ 1, Quận Thủ Đức","Lat":10.870507,"Lng":106.773039,"K":0},{"StationId":1040,"StationOrder":45,"StationDirection":1,"RouteId":70,"RouteVarId":1,"StationCode":"QTD 171","StationName":"ĐH Kinh tế Luật","pathPoints":"106.77304077,10.87050724 106.77307129,10.87059975 106.77671051,10.86938477 106.77672577,10.86930561","Address":"Đối diện 665, đường Quốc lộ 1, Quận Thủ Đức","Lat":10.869306,"Lng":106.776724,"K":0},{"StationId":1041,"StationOrder":46,"StationDirection":1,"RouteId":70,"RouteVarId":1,"StationCode":"QTD 172","StationName":"Công ty điện tử Samsung","pathPoints":"106.77672577,10.86930561 106.77672577,10.86930561 106.77677917,10.86936855 106.77867889,10.86874962 106.77865601,10.86869144 106.77865601,10.86869144","Address":"Công ty điện tử Samsung, đường Quốc lộ 1, Quận Thủ Đức","Lat":10.868691,"Lng":106.778656,"K":0},{"StationId":1042,"StationOrder":47,"StationDirection":1,"RouteId":70,"RouteVarId":1,"StationCode":"QTD 173","StationName":"ĐH Nông Lâm","pathPoints":"106.77865601,10.86869144 106.77938843,10.86856270 106.78088379,10.86806297 106.78207397,10.86769390 106.78311920,10.86743546 106.78416443,10.86732483 106.78519440,10.86727905 106.78636932,10.86724091 106.78727722,10.86712170","Address":"Cột điện SI 2, đường Quốc lộ 1, Quận Thủ Đức","Lat":10.867122,"Lng":106.787277,"K":0},{"StationId":396,"StationOrder":48,"StationDirection":1,"RouteId":70,"RouteVarId":1,"StationCode":"QTD 174","StationName":"ĐH Nông Lâm","pathPoints":"106.78727722,10.86717987 106.78822327,10.86713028 106.78961182,10.86707020 106.79029846,10.86695957","Address":"1030, đường Quốc lộ 1, Quận Thủ Đức","Lat":10.866912,"Lng":106.790283,"K":0},{"StationId":6845,"StationOrder":49,"StationDirection":1,"RouteId":70,"RouteVarId":1,"StationCode":"BX 87","StationName":"Đầu bến Đại học Bách Khoa - Cơ sở 2","pathPoints":"106.79028320,10.86691189 106.79028320,10.86691189 106.79089355,10.86682415 106.79196167,10.86642361 106.79283905,10.86586571 106.79365540,10.86525440 106.79425812,10.86450672 106.79593658,10.86171436 106.79685974,10.86036491 106.79810333,10.85918522 106.79833221,10.85936451 106.79666138,10.86098671 106.79608154,10.86189365 106.79566956,10.86257839 106.79511261,10.86348438 106.79441833,10.86450100 106.79394531,10.86505985 106.79344177,10.86559677 106.79280090,10.86606598 106.79273224,10.86620808 106.79273987,10.86635017 106.79279327,10.86647129 106.79288483,10.86658192 106.79466248,10.86664009 106.79503632,10.86767292 106.79517365,10.86814117 106.79529572,10.86861038 106.79531097,10.86906338 106.79531860,10.86952209 106.79531860,10.87026405 106.79536438,10.87039089 106.79547882,10.87050152 106.79570007,10.87053871 106.79666138,10.87047005 106.79760742,10.87035370 106.79783630,10.87125492 106.79822540,10.87199783 106.79818726,10.87210846 106.79792023,10.87234497 106.79779053,10.87253475 106.79769135,10.87273026 106.79772186,10.87291431 106.79778290,10.87308311 106.79792023,10.87344074 106.79824829,10.87404156 106.79848480,10.87441063 106.79869843,10.87477398 106.79889679,10.87514305 106.79907990,10.87550640 106.79968262,10.87531090 106.79983521,10.87547970 106.80000305,10.87565327 106.80023956,10.87573814 106.80054474,10.87581158 106.80082703,10.87584877 106.80147552,10.87588024 106.80206299,10.87604904 106.80265045,10.87617016 106.80303955,10.87631702 106.80314636,10.87642288 106.80326843,10.87648582 106.80251312,10.87860394 106.80479431,10.88209152 106.80641937,10.88103199 106.80638123,10.88093185 106.80638123,10.88093185","Address":"Đại học Bách Khoa, đường Đại học Bách Khoa, Quận Thủ Đức","Lat":10.880932,"Lng":106.806378,"K":0}]