[{"StationId":3185,"StationOrder":0,"StationDirection":0,"RouteId":75,"RouteVarId":150,"StationCode":"BX 30","StationName":"Khu Công Nghệ cao","pathPoints":"","Address":"ĐẦU BẾN KCN CAO QUẬN 9, đường Lê Văn Việt, Quận 9","Lat":10.847352,"Lng":106.799606,"K":0},{"StationId":1533,"StationOrder":1,"StationDirection":0,"RouteId":75,"RouteVarId":150,"StationCode":"Q9 102","StationName":"Chung cư C6","pathPoints":"106.79930878,10.84716034 106.79949188,10.84673977 106.79859161,10.84650993 106.79814911,10.84642029","Address":"Đối diện 504, đường Lê Văn Việt, Quận 9","Lat":10.847331,"Lng":106.801357,"K":0},{"StationId":1530,"StationOrder":2,"StationDirection":0,"RouteId":75,"RouteVarId":150,"StationCode":"Q9 103","StationName":"Đại Học GTVT","pathPoints":"106.79814911,10.84642029 106.79563904,10.84578991 106.79450226,10.84549046","Address":"Trung tâm thông tin thư viện, đường Lê Văn Việt, Quận 9","Lat":10.845566,"Lng":106.794421,"K":0},{"StationId":1535,"StationOrder":3,"StationDirection":0,"RouteId":75,"RouteVarId":150,"StationCode":"Q9 104","StationName":"Bệnh viện Quận 9","pathPoints":"106.79450226,10.84549046 106.79222107,10.84494019 106.79141235,10.84477043 106.79042053,10.84451962","Address":"99, đường Lê Văn Việt, Quận 9","Lat":10.844607,"Lng":106.790349,"K":0},{"StationId":1532,"StationOrder":4,"StationDirection":0,"RouteId":75,"RouteVarId":150,"StationCode":"Q9 105","StationName":"Chợ Tăng Nhơn Phú B","pathPoints":"106.79042053,10.84451962 106.78981781,10.84436035 106.78964233,10.84432983 106.78929138,10.84436035 106.78904724,10.84440041 106.78878784,10.84449959 106.78855133,10.84461021 106.78823853,10.84480000 106.78817749,10.84482002","Address":"Đối diện chợ Tăng Nhơn Phú, đường Lê Văn Việt, Quận 9","Lat":10.844923,"Lng":106.788209,"K":0},{"StationId":1537,"StationOrder":5,"StationDirection":0,"RouteId":75,"RouteVarId":150,"StationCode":"Q9 106","StationName":"Chợ Hiệp Phú","pathPoints":"106.78817749,10.84482002 106.78733063,10.84517002 106.78697968,10.84519005 106.78665161,10.84515953 106.78656006,10.84514999 106.78630066,10.84504032 106.78617096,10.84496021 106.78610992,10.84486961 106.78553772,10.84447956 106.78539276,10.84440994 106.78479767,10.84430981 106.78407288,10.84418964","Address":"249, đường Lê Văn Việt, Quận 9","Lat":10.84427,"Lng":106.784084,"K":0},{"StationId":1534,"StationOrder":6,"StationDirection":0,"RouteId":75,"RouteVarId":150,"StationCode":"Q9 107","StationName":"Trạm y tế Phường Hiệp Phú","pathPoints":"106.78407288,10.84418964 106.78273010,10.84399986 106.78231049,10.84407997 106.78182220,10.84426975","Address":"189-191, đường Lê Văn Việt, Quận 9","Lat":10.844381,"Lng":106.781723,"K":0},{"StationId":1536,"StationOrder":7,"StationDirection":0,"RouteId":75,"RouteVarId":150,"StationCode":"Q9 091","StationName":"Nhà sách Thành Nghĩa","pathPoints":"106.78182220,10.84426975 106.78141785,10.84442043 106.78103638,10.84461021 106.78050232,10.84504032 106.78038025,10.84512043","Address":"Đối diện 140-142, đường Lê Văn Việt, Quận 9","Lat":10.845176,"Lng":106.780377,"K":0},{"StationId":1539,"StationOrder":8,"StationDirection":0,"RouteId":75,"RouteVarId":150,"StationCode":"Q9 109","StationName":"Bệnh viện 7C-Trường Quân y 2","pathPoints":"106.78038025,10.84512043 106.78009033,10.84529972 106.77919769,10.84576035 106.77778625,10.84655952 106.77747345,10.84673977","Address":"91-93, đường Lê Văn Việt, Quận 9","Lat":10.846799,"Lng":106.777512,"K":0},{"StationId":1538,"StationOrder":9,"StationDirection":0,"RouteId":75,"RouteVarId":150,"StationCode":"Q9 110","StationName":"Siêu thị Coopmark","pathPoints":"106.77747345,10.84673977 106.77583313,10.84768963 106.77510071,10.84823036 106.77494812,10.84834003","Address":"17-19, đường Lê Văn Việt, Quận 9","Lat":10.848411,"Lng":106.775045,"K":0},{"StationId":1113,"StationOrder":10,"StationDirection":0,"RouteId":75,"RouteVarId":150,"StationCode":"QTD 077","StationName":"Ngã tư Thủ Đức","pathPoints":"106.77494812,10.84834003 106.77404022,10.84914017 106.77391052,10.84926033 106.77340698,10.84871006 106.77310181,10.84827042","Address":"Đối diện Coopmart, đường Xa Lộ Hà Nội, Quận Thủ Đức","Lat":10.84828,"Lng":106.77299,"K":0},{"StationId":1111,"StationOrder":11,"StationDirection":0,"RouteId":75,"RouteVarId":150,"StationCode":"QTD 078","StationName":"Betong Hải Âu","pathPoints":"106.77298737,10.84827995 106.77310181,10.84827042 106.77133942,10.84535027 106.77062988,10.84429741","Address":"Đối diện Betong Hải Âu, đường Xa Lộ Hà Nội, Quận Thủ Đức","Lat":10.844297,"Lng":106.77063,"K":0},{"StationId":1112,"StationOrder":12,"StationDirection":0,"RouteId":75,"RouteVarId":150,"StationCode":"QTD 079","StationName":"UBND Quận 9","pathPoints":"106.77044678,10.84377003 106.76873016,10.84070969","Address":"126, đường Xa Lộ Hà Nội, Quận Thủ Đức","Lat":10.840745,"Lng":106.768607,"K":0},{"StationId":410,"StationOrder":13,"StationDirection":0,"RouteId":75,"RouteVarId":150,"StationCode":"QTD 080","StationName":"Ngã 4 Bình Thái","pathPoints":"106.76873016,10.84070969 106.76544952,10.83495045","Address":"Đối diện 592C, đường Xa Lộ Hà Nội, Quận Thủ Đức","Lat":10.834945,"Lng":106.765244,"K":0},{"StationId":413,"StationOrder":14,"StationDirection":0,"RouteId":75,"RouteVarId":150,"StationCode":"QTD 081","StationName":"Công ty truyền tải điện 4","pathPoints":"106.76544952,10.83495045 106.76335144,10.83117008","Address":"Công ty truyền tải điện 4, đường Xa Lộ Hà Nội, Quận Thủ Đức","Lat":10.831214,"Lng":106.763195,"K":0},{"StationId":412,"StationOrder":15,"StationDirection":0,"RouteId":75,"RouteVarId":150,"StationCode":"QTD 082","StationName":"Ngã 4 Tây Hòa (RMK)","pathPoints":"106.76335144,10.83117008 106.76077271,10.82660961 106.76042175,10.82596970 106.76006317,10.82534027","Address":"Nhà máy thép Thủ Đức, đường Xa Lộ Hà Nội, Quận Thủ Đức","Lat":10.825366,"Lng":106.759998,"K":0},{"StationId":414,"StationOrder":16,"StationDirection":0,"RouteId":75,"RouteVarId":150,"StationCode":"QTD 083","StationName":"Xi măng Hà Tiên","pathPoints":"106.75999451,10.82536602 106.76006317,10.82534027 106.75936127,10.82404041 106.75901031,10.82326984 106.75881958,10.82271957 106.75849915,10.82153034 106.75832367,10.82067966 106.75814056,10.82057571","Address":"Xi măng Hà Tiên 1, đường Xa Lộ Hà Nội, Quận Thủ Đức","Lat":10.820576,"Lng":106.758142,"K":0},{"StationId":415,"StationOrder":17,"StationDirection":0,"RouteId":75,"RouteVarId":150,"StationCode":"Q2 075","StationName":"Cát Lái","pathPoints":"106.75814056,10.82057571 106.75824738,10.82050228 106.75819397,10.81982803 106.75802612,10.81881618 106.75790405,10.81845284 106.75767517,10.81719875 106.75748444,10.81650352 106.75665283,10.81186962 106.75623322,10.81001186 106.75609589,10.80982685 106.75605011,10.80956364 106.75560760,10.80848312 106.75522614,10.80772972 106.75479126,10.80705070 106.75416565,10.80629635 106.75349426,10.80558586 106.75281525,10.80503750 106.75168610,10.80423641 106.75100708,10.80384636 106.74996948,10.80337715 106.74890137,10.80304050 106.74861145,10.80301952 106.74801636,10.80289841 106.74794769,10.80292511","Address":"Đối diện Esstella, đường Xa Lộ Hà Nội, Quận 2","Lat":10.802925,"Lng":106.747948,"K":0},{"StationId":416,"StationOrder":18,"StationDirection":0,"RouteId":75,"RouteVarId":150,"StationCode":"Q2 076","StationName":"Metro Quận 2","pathPoints":"106.74796295,10.80286980 106.74703217,10.80266953 106.74620819,10.80251026 106.74530792,10.80233955 106.74463654,10.80222988 106.74340820,10.80202007","Address":"655, đường Xa Lộ Hà Nội, Quận 2","Lat":10.802134,"Lng":106.7434,"K":0},{"StationId":417,"StationOrder":19,"StationDirection":0,"RouteId":75,"RouteVarId":150,"StationCode":"Q2 077","StationName":"Thảo Điền","pathPoints":"106.74340820,10.80202007 106.74149323,10.80167007 106.74060822,10.80146980 106.73986816,10.80136013 106.73879242,10.80115986","Address":"Ngã ba Thảo Điền, đường Xa Lộ Hà Nội, Quận 2","Lat":10.801309,"Lng":106.738762,"K":0},{"StationId":418,"StationOrder":20,"StationDirection":0,"RouteId":75,"RouteVarId":150,"StationCode":"Q2 078","StationName":"Cầu Đen","pathPoints":"106.73879242,10.80115986 106.73438263,10.80035019","Address":"Đối diện Cầu Đen, đường Xa Lộ Hà Nội, Quận 2","Lat":10.800451,"Lng":106.73436,"K":0},{"StationId":419,"StationOrder":21,"StationDirection":0,"RouteId":75,"RouteVarId":150,"StationCode":"QBTH 056","StationName":"Cầu Sài Gòn","pathPoints":"106.73438263,10.80035019 106.73294067,10.80004978 106.73187256,10.79979992 106.72416687,10.79837036 106.72223663,10.79802990 106.72196960,10.79800987 106.72158051,10.79800034 106.72128296,10.79804993 106.72090149,10.79813957 106.72048950,10.79827976 106.72003937,10.79848003 106.71987915,10.79856968 106.71972656,10.79868984 106.71945953,10.79881954","Address":"24(597), đường Điện Biên Phủ, Quận Bình Thạnh","Lat":10.798893,"Lng":106.719571,"K":0},{"StationId":420,"StationOrder":22,"StationDirection":0,"RouteId":75,"RouteVarId":150,"StationCode":"QBTH 055","StationName":"Khu Du lịch Văn Thánh","pathPoints":"106.71964264,10.79881954 106.71945953,10.79881954 106.71913147,10.79899025 106.71864319,10.79930019 106.71785736,10.79975033 106.71744537,10.80015278","Address":"152/72c(559), đường Điện Biên Phủ, Quận Bình Thạnh","Lat":10.800274,"Lng":106.717227,"K":0},{"StationId":421,"StationOrder":23,"StationDirection":0,"RouteId":75,"RouteVarId":150,"StationCode":"QBTH 054","StationName":"Đại học Hutech","pathPoints":"106.71719360,10.80008030 106.71645355,10.80043030 106.71571350,10.80074024 106.71513367,10.80097008 106.71481323,10.80107975","Address":"483, đường Điện Biên Phủ, Quận Bình Thạnh","Lat":10.801228,"Lng":106.714856,"K":0},{"StationId":423,"StationOrder":24,"StationDirection":0,"RouteId":75,"RouteVarId":150,"StationCode":"QBTH 053","StationName":"Cây xăng dầu","pathPoints":"106.71485901,10.80122757 106.71471405,10.80127525 106.71443939,10.80134869 106.71388245,10.80146503 106.71343231,10.80159092 106.71300507,10.80169678 106.71281433,10.80164433 106.71244812,10.80163860","Address":"419, đường Điện Biên Phủ, Quận Bình Thạnh","Lat":10.801697,"Lng":106.712834,"K":0},{"StationId":1114,"StationOrder":25,"StationDirection":0,"RouteId":75,"RouteVarId":150,"StationCode":"QBTH 001","StationName":"Chợ Hàng Xanh","pathPoints":"106.71244812,10.80163860 106.71231842,10.80156040 106.71192169,10.80169964 106.71177673,10.80175972 106.71166229,10.80185032 106.71150970,10.80206013 106.71137238,10.80249977 106.71138763,10.80284023 106.71114349,10.80286026 106.71045685,10.80290985 106.71044159,10.80299759","Address":"18, đường Bạch Đằng, Quận Bình Thạnh","Lat":10.802998,"Lng":106.710441,"K":0},{"StationId":588,"StationOrder":26,"StationDirection":0,"RouteId":75,"RouteVarId":150,"StationCode":"QBTH 002","StationName":"Nhà thờ Hàng Xanh","pathPoints":"106.71044159,10.80299759 106.70935059,10.80296993 106.70844269,10.80305004 106.70803070,10.80317688","Address":"96, đường Bạch Đằng, Quận Bình Thạnh","Lat":10.803177,"Lng":106.708032,"K":0},{"StationId":589,"StationOrder":27,"StationDirection":0,"RouteId":75,"RouteVarId":150,"StationCode":"QBTH 003","StationName":"Chùa Bồ Đề","pathPoints":"106.70797729,10.80307961 106.70393372,10.80338955","Address":"246, đường Bạch Đằng, Quận Bình Thạnh","Lat":10.803483,"Lng":106.704015,"K":0},{"StationId":590,"StationOrder":28,"StationDirection":0,"RouteId":75,"RouteVarId":150,"StationCode":"QBTH 004","StationName":"Tòa Án nhân dân Quận Bình Thạnh","pathPoints":"106.70401764,10.80348301 106.70373535,10.80351448 106.70278168,10.80364132 106.70172119,10.80392075 106.70153046,10.80396271 106.70114136,10.80384636 106.70096588,10.80375671","Address":"288, đường Bạch Đằng, Quận Bình Thạnh","Lat":10.803873,"Lng":106.701187,"K":0},{"StationId":592,"StationOrder":29,"StationDirection":0,"RouteId":75,"RouteVarId":150,"StationCode":"QBTH 005","StationName":"Chợ Bà Chiểu","pathPoints":"106.70096588,10.80375671 106.69937134,10.80312538","Address":"368, đường Bạch Đằng, Quận Bình Thạnh","Lat":10.803125,"Lng":106.699374,"K":0},{"StationId":591,"StationOrder":30,"StationDirection":0,"RouteId":75,"RouteVarId":150,"StationCode":"QBTH 115","StationName":"UBND Quận Bình Thạnh","pathPoints":"106.69924164,10.80296993 106.69860077,10.80268002 106.69795990,10.80245972 106.69753265,10.80249977 106.69599152,10.80268002 106.69573212,10.80272007","Address":"6-8, đường Phan Đăng Lưu, Quận Bình Thạnh","Lat":10.802819,"Lng":106.695786,"K":0},{"StationId":594,"StationOrder":31,"StationDirection":0,"RouteId":75,"RouteVarId":150,"StationCode":"QBTH 116","StationName":"Bệnh Viện Gia Định","pathPoints":"106.69573212,10.80272007 106.69348145,10.80301952","Address":"10, đường Phan Đăng Lưu, Quận Bình Thạnh","Lat":10.803119,"Lng":106.693543,"K":0},{"StationId":593,"StationOrder":32,"StationDirection":0,"RouteId":75,"RouteVarId":150,"StationCode":"QBTH 117","StationName":"PCCC quận Bình Thạnh","pathPoints":"106.69358063,10.80300045 106.69243622,10.80313015 106.69143677,10.80327034","Address":"14-16, đường Phan Đăng Lưu, Quận Bình Thạnh","Lat":10.803362,"Lng":106.691741,"K":0},{"StationId":595,"StationOrder":33,"StationDirection":0,"RouteId":75,"RouteVarId":150,"StationCode":"QPN 019","StationName":"Bệnh viện Phước An","pathPoints":"106.69143677,10.80327034 106.68968964,10.80350018 106.68791199,10.80370998 106.68756866,10.80375004","Address":"36A, đường Phan Đăng Lưu, Quận Phú Nhuận","Lat":10.803878,"Lng":106.687637,"K":0},{"StationId":596,"StationOrder":34,"StationDirection":0,"RouteId":75,"RouteVarId":150,"StationCode":"QPN 020","StationName":"Đại học Văn Hiến","pathPoints":"106.68753815,10.80389404 106.68690491,10.80390453 106.68627167,10.80406284","Address":"68, đường Phan Đăng Lưu, Quận Phú Nhuận","Lat":10.804078,"Lng":106.686119,"K":0},{"StationId":597,"StationOrder":35,"StationDirection":0,"RouteId":75,"RouteVarId":150,"StationCode":"QPN 021","StationName":"Ngã Tư Thích Quảng Đức","pathPoints":"106.68601227,10.80395985 106.68576050,10.80399036 106.68560028,10.80397987 106.68544006,10.80395031 106.68515778,10.80383015 106.68492889,10.80364037 106.68470764,10.80344963 106.68376160,10.80249977","Address":"124, đường Phan Đăng Lưu, Quận Phú Nhuận","Lat":10.802529,"Lng":106.683608,"K":0},{"StationId":598,"StationOrder":36,"StationDirection":0,"RouteId":75,"RouteVarId":150,"StationCode":"QPN 022","StationName":"Ngã tư Phan Xích Long","pathPoints":"106.68376160,10.80249977 106.68286133,10.80163956 106.68202209,10.80080032","Address":"172, đường Phan Đăng Lưu, Quận Phú Nhuận","Lat":10.80088,"Lng":106.681892,"K":0},{"StationId":50,"StationOrder":37,"StationDirection":0,"RouteId":75,"RouteVarId":150,"StationCode":"QPN 001","StationName":"Ngã Tư Phú Nhuận","pathPoints":"106.68202209,10.80080032 106.68138885,10.80014992 106.68048096,10.79924011 106.68028259,10.79920006 106.68007660,10.79969025","Address":"392, đường Nguyễn Kiệm, Quận Phú Nhuận","Lat":10.799713,"Lng":106.680138,"K":0},{"StationId":51,"StationOrder":38,"StationDirection":0,"RouteId":75,"RouteVarId":150,"StationCode":"QPN 002","StationName":"Nhà Truyền Thông","pathPoints":"106.68007660,10.79969025 106.67945862,10.80121994 106.67926025,10.80183029 106.67917633,10.80222034","Address":"466, đường Nguyễn Kiệm, Quận Phú Nhuận","Lat":10.802232,"Lng":106.679245,"K":0},{"StationId":52,"StationOrder":39,"StationDirection":0,"RouteId":75,"RouteVarId":150,"StationCode":"QPN 003 ","StationName":"Ngã ba Hồ Văn Huê","pathPoints":"106.67917633,10.80222034 106.67884827,10.80410957 106.67868042,10.80515957 106.67867279,10.80523968","Address":"582, đường Nguyễn Kiệm, Quận Phú Nhuận","Lat":10.805259,"Lng":106.678759,"K":0},{"StationId":53,"StationOrder":40,"StationDirection":0,"RouteId":75,"RouteVarId":150,"StationCode":"QPN 004","StationName":"Coop Mart Nguyễn Kiệm","pathPoints":"106.67867279,10.80523968 106.67848206,10.80657005 106.67845154,10.80704975 106.67845154,10.80774975","Address":"668-670, đường Nguyễn Kiệm, Quận Phú Nhuận","Lat":10.807077,"Lng":106.678528,"K":0},{"StationId":54,"StationOrder":41,"StationDirection":0,"RouteId":75,"RouteVarId":150,"StationCode":"QPN 005","StationName":"Chùa Vạn Hạnh","pathPoints":"106.67845154,10.80774975 106.67846680,10.80941963 106.67849731,10.81005955","Address":"750, đường Nguyễn Kiệm, Quận Phú Nhuận","Lat":10.810349,"Lng":106.67856,"K":0},{"StationId":55,"StationOrder":42,"StationDirection":0,"RouteId":75,"RouteVarId":150,"StationCode":"QGV 125","StationName":"Trường Cao đẳng Hải Quan","pathPoints":"106.67849731,10.81005955 106.67864227,10.81247997","Address":"780A, đường Nguyễn Kiệm, Quận Gò Vấp","Lat":10.812475,"Lng":106.678711,"K":0},{"StationId":56,"StationOrder":43,"StationDirection":0,"RouteId":75,"RouteVarId":150,"StationCode":"QGV 040","StationName":"Cầu vượt Nguyễn Thái Sơn - Nguyễn Kiệm","pathPoints":"106.67871094,10.81247520 106.67871857,10.81392670 106.67890167,10.81394768 106.67902374,10.81400585 106.67914581,10.81407452 106.67919922,10.81418991 106.67915344,10.81438541 106.67901611,10.81454849 106.67959595,10.81517792","Address":"86 - 86C, đường Nguyễn Thái Sơn, Quận Gò Vấp","Lat":10.815244,"Lng":106.679623,"K":0},{"StationId":59,"StationOrder":44,"StationDirection":0,"RouteId":75,"RouteVarId":150,"StationCode":"QGV 041","StationName":"Bệnh Viện 175","pathPoints":"106.67959595,10.81517792 106.68084717,10.81674004","Address":"90, đường Nguyễn Thái Sơn, Quận Gò Vấp","Lat":10.816962,"Lng":106.680985,"K":0},{"StationId":57,"StationOrder":45,"StationDirection":0,"RouteId":75,"RouteVarId":150,"StationCode":"QGV 042","StationName":"Ngã ba Phạm Ngũ Lão","pathPoints":"106.68076324,10.81680012 106.68226624,10.81875992 106.68289185,10.81952953 106.68334961,10.82013035","Address":"182, đường Nguyễn Thái Sơn, Quận Gò Vấp","Lat":10.819712,"Lng":106.683147,"K":0},{"StationId":60,"StationOrder":46,"StationDirection":0,"RouteId":75,"RouteVarId":150,"StationCode":"QGV 187 ","StationName":"Nhà Tang Lễ","pathPoints":"106.68334961,10.82013035 106.68351746,10.82034016 106.68328094,10.82073975 106.68280029,10.82153988 106.68251038,10.82207966","Address":"72, đường Phạm Ngũ Lão , Quận Gò Vấp","Lat":10.822241,"Lng":106.682589,"K":0},{"StationId":61,"StationOrder":47,"StationDirection":0,"RouteId":75,"RouteVarId":150,"StationCode":"QGV 188 ","StationName":"Cầu vượt ngã sáu Gò Vấp","pathPoints":"106.68256378,10.82211208 106.68050385,10.82584763","Address":"220 (45), đường Phạm Ngũ Lão , Quận Gò Vấp","Lat":10.825234,"Lng":106.680889,"K":0},{"StationId":921,"StationOrder":48,"StationDirection":0,"RouteId":75,"RouteVarId":150,"StationCode":"QGV 155 ","StationName":"Siêu thị Văn Lang","pathPoints":"106.68045044,10.82581997 106.68025970,10.82618046 106.68006897,10.82637024 106.68009186,10.82639027 106.68012238,10.82645988 106.68012238,10.82653046 106.68007660,10.82658958 106.68000793,10.82662010 106.67993927,10.82662010 106.67987061,10.82658005 106.67935181,10.82672024","Address":"Siêu thị Văn Lang, đường Quang Trung, Quận Gò Vấp","Lat":10.826846,"Lng":106.679209,"K":0},{"StationId":920,"StationOrder":49,"StationDirection":0,"RouteId":75,"RouteVarId":150,"StationCode":"QGV 156","StationName":"Công ty 32","pathPoints":"106.67935944,10.82683086 106.67906189,10.82690430 106.67655945,10.82777882","Address":"138, đường Quang Trung, Quận Gò Vấp","Lat":10.8281,"Lng":106.675487,"K":0},{"StationId":922,"StationOrder":50,"StationDirection":0,"RouteId":75,"RouteVarId":150,"StationCode":"QGV 157","StationName":"Nhà Thờ Xóm Thuốc","pathPoints":"106.67655945,10.82777882 106.67260742,10.82918644","Address":"190, đường Quang Trung, Quận Gò Vấp","Lat":10.829186,"Lng":106.672606,"K":0},{"StationId":923,"StationOrder":51,"StationDirection":0,"RouteId":75,"RouteVarId":150,"StationCode":"QGV 158","StationName":"UBND Quận Gò Vấp","pathPoints":"106.67260742,10.82918644 106.67206573,10.82940674 106.67166901,10.82960701 106.67024994,10.83033466 106.66980743,10.83055592 106.66883850,10.83127022 106.66850281,10.83164120","Address":"328, đường Quang Trung, Quận Gò Vấp","Lat":10.83103,"Lng":106.669232,"K":0},{"StationId":924,"StationOrder":52,"StationDirection":0,"RouteId":75,"RouteVarId":150,"StationCode":"QGV 159","StationName":"VKSND Quận Gò Vấp","pathPoints":"106.66850281,10.83164120 106.66769409,10.83221054 106.66631317,10.83337402","Address":"402 - 404, đường Quang Trung, Quận Gò Vấp","Lat":10.832948,"Lng":106.666791,"K":0},{"StationId":4745,"StationOrder":53,"StationDirection":0,"RouteId":75,"RouteVarId":150,"StationCode":"QGV 160","StationName":"Chùa Huỳnh Kim","pathPoints":"106.66631317,10.83337402 106.66518402,10.83423328 106.66426086,10.83473873 106.66331482,10.83523369","Address":"548, đường Quang Trung, Quận Gò Vấp","Lat":10.835203,"Lng":106.663368,"K":0},{"StationId":925,"StationOrder":54,"StationDirection":0,"RouteId":75,"RouteVarId":150,"StationCode":"QGV 161","StationName":"City Mart","pathPoints":"106.66331482,10.83523369 106.66067505,10.83598804","Address":"628A, đường Quang Trung, Quận Gò Vấp","Lat":10.835888,"Lng":106.66104,"K":0},{"StationId":2049,"StationOrder":55,"StationDirection":0,"RouteId":75,"RouteVarId":150,"StationCode":"QGV 162","StationName":"Chợ Hạnh Thông Tây","pathPoints":"106.66067505,10.83598804 106.66045380,10.83603477 106.65762329,10.83674622 106.65735626,10.83683586","Address":"734, đường Quang Trung, Quận Gò Vấp","Lat":10.836894,"Lng":106.657076,"K":0},{"StationId":2044,"StationOrder":56,"StationDirection":0,"RouteId":75,"RouteVarId":150,"StationCode":"QGV 163","StationName":"Trường THPT Nguyễn Công Trứ","pathPoints":"106.65735626,10.83683586 106.65274048,10.83800030","Address":"872 (96H), đường Quang Trung, Quận Gò Vấp","Lat":10.838,"Lng":106.652629,"K":0},{"StationId":2045,"StationOrder":57,"StationDirection":0,"RouteId":75,"RouteVarId":150,"StationCode":"QGV 164","StationName":"Dệt may Phương Đông","pathPoints":"106.65274048,10.83800030 106.65250397,10.83802700 106.65009308,10.83865356","Address":"930 (Kho 97), đường Quang Trung, Quận Gò Vấp","Lat":10.838538,"Lng":106.650499,"K":0},{"StationId":2051,"StationOrder":58,"StationDirection":0,"RouteId":75,"RouteVarId":150,"StationCode":"QGV 165","StationName":"Làng SOS","pathPoints":"106.65009308,10.83865356 106.64952087,10.83875942 106.64781952,10.83923817 106.64730072,10.83935452 106.64698792,10.83952808 106.64672089,10.83975983 106.64662170,10.83988094","Address":"1010, đường Quang Trung, Quận Gò Vấp","Lat":10.839929,"Lng":106.646508,"K":0},{"StationId":2048,"StationOrder":59,"StationDirection":0,"RouteId":75,"RouteVarId":150,"StationCode":"QGV 166","StationName":"Công ty Đồng Tâm","pathPoints":"106.64662170,10.83988094 106.64559174,10.84068775 106.64519501,10.84100914 106.64426422,10.84164143 106.64356232,10.84208393 106.64334869,10.84227943","Address":"1134, đường Quang Trung, Quận Gò Vấp","Lat":10.842273,"Lng":106.643322,"K":0},{"StationId":2053,"StationOrder":60,"StationDirection":0,"RouteId":75,"RouteVarId":150,"StationCode":"QGV 167","StationName":"Ngã tư Cầu cống","pathPoints":"106.64334869,10.84227943 106.64118958,10.84374332","Address":"1246, đường Quang Trung, Quận Gò Vấp","Lat":10.844007,"Lng":106.640747,"K":0},{"StationId":2050,"StationOrder":61,"StationDirection":0,"RouteId":75,"RouteVarId":150,"StationCode":"QGV 168","StationName":"Chợ Cầu","pathPoints":"106.64118958,10.84374332 106.64093781,10.84389114 106.64015198,10.84440231 106.63938904,10.84497070 106.63890839,10.84526634 106.63843536,10.84553242","Address":"1324, đường Quang Trung, Quận Gò Vấp","Lat":10.845514,"Lng":106.638488,"K":0},{"StationId":2092,"StationOrder":62,"StationDirection":0,"RouteId":75,"RouteVarId":150,"StationCode":"Q12 060","StationName":"Chợ Cầu","pathPoints":"106.63843536,10.84553242 106.63704681,10.84625626 106.63436127,10.84825325","Address":"84A, đường Tô Ký, Quận 12","Lat":10.848253,"Lng":106.634363,"K":0},{"StationId":2052,"StationOrder":63,"StationDirection":0,"RouteId":75,"RouteVarId":150,"StationCode":"Q12 059","StationName":"Cầu vượt Quang Trung","pathPoints":"106.63436127,10.84825325 106.63220978,10.84978390","Address":"170, đường Tô Ký, Quận 12","Lat":10.849823,"Lng":106.632185,"K":0},{"StationId":3184,"StationOrder":64,"StationDirection":0,"RouteId":75,"RouteVarId":150,"StationCode":"BX36","StationName":"Công viên phần mềm Quang Trung","pathPoints":"106.63220978,10.84978390 106.63113403,10.85045052 106.63068390,10.85067177 106.63005829,10.85082912 106.62792969,10.85117245 106.62755585,10.85128784 106.62736511,10.85140896 106.62693787,10.85191441 106.62666321,10.85247326 106.62628937,10.85315800 106.62649536,10.85313702 106.62677765,10.85292625 106.62700653,10.85303211 106.62721252,10.85272121 106.62761688,10.85241032 106.62790680,10.85228920 106.62821198,10.85224152 106.62848663,10.85224152 106.62895203,10.85238361 106.62937927,10.85160923 106.63018036,10.85194683 106.63029480,10.85192585","Address":"BÃI XE CV PM QUANG TRUNG, đường Quốc lộ 1A, Quận 12","Lat":10.852458,"Lng":106.63071,"K":0},{"StationId":3184,"StationOrder":0,"StationDirection":1,"RouteId":75,"RouteVarId":149,"StationCode":"BX36","StationName":"Công viên phần mềm Quang Trung","pathPoints":"","Address":"BÃI XE CV PM QUANG TRUNG, đường Quốc lộ 1A, Quận 12","Lat":10.852458,"Lng":106.63071,"K":0},{"StationId":2057,"StationOrder":1,"StationDirection":1,"RouteId":75,"RouteVarId":149,"StationCode":"Q12 018","StationName":"Công viên phần mềm Quang Trung","pathPoints":"106.63037109,10.85179043 106.62920380,10.85124016 106.62876892,10.85112000 106.62860107,10.85109997 106.62840271,10.85112000 106.62805176,10.85118961 106.62763214,10.85128975 106.62729645,10.85144997 106.62716675,10.85155964 106.62702942,10.85173035 106.62674713,10.85223007 106.62640381,10.85280037 106.62625885,10.85307026","Address":"Công viên phần mềm Quang Trung, đường Tô Ký, Quận 12","Lat":10.852726,"Lng":106.626531,"K":0},{"StationId":2089,"StationOrder":2,"StationDirection":1,"RouteId":75,"RouteVarId":149,"StationCode":"Q12 030","StationName":"Đông Bắc","pathPoints":"106.62625885,10.85307026 106.62599945,10.85348988 106.62554169,10.85408020 106.62503052,10.85457039 106.62444305,10.85499954 106.62365723,10.85542965 106.62345123,10.85546017 106.62361145,10.85529041 106.62419128,10.85498047","Address":"79, đường Tô Ký, Quận 12","Lat":10.855118,"Lng":106.623881,"K":0},{"StationId":2090,"StationOrder":3,"StationDirection":1,"RouteId":75,"RouteVarId":149,"StationCode":"Q12 031","StationName":"Công viên PM Quang Trung","pathPoints":"106.62416077,10.85493088 106.62419128,10.85498047 106.62441254,10.85484982 106.62481689,10.85455036 106.62532806,10.85408020 106.62579346,10.85352993 106.62599182,10.85316372 106.62609863,10.85287094","Address":"389, đường Tô Ký, Quận 12","Lat":10.853248,"Lng":106.625914,"K":0},{"StationId":2091,"StationOrder":4,"StationDirection":1,"RouteId":75,"RouteVarId":149,"StationCode":"Q12 057","StationName":"Cầu vượt Quang Trung","pathPoints":"106.62615967,10.85289955 106.62642670,10.85239029 106.62658691,10.85214996 106.62682343,10.85173988 106.62699890,10.85146999 106.62724304,10.85124969 106.62750244,10.85111046 106.62795258,10.85101032 106.62911987,10.85079956 106.63027954,10.85054970 106.63091278,10.85035992 106.63121796,10.85023022 106.63152313,10.85004997 106.63188934,10.84974957 106.63273621,10.84914970","Address":"B45, đường Tô Ký, Quận 12","Lat":10.84946,"Lng":106.632174,"K":0},{"StationId":2056,"StationOrder":5,"StationDirection":1,"RouteId":75,"RouteVarId":149,"StationCode":"Q12 058","StationName":"Chợ Cầu","pathPoints":"106.63268280,10.84899616 106.63274384,10.84909630 106.63446808,10.84792137 106.63442230,10.84784222","Address":"B79, đường Tô Ký, Quận 12","Lat":10.848148,"Lng":106.634068,"K":0},{"StationId":2093,"StationOrder":6,"StationDirection":1,"RouteId":75,"RouteVarId":149,"StationCode":"QGV 169","StationName":"Chợ Cầu","pathPoints":"106.63442230,10.84784222 106.63898468,10.84498119","Address":"927, đường Quang Trung, Quận Gò Vấp","Lat":10.844987,"Lng":106.638901,"K":0},{"StationId":2094,"StationOrder":7,"StationDirection":1,"RouteId":75,"RouteVarId":149,"StationCode":"QGV 170","StationName":"Ngã tư Cầu cống","pathPoints":"106.63898468,10.84498119 106.63902283,10.84504032 106.63976288,10.84450722 106.64010620,10.84428024 106.64070892,10.84385967 106.64067078,10.84380054","Address":"869-871 (Kế A4-A5), đường Quang Trung, Quận Gò Vấp","Lat":10.84367,"Lng":106.640822,"K":0},{"StationId":2095,"StationOrder":8,"StationDirection":1,"RouteId":75,"RouteVarId":149,"StationCode":"QGV 171","StationName":"Công ty Đồng Tâm","pathPoints":"106.64067078,10.84380054 106.64070892,10.84385967 106.64157867,10.84325314 106.64239502,10.84269524 106.64325714,10.84214973 106.64334869,10.84208965 106.64331055,10.84203625","Address":"819, đường Quang Trung, Quận Gò Vấp","Lat":10.841973,"Lng":106.643359,"K":0},{"StationId":2098,"StationOrder":9,"StationDirection":1,"RouteId":75,"RouteVarId":149,"StationCode":"QGV 172","StationName":"Làng SOS","pathPoints":"106.64334869,10.84208965 106.64398956,10.84165955 106.64470673,10.84117985 106.64505768,10.84092045 106.64555359,10.84053040 106.64636230,10.83985996 106.64640045,10.83983040","Address":"751 (364), đường Quang Trung, Quận Gò Vấp","Lat":10.840909,"Lng":106.64492,"K":0},{"StationId":2096,"StationOrder":10,"StationDirection":1,"RouteId":75,"RouteVarId":149,"StationCode":"QGV 173","StationName":"Ngã ba Tân Sơn","pathPoints":"106.64634705,10.83975792 106.64640045,10.83983040 106.64674377,10.83953857 106.64710999,10.83928013 106.64730835,10.83918953 106.64774323,10.83907986 106.64772797,10.83901978","Address":"Đối diện 972 (Công ty ISUZU), đường Quang Trung, Quận Gò Vấp","Lat":10.839012,"Lng":106.647736,"K":0},{"StationId":2099,"StationOrder":11,"StationDirection":1,"RouteId":75,"RouteVarId":149,"StationCode":"QGV 174","StationName":"Dệt may Phương Đông","pathPoints":"106.64774323,10.83907986 106.65026093,10.83845043","Address":"695 (đối diện 97), đường Quang Trung, Quận Gò Vấp","Lat":10.838469,"Lng":106.649839,"K":0},{"StationId":2097,"StationOrder":12,"StationDirection":1,"RouteId":75,"RouteVarId":149,"StationCode":"QGV 175","StationName":"Trường THPT Nguyễn Công Trứ","pathPoints":"106.65026093,10.83845043 106.65342712,10.83763981","Address":"Đối diện 842, đường Quang Trung, Quận Gò Vấp","Lat":10.837495,"Lng":106.653702,"K":0},{"StationId":4627,"StationOrder":13,"StationDirection":1,"RouteId":75,"RouteVarId":149,"StationCode":"QGV 176","StationName":"Chợ Hạnh Thông Tây","pathPoints":"106.65341187,10.83757591 106.65737915,10.83655167","Address":"Đối diện 746 (12B), đường Quang Trung, Quận Gò Vấp","Lat":10.836552,"Lng":106.657376,"K":0},{"StationId":4628,"StationOrder":14,"StationDirection":1,"RouteId":75,"RouteVarId":149,"StationCode":"QGV 177","StationName":"City Mart","pathPoints":"106.65737915,10.83655167 106.66136932,10.83556080","Address":"645, đường Quang Trung, Quận Gò Vấp","Lat":10.835614,"Lng":106.661164,"K":0},{"StationId":926,"StationOrder":15,"StationDirection":1,"RouteId":75,"RouteVarId":149,"StationCode":"QGV 178","StationName":"Chùa Huỳnh Kim","pathPoints":"106.66136932,10.83556080 106.66232300,10.83536053 106.66296387,10.83513927 106.66339874,10.83491802","Address":"621, đường Quang Trung, Quận Gò Vấp","Lat":10.835034,"Lng":106.663127,"K":0},{"StationId":1665,"StationOrder":16,"StationDirection":1,"RouteId":75,"RouteVarId":149,"StationCode":"QGV 179","StationName":"VKSND Quận Gò Vấp","pathPoints":"106.66339874,10.83491802 106.66374207,10.83479691 106.66416168,10.83460236 106.66446686,10.83443356 106.66477966,10.83422756 106.66505432,10.83405972 106.66528320,10.83382797","Address":"523, đường Quang Trung, Quận Gò Vấp","Lat":10.83318,"Lng":106.666126,"K":0},{"StationId":987,"StationOrder":17,"StationDirection":1,"RouteId":75,"RouteVarId":149,"StationCode":"QGV 180","StationName":"UBND Quận Gò Vấp","pathPoints":"106.66528320,10.83382797 106.66916656,10.83079147","Address":"387, đường Quang Trung, Quận Gò Vấp","Lat":10.830593,"Lng":106.669414,"K":0},{"StationId":984,"StationOrder":18,"StationDirection":1,"RouteId":75,"RouteVarId":149,"StationCode":"QGV 181","StationName":"Nhà Thờ Xóm Thuốc","pathPoints":"106.66916656,10.83079147 106.66921234,10.83084011 106.66976166,10.83041954 106.67011261,10.83018017 106.67066956,10.82985973 106.67208099,10.82919025 106.67205811,10.82913876","Address":"305, đường Quang Trung, Quận Gò Vấp","Lat":10.82918,"Lng":106.671903,"K":0},{"StationId":986,"StationOrder":19,"StationDirection":1,"RouteId":75,"RouteVarId":149,"StationCode":"QGV 182","StationName":"Xóm thuốc","pathPoints":"106.67211914,10.82917976 106.67269897,10.82892990 106.67395020,10.82847977 106.67482758,10.82816982","Address":"205, đường Quang Trung, Quận Gò Vấp","Lat":10.82839,"Lng":106.673995,"K":0},{"StationId":988,"StationOrder":20,"StationDirection":1,"RouteId":75,"RouteVarId":149,"StationCode":"QGV 183","StationName":"Công ty 32","pathPoints":"106.67485046,10.82809544 106.67487335,10.82814980 106.67603302,10.82772064 106.67720795,10.82736969 106.67718506,10.82730770","Address":"67, đường Quang Trung, Quận Gò Vấp","Lat":10.827468,"Lng":106.676688,"K":0},{"StationId":991,"StationOrder":21,"StationDirection":1,"RouteId":75,"RouteVarId":149,"StationCode":"QGV 184","StationName":"Siêu thị Văn Lang","pathPoints":"106.67718506,10.82730770 106.67720795,10.82736969 106.67819214,10.82702065 106.67917633,10.82668972 106.67915344,10.82660961","Address":"Đối diện Siêu thị Văn Lang, đường Quang Trung, Quận Gò Vấp","Lat":10.826757,"Lng":106.678813,"K":0},{"StationId":219,"StationOrder":22,"StationDirection":1,"RouteId":75,"RouteVarId":149,"StationCode":"QGV 121","StationName":"Cầu vượt ngã sáu Gò Vấp","pathPoints":"106.67917633,10.82668972 106.67932129,10.82662964 106.67945099,10.82651997 106.67965698,10.82641983 106.67974091,10.82633018 106.67980194,10.82614994 106.67981720,10.82602978 106.67981720,10.82590961 106.67977142,10.82577038","Address":"671-673, đường Nguyễn Kiệm, Quận Gò Vấp","Lat":10.824049,"Lng":106.679027,"K":0},{"StationId":222,"StationOrder":23,"StationDirection":1,"RouteId":75,"RouteVarId":149,"StationCode":"QGV 122","StationName":"Xóm Cháy","pathPoints":"106.67974854,10.82577991 106.67936707,10.82478046 106.67925262,10.82439995 106.67902374,10.82351971 106.67893219,10.82271957 106.67887115,10.82174969","Address":"629B, đường Nguyễn Kiệm, Quận Gò Vấp","Lat":10.821894,"Lng":106.678743,"K":0},{"StationId":221,"StationOrder":24,"StationDirection":1,"RouteId":75,"RouteVarId":149,"StationCode":"QGV 123","StationName":"Bệnh Viện 175","pathPoints":"106.67878723,10.82175350 106.67871857,10.81883717","Address":"151, đường Nguyễn Kiệm, Quận Gò Vấp","Lat":10.819607,"Lng":106.678711,"K":0},{"StationId":223,"StationOrder":25,"StationDirection":1,"RouteId":75,"RouteVarId":149,"StationCode":"QGV 124","StationName":"Chợ Tân Sơn Nhất","pathPoints":"106.67871857,10.81883717 106.67861938,10.81511784","Address":"37 - 39, đường Nguyễn Kiệm, Quận Gò Vấp","Lat":10.815386,"Lng":106.678614,"K":0},{"StationId":224,"StationOrder":26,"StationDirection":1,"RouteId":75,"RouteVarId":149,"StationCode":"QPN 034","StationName":"Đầu công viên Gia Định","pathPoints":"106.67861938,10.81511784 106.67861938,10.81511784 106.67866516,10.81450653 106.67859650,10.81437492 106.67855072,10.81425858 106.67858124,10.81410027 106.67800903,10.81354427 106.67787170,10.81356812","Address":"Đối diện cây xanh số 7, đường Hoàng Minh Giám, Quận Phú Nhuận","Lat":10.813542,"Lng":106.677895,"K":0},{"StationId":225,"StationOrder":27,"StationDirection":1,"RouteId":75,"RouteVarId":149,"StationCode":"QPN 035","StationName":"Cuối công viên Gia Định","pathPoints":"106.67800903,10.81354427 106.67467499,10.80972481","Address":"Đối diện số 5, đường Hoàng Minh Giám, Quận Phú Nhuận","Lat":10.809906,"Lng":106.674741,"K":0},{"StationId":226,"StationOrder":28,"StationDirection":1,"RouteId":75,"RouteVarId":149,"StationCode":"QPN 053","StationName":"Đầu Đường Đào Duy Anh","pathPoints":"106.67459106,10.80976391 106.67362976,10.80832958 106.67408752,10.80803013 106.67405701,10.80797768","Address":"155, đường Đào Duy Anh, Quận Phú Nhuận","Lat":10.807978,"Lng":106.674057,"K":0},{"StationId":228,"StationOrder":29,"StationDirection":1,"RouteId":75,"RouteVarId":149,"StationCode":"QPN 054","StationName":"Cuối Đường Đào Duy Anh","pathPoints":"106.67408752,10.80803013 106.67648315,10.80646038 106.67723083,10.80597019","Address":"7-9, đường Đào Duy Anh, Quận Phú Nhuận","Lat":10.805891,"Lng":106.677177,"K":0},{"StationId":230,"StationOrder":30,"StationDirection":1,"RouteId":75,"RouteVarId":149,"StationCode":"QPN 023","StationName":"Ngã ba Đào Duy Anh","pathPoints":"106.67723083,10.80597019 106.67812347,10.80539989 106.67774963,10.80471039","Address":"129, đường Hồ Văn Huê, Quận Phú Nhuận","Lat":10.804858,"Lng":106.677729,"K":0},{"StationId":227,"StationOrder":31,"StationDirection":1,"RouteId":75,"RouteVarId":149,"StationCode":"QPN 024","StationName":"Tháp Nước","pathPoints":"106.67774963,10.80471039 106.67668152,10.80278015","Address":"43B, đường Hồ Văn Huê, Quận Phú Nhuận","Lat":10.802434,"Lng":106.676366,"K":0},{"StationId":229,"StationOrder":32,"StationDirection":1,"RouteId":75,"RouteVarId":149,"StationCode":"QPN 025","StationName":"Trung tâm hội nghị tiệc cưới White Palace","pathPoints":"106.67668152,10.80278015 106.67590332,10.80136967 106.67516327,10.80014038","Address":"1B, đường Hồ Văn Huê, Quận Phú Nhuận","Lat":10.800074,"Lng":106.675025,"K":0},{"StationId":232,"StationOrder":33,"StationDirection":1,"RouteId":75,"RouteVarId":149,"StationCode":"QPN 009","StationName":"Ngã tư Phú Nhuận","pathPoints":"106.67516327,10.80014038 106.67494965,10.79979038 106.67492676,10.79959011 106.67604065,10.79950047 106.67784882,10.79934025","Address":"59, đường Hoàng Văn Thụ, Quận Phú Nhuận","Lat":10.799088,"Lng":106.679354,"K":0},{"StationId":558,"StationOrder":34,"StationDirection":1,"RouteId":75,"RouteVarId":149,"StationCode":"QPN 015 ","StationName":"Ngã tư Phan Xích Long","pathPoints":"106.67924500,10.79913139 106.68000793,10.79918957 106.68028259,10.79920006 106.68048096,10.79924011 106.68096161,10.79973984 106.68151093,10.80027008 106.68154144,10.80024147","Address":"171, đường Phan Đăng Lưu, Quận Phú Nhuận","Lat":10.800416,"Lng":106.681741,"K":0},{"StationId":513,"StationOrder":35,"StationDirection":1,"RouteId":75,"RouteVarId":149,"StationCode":"QPN 016","StationName":"Ngã Tư Thích Quảng Đức","pathPoints":"106.68154144,10.80024147 106.68151093,10.80027008 106.68286133,10.80163956 106.68315887,10.80191994 106.68361664,10.80219746","Address":"141 - 143, đường Phan Đăng Lưu, Quận Phú Nhuận","Lat":10.802287,"Lng":106.683689,"K":0},{"StationId":514,"StationOrder":36,"StationDirection":1,"RouteId":75,"RouteVarId":149,"StationCode":"QPN 017","StationName":"Trường Đại học Văn Hiến","pathPoints":"106.68361664,10.80219746 106.68470764,10.80344963 106.68492889,10.80364037 106.68515778,10.80383015 106.68544006,10.80395031 106.68560028,10.80397987 106.68576050,10.80399036 106.68614960,10.80393982 106.68615723,10.80384064","Address":"109, đường Phan Đăng Lưu, Quận Phú Nhuận","Lat":10.803847,"Lng":106.686108,"K":0},{"StationId":515,"StationOrder":37,"StationDirection":1,"RouteId":75,"RouteVarId":149,"StationCode":"QPN 018","StationName":"Bệnh Viện Phước An","pathPoints":"106.68615723,10.80384064 106.68688202,10.80382538 106.68737793,10.80374146 106.68774414,10.80362034","Address":"81 - 83, đường Phan Đăng Lưu, Quận Phú Nhuận","Lat":10.803615,"Lng":106.687916,"K":0},{"StationId":517,"StationOrder":38,"StationDirection":1,"RouteId":75,"RouteVarId":149,"StationCode":"QBTH 114","StationName":"Lăng Ông Bà Chiểu","pathPoints":"106.68791962,10.80361462 106.69715881,10.80240822","Address":"1, đường Phan Đăng Lưu, Quận Bình Thạnh","Lat":10.802408,"Lng":106.697159,"K":0},{"StationId":518,"StationOrder":39,"StationDirection":1,"RouteId":75,"RouteVarId":149,"StationCode":"QBTH 006","StationName":"Chợ Bà Chiểu","pathPoints":"106.69682312,10.80245495 106.69743347,10.80242348 106.69809723,10.80238152 106.69955444,10.80296135","Address":"473C, đường Bạch Đằng, Quận Bình Thạnh","Lat":10.802893,"Lng":106.699471,"K":0},{"StationId":519,"StationOrder":40,"StationDirection":1,"RouteId":75,"RouteVarId":149,"StationCode":"QBTH 007","StationName":"Tòa Án nhân dân Quận Bình Thạnh","pathPoints":"106.69947052,10.80289268 106.69955444,10.80299854 106.70111084,10.80364609 106.70120239,10.80361462","Address":"449, đường Bạch Đằng, Quận Bình Thạnh","Lat":10.803615,"Lng":106.701204,"K":0},{"StationId":520,"StationOrder":41,"StationDirection":1,"RouteId":75,"RouteVarId":149,"StationCode":"QBTH 008","StationName":"Chùa Bồ Đề","pathPoints":"106.70120239,10.80361462 106.70120239,10.80361462 106.70127106,10.80369377 106.70151520,10.80381489 106.70274353,10.80350971 106.70388794,10.80334568 106.70398712,10.80329323 106.70398712,10.80329323","Address":"375, đường Bạch Đằng, Quận Bình Thạnh","Lat":10.803293,"Lng":106.703988,"K":0},{"StationId":521,"StationOrder":42,"StationDirection":1,"RouteId":75,"RouteVarId":149,"StationCode":"QBTH 009","StationName":"Nhà thờ Hàng Xanh","pathPoints":"106.70398712,10.80329323 106.70398712,10.80329323 106.70410919,10.80333042 106.70658112,10.80313492 106.70671082,10.80307674 106.70671082,10.80307674","Address":"235, đường Bạch Đằng, Quận Bình Thạnh","Lat":10.803077,"Lng":106.706713,"K":0},{"StationId":366,"StationOrder":43,"StationDirection":1,"RouteId":75,"RouteVarId":149,"StationCode":"QBTH 010","StationName":"Chợ Hàng Xanh","pathPoints":"106.70671082,10.80307674 106.70671082,10.80307674 106.70685577,10.80311966 106.71038818,10.80284023 106.71051025,10.80279255 106.71051025,10.80279255","Address":"39, đường Bạch Đằng, Quận Bình Thạnh","Lat":10.802793,"Lng":106.710511,"K":0},{"StationId":476,"StationOrder":44,"StationDirection":1,"RouteId":75,"RouteVarId":149,"StationCode":"QBTH 059","StationName":"Đại học Hutech","pathPoints":"106.71053314,10.80290031 106.71114349,10.80286026 106.71138763,10.80284023 106.71137238,10.80249977 106.71132660,10.80160999 106.71128082,10.80160046 106.71121979,10.80156994 106.71115875,10.80150032 106.71115112,10.80144024 106.71115875,10.80136967 106.71118164,10.80132008 106.71125031,10.80126953 106.71132660,10.80123997 106.71138763,10.80125046 106.71147919,10.80128956 106.71234131,10.80130005 106.71283722,10.80125999 106.71347809,10.80117989 106.71401215,10.80105019 106.71414185,10.80101013","Address":"510-512, đường Điện Biên Phủ, Quận Bình Thạnh","Lat":10.800827,"Lng":106.714255,"K":0},{"StationId":473,"StationOrder":45,"StationDirection":1,"RouteId":75,"RouteVarId":149,"StationCode":"QBTH 058","StationName":"Khu Du lịch Văn Thánh","pathPoints":"106.71428680,10.80086422 106.71595764,10.80044746 106.71645355,10.80021572 106.71740723,10.79954720","Address":"600, đường Điện Biên Phủ, Quận Bình Thạnh","Lat":10.799531,"Lng":106.717404,"K":0},{"StationId":475,"StationOrder":46,"StationDirection":1,"RouteId":75,"RouteVarId":149,"StationCode":"QBTH 057","StationName":"Cầu Sài Gòn","pathPoints":"106.71740723,10.79954720 106.71919250,10.79871464 106.71949768,10.79852486","Address":"658, đường Điện Biên Phủ, Quận Bình Thạnh","Lat":10.798525,"Lng":106.719496,"K":0},{"StationId":477,"StationOrder":47,"StationDirection":1,"RouteId":75,"RouteVarId":149,"StationCode":"Q2 071","StationName":"Cầu Đen","pathPoints":"106.71949768,10.79852486 106.72050476,10.79802418 106.72158051,10.79780293 106.72290802,10.79781342 106.72425079,10.79807663 106.73419952,10.79997826","Address":"794, đường Xa Lộ Hà Nội, Quận 2","Lat":10.799978,"Lng":106.7342,"K":0},{"StationId":478,"StationOrder":48,"StationDirection":1,"RouteId":75,"RouteVarId":149,"StationCode":"Q2 072","StationName":"Thảo Điền","pathPoints":"106.73419952,10.79997826 106.73889923,10.80083847","Address":"Đối diện ngã 3 Thảo Điền, đường Xa Lộ Hà Nội, Quận 2","Lat":10.800838,"Lng":106.738899,"K":0},{"StationId":480,"StationOrder":49,"StationDirection":1,"RouteId":75,"RouteVarId":149,"StationCode":"Q2 073","StationName":"Metro Quận 2","pathPoints":"106.73889923,10.80083847 106.74292755,10.80158424","Address":"170, đường Xa Lộ Hà Nội, Quận 2","Lat":10.801584,"Lng":106.742928,"K":0},{"StationId":479,"StationOrder":50,"StationDirection":1,"RouteId":75,"RouteVarId":149,"StationCode":"Q2 074","StationName":"Cát Lái","pathPoints":"106.74292755,10.80158424 106.74458313,10.80196571 106.74551392,10.80193424 106.74595642,10.80195522 106.74633026,10.80201817 106.74714661,10.80220795 106.74761963,10.80247116 106.74809265,10.80259228","Address":"Khu dân cư Estella, đường Xa Lộ Hà Nội, Quận 2","Lat":10.802592,"Lng":106.748089,"K":0},{"StationId":482,"StationOrder":51,"StationDirection":1,"RouteId":75,"RouteVarId":149,"StationCode":"Q9 210","StationName":"Xi măng hà tiên - trạm thu phí","pathPoints":"106.74809265,10.80259228 106.75114441,10.80375671 106.75232697,10.80453682 106.75341797,10.80537987 106.75453949,10.80656052 106.75546265,10.80784607 106.75601959,10.80887890 106.75642395,10.80995369 106.75839233,10.81920624","Address":"249B, đường Xa Lộ Hà Nội, Quận 9","Lat":10.819206,"Lng":106.758394,"K":0},{"StationId":481,"StationOrder":52,"StationDirection":1,"RouteId":75,"RouteVarId":149,"StationCode":"Q9 211","StationName":"Ngã 4 Tây Hòa (RMK)","pathPoints":"106.75839233,10.81920624 106.75850677,10.82070255 106.75889587,10.82234669 106.75972748,10.82437038 106.76077271,10.82597160","Address":"185A, đường Xa Lộ Hà Nội, Quận 9","Lat":10.825972,"Lng":106.760775,"K":0},{"StationId":485,"StationOrder":53,"StationDirection":1,"RouteId":75,"RouteVarId":149,"StationCode":"Q9 212","StationName":"Trạm xây dựng","pathPoints":"106.76077271,10.82597160 106.76312256,10.82995510","Address":"354A, đường Xa Lộ Hà Nội, Quận 9","Lat":10.829955,"Lng":106.76312,"K":0},{"StationId":483,"StationOrder":54,"StationDirection":1,"RouteId":75,"RouteVarId":149,"StationCode":"Q9 213","StationName":"Khu QLGTDT số 2","pathPoints":"106.76312256,10.82995510 106.76477814,10.83324909","Address":"Khu QLGTĐT số 2, đường Xa Lộ Hà Nội, Quận 9","Lat":10.833249,"Lng":106.764778,"K":0},{"StationId":1025,"StationOrder":55,"StationDirection":1,"RouteId":75,"RouteVarId":149,"StationCode":"Q9 214","StationName":"Ngã 4 Bình Thái","pathPoints":"106.76477814,10.83324909 106.76666260,10.83616161","Address":"Kho 71, đường Xa Lộ Hà Nội, Quận 9","Lat":10.836162,"Lng":106.76666,"K":0},{"StationId":1030,"StationOrder":56,"StationDirection":1,"RouteId":75,"RouteVarId":149,"StationCode":"Q9 215","StationName":"UBND quận 9","pathPoints":"106.76666260,10.83616161 106.76666260,10.83616161 106.76672363,10.83649921 106.76885986,10.84041882 106.76907349,10.84046555 106.76907349,10.84046555","Address":"1B, đường Xa Lộ Hà Nội, Quận 9","Lat":10.840466,"Lng":106.769074,"K":0},{"StationId":1026,"StationOrder":57,"StationDirection":1,"RouteId":75,"RouteVarId":149,"StationCode":"Q9 216","StationName":"Bê tông Hải Âu","pathPoints":"106.76907349,10.84046555 106.76907349,10.84046555 106.76905060,10.84073448 106.77065277,10.84377003 106.77079010,10.84383392 106.77079010,10.84383392","Address":"Bê tông Hải Âu, đường Xa Lộ Hà Nội, Quận 9","Lat":10.843834,"Lng":106.77079,"K":0},{"StationId":1028,"StationOrder":58,"StationDirection":1,"RouteId":75,"RouteVarId":149,"StationCode":"Q9 217","StationName":"Ngã 4 Thủ Đức","pathPoints":"106.77079010,10.84383392 106.77079010,10.84383392 106.77276611,10.84715176 106.77297211,10.84714222 106.77297211,10.84714222","Address":"712, đường Xa Lộ Hà Nội, Quận 9","Lat":10.847142,"Lng":106.772974,"K":0},{"StationId":1502,"StationOrder":59,"StationDirection":1,"RouteId":75,"RouteVarId":149,"StationCode":"Q9 089","StationName":"Siêu thị Coopmark","pathPoints":"106.77282715,10.84714031 106.77333069,10.84799957 106.77368927,10.84848976 106.77414703,10.84902954 106.77481079,10.84844971 106.77507782,10.84823990","Address":"4-6, đường Lê Văn Việt, Quận 9","Lat":10.848192,"Lng":106.775032,"K":0},{"StationId":1504,"StationOrder":60,"StationDirection":1,"RouteId":75,"RouteVarId":149,"StationCode":"Q9 090","StationName":"Bệnh viện 7C-Trường Quân y 2","pathPoints":"106.77503204,10.84819221 106.77578735,10.84763718 106.77704620,10.84693050 106.77812195,10.84626198","Address":"50, đường Lê Văn Việt, Quận 9","Lat":10.846262,"Lng":106.778124,"K":0},{"StationId":1495,"StationOrder":61,"StationDirection":1,"RouteId":75,"RouteVarId":149,"StationCode":"Q9 091","StationName":"Nhà sách Thành Nghĩa","pathPoints":"106.77812195,10.84626198 106.77872467,10.84596634 106.77935028,10.84560299 106.78007507,10.84519768 106.78056335,10.84486008","Address":"142-144, đường Lê Văn Việt, Quận 9","Lat":10.84486,"Lng":106.780563,"K":0},{"StationId":1497,"StationOrder":62,"StationDirection":1,"RouteId":75,"RouteVarId":149,"StationCode":"Q9 092","StationName":"Trạm y tế Phường Hiệp Phú","pathPoints":"106.78056335,10.84486008 106.78083801,10.84472847 106.78125000,10.84444427 106.78202820,10.84411430","Address":"188, đường Lê Văn Việt, Quận 9","Lat":10.844114,"Lng":106.782028,"K":0},{"StationId":1499,"StationOrder":63,"StationDirection":1,"RouteId":75,"RouteVarId":149,"StationCode":"Q9 093","StationName":"Chợ Hiệp Phú","pathPoints":"106.78202820,10.84411430 106.78250122,10.84399605 106.78273773,10.84397507 106.78426361,10.84412766","Address":"278, đường Lê Văn Việt, Quận 9","Lat":10.844128,"Lng":106.784261,"K":0},{"StationId":1506,"StationOrder":64,"StationDirection":1,"RouteId":75,"RouteVarId":149,"StationCode":"Q9 094","StationName":"Chợ Tăng Nhơn Phú","pathPoints":"106.78426361,10.84412766 106.78539276,10.84439659 106.78614044,10.84486008 106.78636932,10.84500217 106.78668213,10.84509754 106.78742218,10.84511852 106.78823853,10.84476566 106.78865814,10.84458065 106.78894043,10.84443855","Address":"424A-424B, đường Lê Văn Việt, Quận 9","Lat":10.844439,"Lng":106.788939,"K":0},{"StationId":1501,"StationOrder":65,"StationDirection":1,"RouteId":75,"RouteVarId":149,"StationCode":"Q9 095","StationName":"Bệnh viện Quận 9","pathPoints":"106.78894043,10.84443855 106.78928375,10.84434891 106.78955078,10.84431744 106.79040527,10.84450722 106.79097748,10.84459972","Address":"Đối diện Bệnh viện Quận 9, đường Lê Văn Việt, Quận 9","Lat":10.8446,"Lng":106.790977,"K":0},{"StationId":1508,"StationOrder":66,"StationDirection":1,"RouteId":75,"RouteVarId":149,"StationCode":"Q9 096","StationName":"Đại Học GTVT","pathPoints":"106.79097748,10.84459972 106.79285431,10.84507656 106.79392242,10.84527588","Address":"Đối diện 451, đường Lê Văn Việt, Quận 9","Lat":10.845276,"Lng":106.793922,"K":0},{"StationId":3185,"StationOrder":67,"StationDirection":1,"RouteId":75,"RouteVarId":149,"StationCode":"BX 30","StationName":"Khu Công Nghệ cao","pathPoints":"106.79392242,10.84527588 106.79962921,10.84681511 106.79927826,10.84729958 106.79960632,10.84735203","Address":"ĐẦU BẾN KCN CAO QUẬN 9, đường Lê Văn Việt, Quận 9","Lat":10.847352,"Lng":106.799606,"K":0}]