[{"StationId":3186,"StationOrder":0,"StationDirection":0,"RouteId":76,"RouteVarId":152,"StationCode":"BX31","StationName":"KTX Đại học Sư phạm kỹ thuật","pathPoints":"","Address":"KTX Đại học Sư phạm kỹ thuật, đường Lê Văn Việt, Quận 9","Lat":10.845909,"Lng":106.797581,"K":0},{"StationId":1535,"StationOrder":1,"StationDirection":0,"RouteId":76,"RouteVarId":152,"StationCode":"Q9 104","StationName":"Bệnh viện Quận 9","pathPoints":"106.79758453,10.84590912 106.79735565,10.84627724 106.79035187,10.84460735","Address":"99, đường Lê Văn Việt, Quận 9","Lat":10.844607,"Lng":106.790349,"K":0},{"StationId":1532,"StationOrder":2,"StationDirection":0,"RouteId":76,"RouteVarId":152,"StationCode":"Q9 105","StationName":"Chợ Tăng Nhơn Phú B","pathPoints":"106.79042053,10.84451962 106.78981781,10.84436035 106.78964233,10.84432983 106.78929138,10.84436035 106.78904724,10.84440041 106.78878784,10.84449959 106.78855133,10.84461021 106.78823853,10.84480000 106.78817749,10.84482002","Address":"Đối diện chợ Tăng Nhơn Phú, đường Lê Văn Việt, Quận 9","Lat":10.844923,"Lng":106.788209,"K":0},{"StationId":1537,"StationOrder":3,"StationDirection":0,"RouteId":76,"RouteVarId":152,"StationCode":"Q9 106","StationName":"Chợ Hiệp Phú","pathPoints":"106.78817749,10.84482002 106.78733063,10.84517002 106.78697968,10.84519005 106.78665161,10.84515953 106.78656006,10.84514999 106.78630066,10.84504032 106.78617096,10.84496021 106.78610992,10.84486961 106.78553772,10.84447956 106.78539276,10.84440994 106.78479767,10.84430981 106.78407288,10.84418964","Address":"249, đường Lê Văn Việt, Quận 9","Lat":10.84427,"Lng":106.784084,"K":0},{"StationId":1534,"StationOrder":4,"StationDirection":0,"RouteId":76,"RouteVarId":152,"StationCode":"Q9 107","StationName":"Trạm y tế Phường Hiệp Phú","pathPoints":"106.78407288,10.84418964 106.78273010,10.84399986 106.78231049,10.84407997 106.78182220,10.84426975","Address":"189-191, đường Lê Văn Việt, Quận 9","Lat":10.844381,"Lng":106.781723,"K":0},{"StationId":1536,"StationOrder":5,"StationDirection":0,"RouteId":76,"RouteVarId":152,"StationCode":"Q9 091","StationName":"Nhà sách Thành Nghĩa","pathPoints":"106.78172302,10.84438133 106.78141785,10.84442043 106.78103638,10.84461021 106.78050232,10.84504032 106.78038025,10.84512043 106.78038025,10.84517574","Address":"Đối diện 140-142, đường Lê Văn Việt, Quận 9","Lat":10.845176,"Lng":106.780377,"K":0},{"StationId":1539,"StationOrder":6,"StationDirection":0,"RouteId":76,"RouteVarId":152,"StationCode":"Q9 109","StationName":"Bệnh viện 7C-Trường Quân y 2","pathPoints":"106.78038025,10.84512043 106.78009033,10.84529972 106.77919769,10.84576035 106.77778625,10.84655952 106.77747345,10.84673977","Address":"91-93, đường Lê Văn Việt, Quận 9","Lat":10.846799,"Lng":106.777512,"K":0},{"StationId":1538,"StationOrder":7,"StationDirection":0,"RouteId":76,"RouteVarId":152,"StationCode":"Q9 110","StationName":"Siêu thị Coopmark","pathPoints":"106.77747345,10.84673977 106.77583313,10.84768963 106.77510071,10.84823036 106.77494812,10.84834003","Address":"17-19, đường Lê Văn Việt, Quận 9","Lat":10.848411,"Lng":106.775045,"K":0},{"StationId":400,"StationOrder":8,"StationDirection":0,"RouteId":76,"RouteVarId":152,"StationCode":"QTD 065","StationName":"Trường Đại học Sư phạm Kỹ thuật","pathPoints":"106.77494812,10.84834003 106.77404022,10.84914017 106.77384949,10.84932041 106.77361298,10.84947014 106.77336884,10.84957981 106.77220917,10.84963036","Address":"1, đường Võ Văn Ngân, Quận Thủ Đức","Lat":10.849871,"Lng":106.772105,"K":0},{"StationId":402,"StationOrder":9,"StationDirection":0,"RouteId":76,"RouteVarId":152,"StationCode":"QTD 066","StationName":"Siêu thị Nguyễn Kim","pathPoints":"106.77208710,10.84982300 106.77165985,10.84971046 106.77108765,10.84969044 106.76917267,10.84974003 106.76882935,10.84974957 106.76883698,10.84980488","Address":"312, đường Võ Văn Ngân, Quận Thủ Đức","Lat":10.849805,"Lng":106.768837,"K":0},{"StationId":403,"StationOrder":10,"StationDirection":0,"RouteId":76,"RouteVarId":152,"StationCode":"QTD 067","StationName":"Nhà thiếu nhi Thủ Đức","pathPoints":"106.76882935,10.84974957 106.76818848,10.84976959 106.76777649,10.84984016 106.76760864,10.84994984 106.76741791,10.85015011 106.76728058,10.85031033 106.76711273,10.85042000 106.76699066,10.85046005","Address":"Nhà thiếu nhi, đường Võ Văn Ngân, Quận Thủ Đức","Lat":10.850556,"Lng":106.766794,"K":0},{"StationId":404,"StationOrder":11,"StationDirection":0,"RouteId":76,"RouteVarId":152,"StationCode":"QTD 068","StationName":"Cao đẳng xây dựng 2","pathPoints":"106.76679230,10.85055637 106.76458740,10.85072994 106.76432037,10.85076046 106.76409912,10.85080814","Address":"253, đường Võ Văn Ngân, Quận Thủ Đức","Lat":10.850808,"Lng":106.764101,"K":0},{"StationId":405,"StationOrder":12,"StationDirection":0,"RouteId":76,"RouteVarId":152,"StationCode":"QTD 069","StationName":"Ngã ba Chương Dương","pathPoints":"106.76409912,10.85080814 106.76315308,10.85087013 106.76287842,10.85089016 106.76275635,10.85087967 106.76242828,10.85074043 106.76216125,10.85056019 106.76194000,10.85048008 106.76145935,10.85046005 106.75942230,10.85060024 106.75942993,10.85067940","Address":"Đối diện 100, đường Võ Văn Ngân, Quận Thủ Đức","Lat":10.850645,"Lng":106.760201,"K":0},{"StationId":406,"StationOrder":13,"StationDirection":0,"RouteId":76,"RouteVarId":152,"StationCode":"QTD 059","StationName":"Làng trẻ em SOS","pathPoints":"106.75942230,10.85060024 106.75862122,10.85064983 106.75868225,10.85041046 106.75875854,10.84972954","Address":"249, đường Đặng Văn Bi, Quận Thủ Đức","Lat":10.849723,"Lng":106.758698,"K":0},{"StationId":408,"StationOrder":14,"StationDirection":0,"RouteId":76,"RouteVarId":152,"StationCode":"QTD 060","StationName":"Trường THPT Quận Thủ Đức","pathPoints":"106.75875854,10.84972954 106.75885773,10.84918022 106.75898743,10.84897041 106.75966644,10.84825993","Address":"229-231, đường Đặng Văn Bi, Quận Thủ Đức","Lat":10.848207,"Lng":106.759613,"K":0},{"StationId":407,"StationOrder":15,"StationDirection":0,"RouteId":76,"RouteVarId":152,"StationCode":"QTD 061","StationName":"Công ty may Sài Gòn","pathPoints":"106.75966644,10.84825993 106.76048279,10.84727001 106.76058197,10.84714031 106.76087189,10.84685040 106.76116943,10.84642029 106.76135254,10.84605980 106.76145172,10.84580040 106.76154327,10.84535980 106.76155090,10.84523010 106.76161957,10.84508991 106.76194000,10.84461021 106.76222229,10.84418964","Address":"Kế 145B, đường Đặng Văn Bi, Quận Thủ Đức","Lat":10.844107,"Lng":106.762133,"K":0},{"StationId":411,"StationOrder":16,"StationDirection":0,"RouteId":76,"RouteVarId":152,"StationCode":"QTD 062","StationName":"Công ty Sanofi Aventis","pathPoints":"106.76222229,10.84418964 106.76264954,10.84348965 106.76338196,10.84224987 106.76361084,10.84197998 106.76378632,10.84185028 106.76441193,10.84142971","Address":"15/6C, đường Đặng Văn Bi, Quận Thủ Đức","Lat":10.84132,"Lng":106.764354,"K":0},{"StationId":409,"StationOrder":17,"StationDirection":0,"RouteId":76,"RouteVarId":152,"StationCode":"QTD 063","StationName":"Tu viện Quảng Đức","pathPoints":"106.76441193,10.84142971 106.76564789,10.84060001 106.76583099,10.84045982 106.76589966,10.84037018 106.76621246,10.83977985 106.76627350,10.83967018","Address":"Tu viện Quảng Đức, đường Đặng Văn Bi, Quận Thủ Đức","Lat":10.839607,"Lng":106.766136,"K":0},{"StationId":410,"StationOrder":18,"StationDirection":0,"RouteId":76,"RouteVarId":152,"StationCode":"QTD 080","StationName":"Ngã 4 Bình Thái","pathPoints":"106.76613617,10.83960724 106.76640320,10.83908081 106.77210999,10.84947014 106.77256012,10.84955502 106.77298737,10.84953308 106.77350616,10.84928036 106.76524353,10.83494473","Address":"Đối diện 592C, đường Xa Lộ Hà Nội, Quận Thủ Đức","Lat":10.834945,"Lng":106.765244,"K":0},{"StationId":413,"StationOrder":19,"StationDirection":0,"RouteId":76,"RouteVarId":152,"StationCode":"QTD 081","StationName":"Công ty truyền tải điện 4","pathPoints":"106.76524353,10.83494473 106.76319122,10.83121395","Address":"Công ty truyền tải điện 4, đường Xa Lộ Hà Nội, Quận Thủ Đức","Lat":10.831214,"Lng":106.763195,"K":0},{"StationId":412,"StationOrder":20,"StationDirection":0,"RouteId":76,"RouteVarId":152,"StationCode":"QTD 082","StationName":"Ngã 4 Tây Hòa (RMK)","pathPoints":"106.76319122,10.83121395 106.75999451,10.82536602","Address":"Nhà máy thép Thủ Đức, đường Xa Lộ Hà Nội, Quận Thủ Đức","Lat":10.825366,"Lng":106.759998,"K":0},{"StationId":414,"StationOrder":21,"StationDirection":0,"RouteId":76,"RouteVarId":152,"StationCode":"QTD 083","StationName":"Xi măng Hà Tiên","pathPoints":"106.75999451,10.82536602 106.75891113,10.82329464 106.75814056,10.82057571","Address":"Xi măng Hà Tiên 1, đường Xa Lộ Hà Nội, Quận Thủ Đức","Lat":10.820576,"Lng":106.758142,"K":0},{"StationId":415,"StationOrder":22,"StationDirection":0,"RouteId":76,"RouteVarId":152,"StationCode":"Q2 075","StationName":"Cát Lái","pathPoints":"106.75814056,10.82057571 106.75713348,10.81518078 106.75663757,10.81246185 106.75612640,10.80967999 106.75566101,10.80860519 106.75509644,10.80751896 106.75412750,10.80622292 106.75299072,10.80510616 106.75171661,10.80434704 106.75036621,10.80364132 106.74915314,10.80320930 106.74794769,10.80292511","Address":"Đối diện Esstella, đường Xa Lộ Hà Nội, Quận 2","Lat":10.802925,"Lng":106.747948,"K":0},{"StationId":416,"StationOrder":23,"StationDirection":0,"RouteId":76,"RouteVarId":152,"StationCode":"Q2 076","StationName":"Metro Quận 2","pathPoints":"106.74794769,10.80292511 106.74340057,10.80213356","Address":"655, đường Xa Lộ Hà Nội, Quận 2","Lat":10.802134,"Lng":106.7434,"K":0},{"StationId":417,"StationOrder":24,"StationDirection":0,"RouteId":76,"RouteVarId":152,"StationCode":"Q2 077","StationName":"Thảo Điền","pathPoints":"106.74340057,10.80213356 106.73876190,10.80130863","Address":"Ngã ba Thảo Điền, đường Xa Lộ Hà Nội, Quận 2","Lat":10.801309,"Lng":106.738762,"K":0},{"StationId":418,"StationOrder":25,"StationDirection":0,"RouteId":76,"RouteVarId":152,"StationCode":"Q2 078","StationName":"Cầu Đen","pathPoints":"106.73876190,10.80130863 106.73435974,10.80045128","Address":"Đối diện Cầu Đen, đường Xa Lộ Hà Nội, Quận 2","Lat":10.800451,"Lng":106.73436,"K":0},{"StationId":2699,"StationOrder":26,"StationDirection":0,"RouteId":76,"RouteVarId":152,"StationCode":"QBTH 075","StationName":"Cây Xăng Hoàng Nguyên","pathPoints":"106.73435974,10.80045128 106.73435974,10.80045128 106.73435974,10.80045128 106.73435974,10.80045128 106.72190094,10.79793930 106.72148895,10.79806614 106.72121429,10.79842472 106.72147369,10.79876137 106.72193909,10.79899311 106.72396088,10.79901505 106.72432709,10.79815006 106.72409058,10.79762363 106.72256470,10.79739189 106.72102356,10.79758167 106.72013855,10.79764462 106.71865082,10.79607391 106.71827698,10.79573154 106.71809387,10.79526711 106.71809387,10.79526711 106.71809387,10.79526711 106.71809387,10.79526711","Address":"113, đường Nguyễn Hữu Cảnh, Quận Bình Thạnh","Lat":10.795267,"Lng":106.718094,"K":0},{"StationId":2702,"StationOrder":27,"StationDirection":0,"RouteId":76,"RouteVarId":152,"StationCode":"QBTH 076","StationName":"Hồ Bơi Hải Quân","pathPoints":"106.71809387,10.79526711 106.71802521,10.79107857 106.71786499,10.79060459 106.71755219,10.79019356 106.71706390,10.78982449 106.71641541,10.78951931 106.71566772,10.78926563 106.71530151,10.78920269 106.71491241,10.78923416 106.71334839,10.78952980 106.71250153,10.78963470 106.71209717,10.78974056 106.71168518,10.78979301 106.71108246,10.78967667 106.71052551,10.78947735","Address":"22, đường Nguyễn Hữu Cảnh, Quận Bình Thạnh","Lat":10.789477,"Lng":106.710522,"K":0},{"StationId":2703,"StationOrder":28,"StationDirection":0,"RouteId":76,"RouteVarId":152,"StationCode":"Q1 034","StationName":"Mầm non Hoa Lư","pathPoints":"106.71052551,10.78947735 106.71001434,10.78901291 106.70967865,10.78841209 106.70911407,10.78686333 106.70857239,10.78548241 106.70825958,10.78494453 106.70755768,10.78414917","Address":"1, đường Nguyễn Hữu Cảnh, Quận 1","Lat":10.784149,"Lng":106.707555,"K":0},{"StationId":1192,"StationOrder":29,"StationDirection":0,"RouteId":76,"RouteVarId":152,"StationCode":"Q1 030","StationName":"Ngô Văn Năm","pathPoints":"106.70755768,10.78414917 106.70757294,10.78411007 106.70607758,10.78238010 106.70619965,10.78227043 106.70699310,10.78147030 106.70745087,10.78104973 106.70790863,10.78063011 106.70786285,10.78038979 106.70761108,10.77980709","Address":"3C, đường Tôn Đức Thắng, Quận 1","Lat":10.779807,"Lng":106.707609,"K":0},{"StationId":79,"StationOrder":30,"StationDirection":0,"RouteId":76,"RouteVarId":152,"StationCode":"Q1 031","StationName":"Bến Bạch Đằng","pathPoints":"106.70762634,10.77964020 106.70726013,10.77820969 106.70699310,10.77702999 106.70681000,10.77632046 106.70671844,10.77598000 106.70652771,10.77583027 106.70642853,10.77583027 106.70635223,10.77583027 106.70619965,10.77577972 106.70610046,10.77571011 106.70600128,10.77560997 106.70594025,10.77550030 106.70590210,10.77538967 106.70588684,10.77521038 106.70594025,10.77505016 106.70606232,10.77488995 106.70619202,10.77478981 106.70629883,10.77474976 106.70644379,10.77474976 106.70648956,10.77476025 106.70658112,10.77460003 106.70646667,10.77322006","Address":"21, đường Tôn Đức Thắng, Quận 1","Lat":10.773299,"Lng":106.706359,"K":0},{"StationId":76,"StationOrder":31,"StationDirection":0,"RouteId":76,"RouteVarId":152,"StationCode":"Q1 020","StationName":"Cục Hải Quan Thành Phố","pathPoints":"106.70635986,10.77329922 106.70623779,10.77154922 106.70623779,10.77100086 106.70613098,10.77089024 106.70597076,10.77084827 106.70555115,10.77088547","Address":"2-4, đường Hàm Nghi, Quận 1","Lat":10.770885,"Lng":106.705549,"K":0},{"StationId":78,"StationOrder":32,"StationDirection":0,"RouteId":76,"RouteVarId":152,"StationCode":"Q1 021","StationName":"Hàm Nghi H","pathPoints":"106.70555115,10.77088547 106.70302582,10.77097988","Address":"84, đường Hàm Nghi, Quận 1","Lat":10.77098,"Lng":106.703027,"K":0},{"StationId":80,"StationOrder":33,"StationDirection":0,"RouteId":76,"RouteVarId":152,"StationCode":"Q1 022","StationName":"Hàm Nghi K","pathPoints":"106.70302582,10.77097988 106.70166016,10.77104759","Address":"122, đường Hàm Nghi, Quận 1","Lat":10.771054,"Lng":106.701676,"K":0},{"StationId":7272,"StationOrder":34,"StationDirection":0,"RouteId":76,"RouteVarId":152,"StationCode":"Q1 186","StationName":"Hàm Nghi M","pathPoints":"106.70167542,10.77105427 106.70010376,10.77115440","Address":"132, đường Hàm Nghi, Quận 1","Lat":10.771154,"Lng":106.700104,"K":0},{"StationId":121,"StationOrder":35,"StationDirection":0,"RouteId":76,"RouteVarId":152,"StationCode":"Q1 125","StationName":"KTX Trần Hưng Đạo","pathPoints":"106.70010376,10.77115440 106.69879150,10.77128601 106.69882202,10.77168655 106.69850159,10.77197075 106.69807434,10.77180195 106.69646454,10.77123260 106.69343567,10.77142239 106.69313812,10.77149677 106.69300842,10.77131748 106.69311523,10.77112770 106.69344330,10.77110672 106.69525146,10.76801872 106.69469452,10.76736259","Address":"10, đường Trần Hưng Đạo, Quận 1","Lat":10.767363,"Lng":106.694695,"K":0},{"StationId":122,"StationOrder":36,"StationDirection":0,"RouteId":76,"RouteVarId":152,"StationCode":"Q1 126","StationName":"Rạp Hưng Đạo","pathPoints":"106.69469452,10.76736259 106.69337463,10.76583195","Address":"112, đường Trần Hưng Đạo, Quận 1","Lat":10.765832,"Lng":106.693375,"K":0},{"StationId":2976,"StationOrder":37,"StationDirection":0,"RouteId":76,"RouteVarId":152,"StationCode":"Q1 153","StationName":"Nguyễn Cư Trinh","pathPoints":"106.69337463,10.76583195 106.69337463,10.76583195 106.69344330,10.76578045 106.69265747,10.76488972 106.69171906,10.76458836","Address":"34 - 36, đường Nguyễn Cư Trinh, Quận 1","Lat":10.764588,"Lng":106.691719,"K":0},{"StationId":2973,"StationOrder":38,"StationDirection":0,"RouteId":76,"RouteVarId":152,"StationCode":"Q1 154","StationName":"Cống Quỳnh","pathPoints":"106.69171906,10.76458836 106.69171906,10.76458836 106.69171143,10.76455021 106.69106293,10.76430988 106.69073486,10.76416588 106.69023132,10.76395988 106.68979645,10.76384354 106.68979645,10.76384354","Address":"118, đường Nguyễn Cư Trinh, Quận 1","Lat":10.763844,"Lng":106.689793,"K":0},{"StationId":2975,"StationOrder":39,"StationDirection":0,"RouteId":76,"RouteVarId":152,"StationCode":"Q1 155","StationName":"Trần Đình Xu","pathPoints":"106.68979645,10.76384354 106.68974304,10.76375484 106.68827057,10.76317024 106.68816376,10.76317978","Address":"184, đường Nguyễn Cư Trinh, Quận 1","Lat":10.76318,"Lng":106.688163,"K":0},{"StationId":1021,"StationOrder":40,"StationDirection":0,"RouteId":76,"RouteVarId":152,"StationCode":"Q1 140","StationName":"Nguyễn Trãi","pathPoints":"106.68816376,10.76317978 106.68795776,10.76303005 106.68682098,10.76255035 106.68656158,10.76245022 106.68588257,10.76130009 106.68524170,10.76016998 106.68495941,10.75986958 106.68486023,10.75979042 106.68403625,10.75948620 106.68376923,10.76031399 106.68376923,10.76031399","Address":"Đối diện số 205 - 207, đường Nguyễn Văn Cừ, Quận 1","Lat":10.760314,"Lng":106.683769,"K":0},{"StationId":426,"StationOrder":41,"StationDirection":0,"RouteId":76,"RouteVarId":152,"StationCode":"Q5 001","StationName":"Đại học Sư Phạm","pathPoints":"106.68376923,10.76031399 106.68376923,10.76031399 106.68341827,10.76124668 106.68273163,10.76095676 106.68267059,10.76103020 106.68267059,10.76103020","Address":"280, đường An Dương Vương, Quận 5","Lat":10.76103,"Lng":106.68267,"K":0},{"StationId":429,"StationOrder":42,"StationDirection":0,"RouteId":76,"RouteVarId":152,"StationCode":"Q5 002","StationName":"Chợ Bầu Sen","pathPoints":"106.68267059,10.76103020 106.68267059,10.76103020 106.68265533,10.76092529 106.67885590,10.75940132 106.67876434,10.75940704 106.67876434,10.75940704","Address":"370, đường An Dương Vương, Quận 5","Lat":10.759407,"Lng":106.678764,"K":0},{"StationId":427,"StationOrder":43,"StationDirection":0,"RouteId":76,"RouteVarId":152,"StationCode":"Q5 003","StationName":"Huỳnh Mẫn Đạt","pathPoints":"106.67876434,10.75940704 106.67876434,10.75940704 106.67870331,10.75933361 106.67535400,10.75798416 106.67527008,10.75798416 106.67527008,10.75798416","Address":"526, đường An Dương Vương, Quận 5","Lat":10.757984,"Lng":106.675272,"K":0},{"StationId":430,"StationOrder":44,"StationDirection":0,"RouteId":76,"RouteVarId":152,"StationCode":"Q5 004","StationName":"Chợ An Đông","pathPoints":"106.67527008,10.75798416 106.67478180,10.75777340 106.67424011,10.75758362 106.67418671,10.75762558 106.67412567,10.75764179 106.67405701,10.75763130 106.67398071,10.75759983 106.67353058,10.75753593","Address":"Đối diện số 3, đường An Dương Vương, Quận 5","Lat":10.757536,"Lng":106.673534,"K":0},{"StationId":428,"StationOrder":45,"StationDirection":0,"RouteId":76,"RouteVarId":152,"StationCode":"Q5 005","StationName":"Bệnh viện Nguyễn Tri Phương","pathPoints":"106.67353058,10.75753593 106.67065430,10.75696659","Address":"102C-D, đường An Dương Vương, Quận 5","Lat":10.756967,"Lng":106.670653,"K":0},{"StationId":432,"StationOrder":46,"StationDirection":0,"RouteId":76,"RouteVarId":152,"StationCode":"Q5 068","StationName":"Công viên Văn Lang","pathPoints":"106.67065430,10.75696659 106.66966248,10.75674534 106.66961670,10.75715065","Address":"132A, đường Nguyễn Tri Phương, Quận 5","Lat":10.757151,"Lng":106.669613,"K":0},{"StationId":431,"StationOrder":47,"StationDirection":0,"RouteId":76,"RouteVarId":152,"StationCode":"Q5 031","StationName":"Công viên Văn Lang","pathPoints":"106.66961670,10.75715065 106.66956329,10.75714588 106.66944885,10.75764656 106.66859436,10.75722027 106.66856384,10.75725746","Address":"116A, đường Hùng Vương, Quận 5","Lat":10.757257,"Lng":106.668566,"K":0},{"StationId":433,"StationOrder":48,"StationDirection":0,"RouteId":76,"RouteVarId":152,"StationCode":"Q5 017","StationName":"Bệnh viện Phạm Ngọc Thạch","pathPoints":"106.66856384,10.75725746 106.66858673,10.75718784 106.66786194,10.75683022 106.66710663,10.75651360 106.66664886,10.75636005 106.66629791,10.75623989 106.66455078,10.75586033 106.66451263,10.75589657","Address":"120, đường Hồng Bàng, Quận 5","Lat":10.755897,"Lng":106.664511,"K":0},{"StationId":434,"StationOrder":49,"StationDirection":0,"RouteId":76,"RouteVarId":152,"StationCode":"Q5 018","StationName":"Bệnh viện Hùng Vương","pathPoints":"106.66451263,10.75589657 106.66451263,10.75589657 106.66448975,10.75584984 106.66111755,10.75516987 106.66107178,10.75519562 106.66107178,10.75519562","Address":"132, đường Hồng Bàng, Quận 5","Lat":10.755196,"Lng":106.661072,"K":0},{"StationId":436,"StationOrder":50,"StationDirection":0,"RouteId":76,"RouteVarId":152,"StationCode":"Q5 019","StationName":"Bệnh viện Chợ Rẫy","pathPoints":"106.66107178,10.75519562 106.66107178,10.75519562 106.66106415,10.75515938 106.65954590,10.75484276 106.65950012,10.75487518 106.65950012,10.75487518","Address":"172, đường Hồng Bàng, Quận 5","Lat":10.754875,"Lng":106.659501,"K":0},{"StationId":397,"StationOrder":51,"StationDirection":0,"RouteId":76,"RouteVarId":152,"StationCode":"Q5 013","StationName":"Rạp Đại Quang","pathPoints":"106.65950012,10.75487518 106.65823364,10.75456905 106.65821075,10.75424194 106.65859985,10.75310421 106.65879059,10.75244522","Address":"81, đường Châu Văn Liêm, Quận 5","Lat":10.752445,"Lng":106.658792,"K":0},{"StationId":137,"StationOrder":52,"StationDirection":0,"RouteId":76,"RouteVarId":152,"StationCode":"Q5 014","StationName":"Bưu điện Quận 5","pathPoints":"106.65879059,10.75244522 106.65889740,10.75138092","Address":"13-15, đường Châu Văn Liêm, Quận 5","Lat":10.751381,"Lng":106.658894,"K":0},{"StationId":138,"StationOrder":53,"StationDirection":0,"RouteId":76,"RouteVarId":152,"StationCode":"Q5 015","StationName":"Hải Thượng Lãn Ông","pathPoints":"106.65889740,10.75138092 106.65906525,10.75086403 106.65835571,10.75094795","Address":"210-212, đường Hải Thượng Lãn Ông, Quận 5","Lat":10.750948,"Lng":106.658358,"K":0},{"StationId":139,"StationOrder":54,"StationDirection":0,"RouteId":76,"RouteVarId":152,"StationCode":"Q5 102","StationName":"Chợ Kim Biên","pathPoints":"106.65835571,10.75094795 106.65741730,10.75097466 106.65646362,10.75107479 106.65576935,10.75105953 106.65508270,10.75112820","Address":"5, đường Trang Tử, Quận 5","Lat":10.751128,"Lng":106.655086,"K":0},{"StationId":8,"StationOrder":55,"StationDirection":0,"RouteId":76,"RouteVarId":152,"StationCode":"BX14","StationName":"Bến xe Chợ Lớn","pathPoints":"106.65508270,10.75112820 106.65387726,10.75115967 106.65341949,10.75167084 106.65325928,10.75172329 106.65261078,10.75164413 106.65256500,10.75125313","Address":"GA HKXB CHO LON, đường Lê Quang Sung, Quận 5","Lat":10.751253128051758,"Lng":106.6525650024414,"K":0},{"StationId":8,"StationOrder":0,"StationDirection":1,"RouteId":76,"RouteVarId":151,"StationCode":"BX14","StationName":"Bến xe Chợ Lớn","pathPoints":"","Address":"GA HKXB CHO LON, đường Lê Quang Sung, Quận 5","Lat":10.751253128051758,"Lng":106.6525650024414,"K":0},{"StationId":1,"StationOrder":1,"StationDirection":1,"RouteId":76,"RouteVarId":151,"StationCode":"Q6 095","StationName":"Chu Văn An","pathPoints":"106.65256500,10.75125313 106.65203857,10.75116444 106.65194702,10.75102234 106.65099335,10.75097466 106.65003967,10.75107002 106.64955139,10.75079060 106.64944458,10.74973106 106.65254211,10.75026989 106.65255737,10.75023174","Address":"27, đường Tháp Mười, Quận 6","Lat":10.750232,"Lng":106.652554,"K":0},{"StationId":2393,"StationOrder":2,"StationDirection":1,"RouteId":76,"RouteVarId":151,"StationCode":"Q6 096","StationName":"Tháp Mười","pathPoints":"106.65255737,10.75023174 106.65255737,10.75023174 106.65280151,10.75029469 106.65303802,10.75032616 106.65303802,10.75032616","Address":"13C-13D, đường Tháp Mười, Quận 6","Lat":10.750326,"Lng":106.653036,"K":0},{"StationId":2,"StationOrder":3,"StationDirection":1,"RouteId":76,"RouteVarId":151,"StationCode":"Q5 016","StationName":"Chợ Kim Biên","pathPoints":"106.65303040,10.75035954 106.65453339,10.75069046 106.65473175,10.75078964 106.65503693,10.75078011","Address":"11-12, đường Hải Thượng Lãn Ông, Quận 5","Lat":10.750732,"Lng":106.655075,"K":0},{"StationId":3,"StationOrder":4,"StationDirection":1,"RouteId":76,"RouteVarId":151,"StationCode":"Q5 011","StationName":"Bưu điện Quận 5","pathPoints":"106.65503693,10.75078964 106.65592957,10.75074005 106.65647888,10.75080013 106.65741730,10.75070953 106.65840912,10.75067997 106.65899658,10.75065994 106.65908051,10.75065994 106.65914917,10.75061989 106.65920258,10.75061989 106.65926361,10.75065041 106.65930939,10.75070953 106.65930939,10.75078964 106.65926361,10.75086975 106.65921021,10.75088978 106.65918732,10.75105000 106.65914154,10.75135994","Address":"14-16, đường Châu Văn Liêm, Quận 5","Lat":10.751368,"Lng":106.659203,"K":0},{"StationId":5,"StationOrder":5,"StationDirection":1,"RouteId":76,"RouteVarId":151,"StationCode":"Q5 012","StationName":"Rạp Đại Quang","pathPoints":"106.65920258,10.75136757 106.65914154,10.75135994 106.65905762,10.75183964 106.65903473,10.75201321 106.65896606,10.75246048 106.65892792,10.75256634","Address":"68, đường Châu Văn Liêm, Quận 5","Lat":10.752566,"Lng":106.658937,"K":0},{"StationId":437,"StationOrder":6,"StationDirection":1,"RouteId":76,"RouteVarId":151,"StationCode":"Q5 025","StationName":"Bệnh viện Chợ Rẫy","pathPoints":"106.65892792,10.75256634 106.65887451,10.75283527 106.65841675,10.75444984 106.65857697,10.75446892 106.65921783,10.75457001 106.65923309,10.75451756","Address":"357-359, đường Hồng Bàng, Quận 5","Lat":10.754553,"Lng":106.659232,"K":0},{"StationId":439,"StationOrder":7,"StationDirection":1,"RouteId":76,"RouteVarId":151,"StationCode":"Q5 026","StationName":"Đại học Y Dược","pathPoints":"106.65923309,10.75455284 106.66319275,10.75535965","Address":"217, đường Hồng Bàng, Quận 5","Lat":10.75536,"Lng":106.663191,"K":0},{"StationId":440,"StationOrder":8,"StationDirection":1,"RouteId":76,"RouteVarId":151,"StationCode":"Q5 027","StationName":"Bệnh viện Đại học Y Dược","pathPoints":"106.66319275,10.75535965 106.66468048,10.75567055","Address":"215, đường Hồng Bàng, Quận 5","Lat":10.755671,"Lng":106.664683,"K":0},{"StationId":465,"StationOrder":9,"StationDirection":1,"RouteId":76,"RouteVarId":151,"StationCode":"Q5 006","StationName":"Bệnh viện Nguyễn Tri Phương","pathPoints":"106.66470337,10.75564003 106.66841125,10.75642014 106.67047882,10.75685978","Address":"119-121, đường An Dương Vương, Quận 5","Lat":10.756714,"Lng":106.670492,"K":0},{"StationId":469,"StationOrder":10,"StationDirection":1,"RouteId":76,"RouteVarId":151,"StationCode":"Q5 007","StationName":"Chợ An Đông","pathPoints":"106.67047882,10.75685978 106.67209625,10.75716972","Address":"59C, đường An Dương Vương, Quận 5","Lat":10.757057,"Lng":106.672182,"K":0},{"StationId":466,"StationOrder":11,"StationDirection":1,"RouteId":76,"RouteVarId":151,"StationCode":"Q5 008","StationName":"Huỳnh Mẫn Đạt","pathPoints":"106.67218018,10.75705719 106.67407227,10.75745678 106.67657471,10.75837421","Address":"439, đường An Dương Vương, Quận 5","Lat":10.758374,"Lng":106.676576,"K":0},{"StationId":472,"StationOrder":12,"StationDirection":1,"RouteId":76,"RouteVarId":151,"StationCode":"Q5 009","StationName":"Chợ Bầu Sen","pathPoints":"106.67657471,10.75837421 106.67845154,10.75913811","Address":"367-373, đường An Dương Vương, Quận 5","Lat":10.759138,"Lng":106.678453,"K":0},{"StationId":467,"StationOrder":13,"StationDirection":1,"RouteId":76,"RouteVarId":151,"StationCode":"Q5 010","StationName":"Đại học Sài Gòn","pathPoints":"106.67845154,10.75913811 106.68228912,10.76073456","Address":"273-275, đường An Dương Vương, Quận 5","Lat":10.760672,"Lng":106.682321,"K":0},{"StationId":1051,"StationOrder":14,"StationDirection":1,"RouteId":76,"RouteVarId":151,"StationCode":"Q5 075","StationName":"Bộ Công an","pathPoints":"106.68226624,10.76074982 106.68334961,10.76117039 106.68351746,10.76070023","Address":"211-213, đường Nguyễn Văn Cừ, Quận 5","Lat":10.760672,"Lng":106.683453,"K":0},{"StationId":1052,"StationOrder":15,"StationDirection":1,"RouteId":76,"RouteVarId":151,"StationCode":"Q1 150","StationName":"Báo An Ninh Thế Giới","pathPoints":"106.68351746,10.76070023 106.68399048,10.75940037 106.68469238,10.75969982 106.68492889,10.75984001 106.68501282,10.75990963 106.68509674,10.75984955","Address":"371A, đường Nguyễn Trãi, Quận 1","Lat":10.759869,"Lng":106.685104,"K":0},{"StationId":1053,"StationOrder":16,"StationDirection":1,"RouteId":76,"RouteVarId":151,"StationCode":"Q1 151","StationName":"Nhà Khách Bộ Công An","pathPoints":"106.68509674,10.75984955 106.68501282,10.75990963 106.68515015,10.76006031 106.68537903,10.76039982 106.68586731,10.76130009 106.68628693,10.76206017","Address":"333, đường Nguyễn Trãi, Quận 1","Lat":10.762006,"Lng":106.686394,"K":0},{"StationId":2974,"StationOrder":17,"StationDirection":1,"RouteId":76,"RouteVarId":151,"StationCode":"Q1 156","StationName":"Trần Đình Xu","pathPoints":"106.68628693,10.76206017 106.68652344,10.76249027 106.68679810,10.76259041 106.68753052,10.76288986 106.68817902,10.76313972","Address":"173 - 173B, đường Nguyễn Cư Trinh, Quận 1","Lat":10.76303,"Lng":106.688217,"K":0},{"StationId":2971,"StationOrder":18,"StationDirection":1,"RouteId":76,"RouteVarId":151,"StationCode":"Q1 157","StationName":"Trần Hưng Đạo","pathPoints":"106.68817902,10.76311970 106.68875885,10.76334953 106.69023132,10.76395988 106.69072723,10.76422024 106.69106293,10.76430988 106.69174194,10.76455975","Address":"37, đường Nguyễn Cư Trinh, Quận 1","Lat":10.764468,"Lng":106.69178,"K":0},{"StationId":25,"StationOrder":19,"StationDirection":1,"RouteId":76,"RouteVarId":151,"StationCode":"Q1 136","StationName":"Rạp Trần Hưng Đạo","pathPoints":"106.69174194,10.76455975 106.69265747,10.76488972 106.69300079,10.76527023","Address":"227 - 229, đường Trần Hưng Đạo, Quận 1","Lat":10.765213,"Lng":106.693069,"K":0},{"StationId":26,"StationOrder":20,"StationDirection":1,"RouteId":76,"RouteVarId":151,"StationCode":"Q1 137","StationName":"KTX Trần Hưng Đạo","pathPoints":"106.69300079,10.76527023 106.69467163,10.76718998","Address":"135, đường Trần Hưng Đạo, Quận 1","Lat":10.767064,"Lng":106.694824,"K":0},{"StationId":27,"StationOrder":21,"StationDirection":1,"RouteId":76,"RouteVarId":151,"StationCode":"Q1 138","StationName":"Nguyễn Kim","pathPoints":"106.69467163,10.76718998 106.69525909,10.76788044 106.69538879,10.76801014 106.69573975,10.76842022","Address":"71C, đường Trần Hưng Đạo, Quận 1","Lat":10.768327,"Lng":106.695847,"K":0},{"StationId":7264,"StationOrder":22,"StationDirection":1,"RouteId":76,"RouteVarId":151,"StationCode":"Q1 178","StationName":"Hàm Nghi B","pathPoints":"106.69584656,10.76832676 106.69584656,10.76832676 106.69750977,10.77035809 106.69908905,10.77095318 106.69992065,10.77092743 106.69992065,10.77092743","Address":"151, đường Hàm Nghi, Quận 1","Lat":10.770927,"Lng":106.699921,"K":0},{"StationId":7268,"StationOrder":23,"StationDirection":1,"RouteId":76,"RouteVarId":151,"StationCode":"Q1 182","StationName":"Hàm Nghi G","pathPoints":"106.69992065,10.77092743 106.70325470,10.77075291","Address":"79A, đường Hàm Nghi, Quận 1","Lat":10.770753,"Lng":106.703258,"K":0},{"StationId":31,"StationOrder":24,"StationDirection":1,"RouteId":76,"RouteVarId":151,"StationCode":"Q1 024","StationName":"Bến Bạch Đằng","pathPoints":"106.70325470,10.77075291 106.70452881,10.77063179 106.70507813,10.76950455 106.70565796,10.76949406 106.70616150,10.76980972 106.70664978,10.77387810","Address":"Bến thủy nội địa Thủ Thiêm, đường Tôn Đức Thắng, Quận 1","Lat":10.773878,"Lng":106.706648,"K":0},{"StationId":1092,"StationOrder":25,"StationDirection":1,"RouteId":76,"RouteVarId":151,"StationCode":"Q1 025","StationName":"Bảo tàng Tôn Đức Thắng","pathPoints":"106.70652008,10.77388954 106.70658112,10.77460003 106.70667267,10.77488041 106.70671844,10.77563953 106.70674896,10.77591038 106.70671844,10.77598000 106.70687866,10.77655983 106.70702362,10.77717018","Address":"Đối diện số 5, đường Tôn Đức Thắng, Quận 1","Lat":10.777367,"Lng":106.707115,"K":0},{"StationId":1093,"StationOrder":26,"StationDirection":1,"RouteId":76,"RouteVarId":151,"StationCode":"Q1 026","StationName":"Ngô Văn Năm","pathPoints":"106.70711517,10.77736664 106.70726013,10.77820969 106.70755005,10.77939034 106.70771790,10.77991962 106.70781708,10.77994919","Address":"Đối diện số 3C, đường Tôn Đức Thắng, Quận 1","Lat":10.779949,"Lng":106.707818,"K":0},{"StationId":1094,"StationOrder":27,"StationDirection":1,"RouteId":76,"RouteVarId":151,"StationCode":"Q1 027","StationName":"Ba Son","pathPoints":"106.70781708,10.77994919 106.70781708,10.77994919 106.70787811,10.78044987 106.70793152,10.78075027 106.70787811,10.78088760 106.70692444,10.78180408 106.70692444,10.78180408","Address":"2, đường Tôn Đức Thắng, Quận 1","Lat":10.781804,"Lng":106.706922,"K":0},{"StationId":2572,"StationOrder":28,"StationDirection":1,"RouteId":76,"RouteVarId":151,"StationCode":"Q1 032","StationName":"Nguyễn Hữu Cảnh","pathPoints":"106.70681000,10.78180981 106.70622253,10.78238010 106.70646667,10.78262043 106.70690155,10.78310966","Address":"Cây xanh số 17, đường Nguyễn Hữu Cảnh, Quận 1","Lat":10.78328,"Lng":106.707222,"K":0},{"StationId":2573,"StationOrder":29,"StationDirection":1,"RouteId":76,"RouteVarId":151,"StationCode":"Q1 033","StationName":"Mầm non Hoa Lư","pathPoints":"106.70722198,10.78328037 106.70722198,10.78328037 106.70710754,10.78335381 106.70813751,10.78453350 106.70856476,10.78509235 106.70862579,10.78507710 106.70862579,10.78507710","Address":"2A, đường Nguyễn Hữu Cảnh, Quận 1","Lat":10.785077,"Lng":106.708628,"K":0},{"StationId":2579,"StationOrder":30,"StationDirection":1,"RouteId":76,"RouteVarId":151,"StationCode":"QBTH 077","StationName":"Hồ Bơi Hải Quân","pathPoints":"106.70862579,10.78507710 106.70862579,10.78507710 106.70862579,10.78507710 106.70968628,10.78760052 106.71009064,10.78857040 106.71037292,10.78889179 106.71070099,10.78915024 106.71077728,10.78911304 106.71077728,10.78911304 106.71077728,10.78911304","Address":"18, đường Nguyễn Hữu Cảnh, Quận Bình Thạnh","Lat":10.789113,"Lng":106.710779,"K":0},{"StationId":2574,"StationOrder":31,"StationDirection":1,"RouteId":76,"RouteVarId":151,"StationCode":"QBTH 078","StationName":"Chung cư Manor","pathPoints":"106.71077728,10.78911304 106.71077728,10.78911304 106.71105957,10.78929806 106.71138763,10.78941345 106.71213531,10.78945541 106.71350861,10.78927612 106.71485901,10.78899193 106.71575928,10.78896046 106.71666718,10.78927612 106.71765137,10.78997231 106.71805573,10.79039383 106.71828461,10.79099464 106.71841431,10.79213238 106.71844482,10.79326630 106.71844482,10.79326630","Address":"176E, đường Nguyễn Hữu Cảnh, Quận Bình Thạnh","Lat":10.793266,"Lng":106.718445,"K":0},{"StationId":2581,"StationOrder":32,"StationDirection":1,"RouteId":76,"RouteVarId":151,"StationCode":"QBTH 079","StationName":"Tân Cảng","pathPoints":"106.71844482,10.79326630 106.71844482,10.79326630 106.71843719,10.79446220 106.71843719,10.79496765 106.71852112,10.79536819 106.71875763,10.79576874 106.71913910,10.79607391 106.71952820,10.79635906 106.71990967,10.79660130 106.71990967,10.79660130","Address":"220, đường Nguyễn Hữu Cảnh, Quận Bình Thạnh","Lat":10.796601,"Lng":106.719909,"K":0},{"StationId":477,"StationOrder":33,"StationDirection":1,"RouteId":76,"RouteVarId":151,"StationCode":"Q2 071","StationName":"Cầu Đen","pathPoints":"106.71990967,10.79660130 106.71990967,10.79660130 106.71990967,10.79660130 106.71997070,10.79674339 106.72033691,10.79702282 106.72040558,10.79719162 106.72127533,10.79780293 106.72184753,10.79779720 106.72316742,10.79796600 106.72451782,10.79823494 106.73210144,10.79963112 106.73231506,10.79963112 106.73370361,10.80000496 106.73410034,10.80003643 106.73419952,10.79997826 106.73419952,10.79997826 106.73419952,10.79997826","Address":"794, đường Xa Lộ Hà Nội, Quận 2","Lat":10.799978,"Lng":106.7342,"K":0},{"StationId":478,"StationOrder":34,"StationDirection":1,"RouteId":76,"RouteVarId":151,"StationCode":"Q2 072","StationName":"Thảo Điền","pathPoints":"106.73419952,10.79997826 106.73419952,10.79997826 106.73423004,10.80007935 106.73883820,10.80092716 106.73889923,10.80083847 106.73889923,10.80083847","Address":"Đối diện ngã 3 Thảo Điền, đường Xa Lộ Hà Nội, Quận 2","Lat":10.800838,"Lng":106.738899,"K":0},{"StationId":480,"StationOrder":35,"StationDirection":1,"RouteId":76,"RouteVarId":151,"StationCode":"Q2 073","StationName":"Metro Quận 2","pathPoints":"106.73889923,10.80083847 106.74292755,10.80158424","Address":"170, đường Xa Lộ Hà Nội, Quận 2","Lat":10.801584,"Lng":106.742928,"K":0},{"StationId":479,"StationOrder":36,"StationDirection":1,"RouteId":76,"RouteVarId":151,"StationCode":"Q2 074","StationName":"Cát Lái","pathPoints":"106.74292755,10.80158424 106.74458313,10.80196571 106.74551392,10.80193424 106.74595642,10.80195522 106.74633026,10.80201817 106.74714661,10.80220795 106.74761963,10.80247116 106.74809265,10.80259228","Address":"Khu dân cư Estella, đường Xa Lộ Hà Nội, Quận 2","Lat":10.802592,"Lng":106.748089,"K":0},{"StationId":482,"StationOrder":37,"StationDirection":1,"RouteId":76,"RouteVarId":151,"StationCode":"Q9 210","StationName":"Xi măng hà tiên - trạm thu phí","pathPoints":"106.74809265,10.80259228 106.75114441,10.80375671 106.75232697,10.80453682 106.75341797,10.80537987 106.75453949,10.80656052 106.75546265,10.80784607 106.75601959,10.80887890 106.75642395,10.80995369 106.75839233,10.81920624","Address":"249B, đường Xa Lộ Hà Nội, Quận 9","Lat":10.819206,"Lng":106.758394,"K":0},{"StationId":481,"StationOrder":38,"StationDirection":1,"RouteId":76,"RouteVarId":151,"StationCode":"Q9 211","StationName":"Ngã 4 Tây Hòa (RMK)","pathPoints":"106.75839233,10.81920624 106.75850677,10.82070255 106.75889587,10.82234669 106.75972748,10.82437038 106.76077271,10.82597160","Address":"185A, đường Xa Lộ Hà Nội, Quận 9","Lat":10.825972,"Lng":106.760775,"K":0},{"StationId":485,"StationOrder":39,"StationDirection":1,"RouteId":76,"RouteVarId":151,"StationCode":"Q9 212","StationName":"Trạm xây dựng","pathPoints":"106.76077271,10.82597160 106.76312256,10.82995510","Address":"354A, đường Xa Lộ Hà Nội, Quận 9","Lat":10.829955,"Lng":106.76312,"K":0},{"StationId":483,"StationOrder":40,"StationDirection":1,"RouteId":76,"RouteVarId":151,"StationCode":"Q9 213","StationName":"Khu QLGTDT số 2","pathPoints":"106.76312256,10.82995510 106.76477814,10.83324909","Address":"Khu QLGTĐT số 2, đường Xa Lộ Hà Nội, Quận 9","Lat":10.833249,"Lng":106.764778,"K":0},{"StationId":486,"StationOrder":41,"StationDirection":1,"RouteId":76,"RouteVarId":151,"StationCode":"QTD 055","StationName":"Công ty Sanofi Aventis","pathPoints":"106.76477814,10.83324909 106.76914978,10.84081173 106.77155304,10.84512901 106.77419281,10.84900665 106.77335358,10.84951210 106.77213287,10.84963894 106.76635742,10.83944893 106.76601410,10.84029198 106.76576996,10.84064007 106.76417542,10.84165192","Address":"Kế 50, đường Đặng Văn Bi, Quận Thủ Đức","Lat":10.841652,"Lng":106.764175,"K":0},{"StationId":489,"StationOrder":42,"StationDirection":1,"RouteId":76,"RouteVarId":151,"StationCode":"QTD 056","StationName":"Công ty may Sài Gòn","pathPoints":"106.76417542,10.84165192 106.76382446,10.84188366 106.76351929,10.84215736 106.76312256,10.84275818 106.76246643,10.84389687","Address":"Đối diện 139, đường Đặng Văn Bi, Quận Thủ Đức","Lat":10.843897,"Lng":106.762466,"K":0},{"StationId":491,"StationOrder":43,"StationDirection":1,"RouteId":76,"RouteVarId":151,"StationCode":"QTD 057","StationName":"Trường mầm non Vành Khuyên","pathPoints":"106.76246643,10.84389687 106.76206970,10.84443378 106.76169586,10.84499168 106.76157379,10.84523392 106.76153564,10.84557152 106.76141357,10.84591961 106.76123047,10.84638309 106.76091003,10.84685707 106.76005554,10.84788799","Address":"Trường mầm non Họa Mi, đường Đặng Văn Bi, Quận Thủ Đức","Lat":10.847888,"Lng":106.760056,"K":0},{"StationId":488,"StationOrder":44,"StationDirection":1,"RouteId":76,"RouteVarId":151,"StationCode":"QTD 058","StationName":"Làng trẻ em SOS","pathPoints":"106.76005554,10.84788799 106.75920105,10.84873295 106.75887299,10.84923840 106.75877380,10.84962845 106.75878143,10.85001469","Address":"238-240, đường Đặng Văn Bi, Quận Thủ Đức","Lat":10.850015,"Lng":106.758781,"K":0},{"StationId":493,"StationOrder":45,"StationDirection":1,"RouteId":76,"RouteVarId":151,"StationCode":"QTD 070","StationName":"Ngã ba Chương Dương","pathPoints":"106.75878143,10.85001469 106.75865173,10.85063457 106.75999451,10.85050297","Address":"120, đường Võ Văn Ngân, Quận Thủ Đức","Lat":10.850419,"Lng":106.760931,"K":0},{"StationId":490,"StationOrder":46,"StationDirection":1,"RouteId":76,"RouteVarId":151,"StationCode":"QTD 071","StationName":"Cao đẳng xây dựng 2","pathPoints":"106.76093292,10.85041904 106.76194763,10.85044479 106.76213074,10.85049248 106.76226807,10.85057163 106.76251221,10.85069275 106.76271820,10.85082436 106.76293182,10.85084534 106.76444244,10.85064983 106.76444244,10.85064983","Address":"190, đường Võ Văn Ngân, Quận Thủ Đức","Lat":10.85065,"Lng":106.764439,"K":0},{"StationId":492,"StationOrder":47,"StationDirection":1,"RouteId":76,"RouteVarId":151,"StationCode":"QTD 072","StationName":"Siêu thị Nguyễn Kim","pathPoints":"106.76444244,10.85064983 106.76705170,10.85042381 106.76720428,10.85037136 106.76731873,10.85028648 106.76765442,10.84988117 106.76774597,10.84980774 106.76821899,10.84971809 106.76911163,10.84968567","Address":"274-276, đường Võ Văn Ngân, Quận Thủ Đức","Lat":10.849686,"Lng":106.769112,"K":0},{"StationId":497,"StationOrder":48,"StationDirection":1,"RouteId":76,"RouteVarId":151,"StationCode":"QTD 073","StationName":"Trường ĐHSP Kỹ Thuật","pathPoints":"106.76911163,10.84968567 106.76909637,10.84974003 106.77034760,10.84969711 106.77155304,10.84966564 106.77178955,10.84963322 106.77191925,10.84959698","Address":"368, đường Võ Văn Ngân, Quận Thủ Đức","Lat":10.849597,"Lng":106.771917,"K":0},{"StationId":1502,"StationOrder":49,"StationDirection":1,"RouteId":76,"RouteVarId":151,"StationCode":"Q9 089","StationName":"Siêu thị Coopmark","pathPoints":"106.77191925,10.84959698 106.77297974,10.84951782 106.77327728,10.84950161 106.77342987,10.84943867 106.77423096,10.84878540 106.77503204,10.84819221","Address":"4-6, đường Lê Văn Việt, Quận 9","Lat":10.848192,"Lng":106.775032,"K":0},{"StationId":1504,"StationOrder":50,"StationDirection":1,"RouteId":76,"RouteVarId":151,"StationCode":"Q9 090","StationName":"Bệnh viện 7C-Trường Quân y 2","pathPoints":"106.77503204,10.84819221 106.77578735,10.84763718 106.77704620,10.84693050 106.77812195,10.84626198","Address":"50, đường Lê Văn Việt, Quận 9","Lat":10.846262,"Lng":106.778124,"K":0},{"StationId":1495,"StationOrder":51,"StationDirection":1,"RouteId":76,"RouteVarId":151,"StationCode":"Q9 091","StationName":"Nhà sách Thành Nghĩa","pathPoints":"106.77812195,10.84626198 106.77872467,10.84596634 106.77935028,10.84560299 106.78007507,10.84519768 106.78056335,10.84486008","Address":"142-144, đường Lê Văn Việt, Quận 9","Lat":10.84486,"Lng":106.780563,"K":0},{"StationId":1497,"StationOrder":52,"StationDirection":1,"RouteId":76,"RouteVarId":151,"StationCode":"Q9 092","StationName":"Trạm y tế Phường Hiệp Phú","pathPoints":"106.78056335,10.84486008 106.78083801,10.84472847 106.78125000,10.84444427 106.78202820,10.84411430","Address":"188, đường Lê Văn Việt, Quận 9","Lat":10.844114,"Lng":106.782028,"K":0},{"StationId":1499,"StationOrder":53,"StationDirection":1,"RouteId":76,"RouteVarId":151,"StationCode":"Q9 093","StationName":"Chợ Hiệp Phú","pathPoints":"106.78202820,10.84411430 106.78250122,10.84399605 106.78273773,10.84397507 106.78426361,10.84412766","Address":"278, đường Lê Văn Việt, Quận 9","Lat":10.844128,"Lng":106.784261,"K":0},{"StationId":1506,"StationOrder":54,"StationDirection":1,"RouteId":76,"RouteVarId":151,"StationCode":"Q9 094","StationName":"Chợ Tăng Nhơn Phú","pathPoints":"106.78426361,10.84412766 106.78539276,10.84439659 106.78614044,10.84486008 106.78636932,10.84500217 106.78668213,10.84509754 106.78742218,10.84511852 106.78823853,10.84476566 106.78865814,10.84458065 106.78894043,10.84443855","Address":"424A-424B, đường Lê Văn Việt, Quận 9","Lat":10.844439,"Lng":106.788939,"K":0},{"StationId":1501,"StationOrder":55,"StationDirection":1,"RouteId":76,"RouteVarId":151,"StationCode":"Q9 095","StationName":"Bệnh viện Quận 9","pathPoints":"106.78894043,10.84443855 106.78928375,10.84434891 106.78955078,10.84431744 106.79040527,10.84450722 106.79097748,10.84459972","Address":"Đối diện Bệnh viện Quận 9, đường Lê Văn Việt, Quận 9","Lat":10.8446,"Lng":106.790977,"K":0},{"StationId":1508,"StationOrder":56,"StationDirection":1,"RouteId":76,"RouteVarId":151,"StationCode":"Q9 096","StationName":"Đại Học GTVT","pathPoints":"106.79097748,10.84459972 106.79285431,10.84507656 106.79392242,10.84527588","Address":"Đối diện 451, đường Lê Văn Việt, Quận 9","Lat":10.845276,"Lng":106.793922,"K":0},{"StationId":3186,"StationOrder":57,"StationDirection":1,"RouteId":76,"RouteVarId":151,"StationCode":"BX31","StationName":"KTX Đại học Sư phạm kỹ thuật","pathPoints":"106.79392242,10.84527588 106.79738617,10.84616661 106.79758453,10.84590912","Address":"KTX Đại học Sư phạm kỹ thuật, đường Lê Văn Việt, Quận 9","Lat":10.845909,"Lng":106.797581,"K":0}]