[{"StationId":7137,"StationOrder":0,"StationDirection":0,"RouteId":78,"RouteVarId":2,"StationCode":"BX70","StationName":"Khu công nghiệp Đông Nam","pathPoints":"","Address":"KHu công nghiệp Đông Nam, đường Tỉnh lộ 8, Huyện Củ Chi","Lat":10.969969,"Lng":106.621456,"K":0},{"StationId":1290,"StationOrder":1,"StationDirection":0,"RouteId":78,"RouteVarId":2,"StationCode":"HCC 243","StationName":"Cầu Bà Bếp","pathPoints":"106.62145233,10.96996880 106.62145233,10.96996880 106.62328339,10.97563553 106.62610626,10.97432899 106.62685394,10.97412872 106.62776947,10.97399998 106.62776947,10.97399998","Address":"1882A, đường Tỉnh lộ 8, Huyện Củ Chi","Lat":10.973955,"Lng":106.627888,"K":0},{"StationId":1293,"StationOrder":2,"StationDirection":0,"RouteId":78,"RouteVarId":2,"StationCode":"HCC 244","StationName":"Công ty Gum Gard","pathPoints":"106.62776947,10.97399998 106.63222504,10.97321320 106.63386536,10.97309971","Address":"1926C, đường Tỉnh lộ 8, Củ Chi, Huyện Củ Chi","Lat":10.973097,"Lng":106.633853,"K":0},{"StationId":1292,"StationOrder":3,"StationDirection":0,"RouteId":78,"RouteVarId":2,"StationCode":"HCC 245","StationName":"Ngã 3 Bình Mỹ","pathPoints":"106.63386536,10.97309971 106.63863373,10.97323322","Address":"1960, đường Tỉnh lộ 8, Huyện Củ Chi","Lat":10.973266,"Lng":106.638971,"K":0},{"StationId":3233,"StationOrder":4,"StationDirection":0,"RouteId":78,"RouteVarId":2,"StationCode":"QCCT262","StationName":"Áo cưới Sunny","pathPoints":"106.63863373,10.97323322 106.63945770,10.97328663 106.63906097,10.97069550 106.63876343,10.97048473","Address":"Áo cưới Sunny, đường Tỉnh lộ 9, Huyện Củ Chi","Lat":10.970485,"Lng":106.638763,"K":0},{"StationId":3235,"StationOrder":5,"StationDirection":0,"RouteId":78,"RouteVarId":2,"StationCode":"QCCT263","StationName":"Bến đò Bình Mỹ","pathPoints":"106.63906097,10.97047043 106.63905334,10.97017956 106.63906860,10.96990013 106.63955688,10.96805954 106.63986969,10.96689987","Address":"Đối diện công ty Thành Lực, đường Tỉnh lộ 9, Huyện Củ Chi","Lat":10.966841,"Lng":106.639603,"K":0},{"StationId":3234,"StationOrder":6,"StationDirection":0,"RouteId":78,"RouteVarId":2,"StationCode":"QCCT264","StationName":"Ngã 3 Bình Mỹ","pathPoints":"106.63986969,10.96689987 106.64005280,10.96617031 106.64070129,10.96442986 106.64109039,10.96350002 106.64144135,10.96265984","Address":"Đối diện cửa hàng Sáu Kim, đường Tỉnh lộ 9, Huyện Củ Chi","Lat":10.962585,"Lng":106.641243,"K":0},{"StationId":3237,"StationOrder":7,"StationDirection":0,"RouteId":78,"RouteVarId":2,"StationCode":"QCCT265","StationName":"Trường tiểu học Bình Hòa","pathPoints":"106.64144135,10.96265984 106.64205170,10.96117973 106.64263916,10.95954037 106.64298248,10.95847988 106.64325714,10.95763969","Address":"Cafe Cây Mận, đường Tỉnh lộ 9, Huyện Củ Chi","Lat":10.957571,"Lng":106.643051,"K":0},{"StationId":3236,"StationOrder":8,"StationDirection":0,"RouteId":78,"RouteVarId":2,"StationCode":"QCCT266","StationName":"Khách sạn Minh Tú","pathPoints":"106.64325714,10.95763969 106.64398956,10.95538998 106.64440918,10.95394993 106.64498901,10.95197010","Address":"337, đường Tỉnh lộ 9, Huyện Củ Chi","Lat":10.951778,"Lng":106.644302,"K":0},{"StationId":3239,"StationOrder":9,"StationDirection":0,"RouteId":78,"RouteVarId":2,"StationCode":"QCCT267","StationName":"Trường trung học cơ sở Bình Hòa","pathPoints":"106.64430237,10.95177841 106.64498901,10.95197010 106.64560699,10.94937611 106.64588928,10.94856548 106.64656830,10.94738007 106.64575958,10.94710159","Address":"Đối diện 292, đường Tỉnh lộ 9, Huyện Củ Chi","Lat":10.965455,"Lng":106.640264,"K":0},{"StationId":3238,"StationOrder":10,"StationDirection":0,"RouteId":78,"RouteVarId":2,"StationCode":"QCCT268","StationName":"Trường tiểu học Bình Mỹ 2","pathPoints":"106.64656830,10.94738007 106.64685822,10.94657040 106.64697266,10.94624043 106.64698029,10.94581032 106.64694214,10.94556999 106.64659882,10.94447994 106.64589691,10.94136047","Address":"đối diện 270A, đường Tỉnh lộ 9, Huyện Củ Chi","Lat":10.951557,"Lng":106.644963,"K":0},{"StationId":3241,"StationOrder":11,"StationDirection":0,"RouteId":78,"RouteVarId":2,"StationCode":"QCCT269","StationName":"Cây xăng Phương Thủy","pathPoints":"106.64589691,10.94136047 106.64579010,10.94062996 106.64559937,10.93945980 106.64550018,10.93871021 106.64543915,10.93776989 106.64546204,10.93723965 106.64547729,10.93692017 106.64559937,10.93636036","Address":"209, đường Tỉnh lộ 9, Huyện Củ Chi","Lat":10.943794,"Lng":106.646475,"K":0},{"StationId":3243,"StationOrder":12,"StationDirection":0,"RouteId":78,"RouteVarId":2,"StationCode":"QCCT270","StationName":"Cầu Chú Cua","pathPoints":"106.64559937,10.93636036 106.64649200,10.93159962","Address":"Đối diện 120, đường Tỉnh lộ 9, Huyện Củ Chi","Lat":10.935372,"Lng":106.645746,"K":0},{"StationId":3240,"StationOrder":13,"StationDirection":0,"RouteId":78,"RouteVarId":2,"StationCode":"QCCT271","StationName":"Ủy Ban nhân dân Xã Bình Mỹ","pathPoints":"106.64649200,10.93159962 106.64727783,10.92726994 106.64743042,10.92679024 106.64739990,10.92677975 106.64698029,10.92661953","Address":"đối diện 60, đường Tỉnh lộ 9, Huyện Củ Chi","Lat":10.929046,"Lng":106.646894,"K":0},{"StationId":3242,"StationOrder":14,"StationDirection":0,"RouteId":78,"RouteVarId":2,"StationCode":"QCCT272","StationName":"Cầu Rạch Tra","pathPoints":"106.64698029,10.92661953 106.64743042,10.92679024 106.64785767,10.92556953 106.64791107,10.92545986 106.64810181,10.92430019 106.64830780,10.92302036 106.64845276,10.92201996 106.64858246,10.92140007","Address":"đối diện 18, đường Tỉnh lộ 9, Huyện Củ Chi","Lat":10.924557,"Lng":106.64797,"K":0},{"StationId":3245,"StationOrder":15,"StationDirection":0,"RouteId":78,"RouteVarId":2,"StationCode":"HHM 234","StationName":"Ngã tư Đông Thạnh - Ngã 3 đồn","pathPoints":"106.64858246,10.92140007 106.64958191,10.91662979","Address":"139-140, đường Đặng Thúc Vịnh, Huyện Hóc Môn","Lat":10.909383,"Lng":106.644838,"K":0},{"StationId":3247,"StationOrder":16,"StationDirection":0,"RouteId":78,"RouteVarId":2,"StationCode":"QHMT019","StationName":"Trịnh Thị Dối","pathPoints":"106.64945221,10.91660595 106.64945221,10.91660595 106.64948273,10.91548824 106.64420319,10.90895653 106.64557648,10.90904045 106.64986420,10.90844631 106.64986420,10.90844631","Address":"89, đường Bùi Công Trừng, Huyện Hóc Môn","Lat":10.908446,"Lng":106.649861,"K":0},{"StationId":3246,"StationOrder":17,"StationDirection":0,"RouteId":78,"RouteVarId":2,"StationCode":"HHM 217","StationName":"Ngã ba đồn","pathPoints":"106.64986420,10.90844631 106.65106201,10.90830040 106.65339661,10.90772915","Address":"45, đường Bùi Công Trừng, Huyện Hóc Môn","Lat":10.907787,"Lng":106.653374,"K":0},{"StationId":3249,"StationOrder":18,"StationDirection":0,"RouteId":78,"RouteVarId":2,"StationCode":"HHM 218","StationName":"Công ty Quang Nguyệt","pathPoints":"106.65392303,10.90773964 106.65518188,10.90748978 106.65621185,10.90725994 106.65711212,10.90711975 106.65759277,10.90715027 106.65843964,10.90725040 106.65886688,10.90732002 106.65965271,10.90756989 106.66101837,10.90793991 106.66120911,10.90799999","Address":"381, đường Bùi Công Trừng, Huyện Hóc Môn","Lat":10.907598,"Lng":106.659876,"K":0},{"StationId":3248,"StationOrder":19,"StationDirection":0,"RouteId":78,"RouteVarId":2,"StationCode":"HHM 224","StationName":"Phà An Sơn","pathPoints":"106.66120911,10.90799999 106.66204071,10.90824032 106.66306305,10.90849018 106.66442871,10.90880966 106.66477966,10.90892982 106.66535187,10.90904045 106.66587830,10.90909958 106.66663361,10.90927029","Address":"đd 56/9A, đường Bùi Công Trừng, Huyện Hóc Môn","Lat":10.908641,"Lng":106.663679,"K":0},{"StationId":3251,"StationOrder":20,"StationDirection":0,"RouteId":78,"RouteVarId":2,"StationCode":"HHM 220","StationName":"Nhị Bình 6","pathPoints":"106.66663361,10.90927029 106.66886139,10.90979958 106.67088318,10.91030979 106.67269135,10.91079044","Address":"311, đường Bùi Công Trừng, Huyện Hóc Môn","Lat":10.909836,"Lng":106.669033,"K":0},{"StationId":3250,"StationOrder":21,"StationDirection":0,"RouteId":78,"RouteVarId":2,"StationCode":"HHM 221","StationName":"Trường Võ Văn Thặng","pathPoints":"106.67275238,10.91051674 106.67424011,10.91103172 106.67581177,10.91146374 106.67756653,10.91195869 106.67861176,10.91214466","Address":"đd 180, đường Bùi Công Trừng, Huyện Hóc Môn","Lat":10.910769,"Lng":106.673105,"K":0},{"StationId":3253,"StationOrder":22,"StationDirection":0,"RouteId":78,"RouteVarId":2,"StationCode":"HHM 222","StationName":"Xã Nhị Bình","pathPoints":"106.67861176,10.91214466 106.67878723,10.91236496 106.68079376,10.91301250 106.68179321,10.91349697 106.68269348,10.91278648 106.68275452,10.91248703","Address":"141, đường Bùi Công Trừng, Huyện Hóc Môn","Lat":10.911675,"Lng":106.676581,"K":0},{"StationId":3252,"StationOrder":23,"StationDirection":0,"RouteId":78,"RouteVarId":2,"StationCode":"HHM 223","StationName":"Công ty Hải Hưng Thịnh","pathPoints":"106.68289948,10.91269016 106.68321228,10.91244984 106.68331909,10.91232967 106.68344879,10.91211033 106.68361664,10.91172028 106.68409729,10.91049004 106.68448639,10.90931034 106.68451691,10.90923023","Address":"đd 136, đường Bùi Công Trừng, Huyện Hóc Môn","Lat":10.913097,"Lng":106.681007,"K":0},{"StationId":3256,"StationOrder":24,"StationDirection":0,"RouteId":78,"RouteVarId":2,"StationCode":"HHM 216","StationName":"Cầu Bà Hồng","pathPoints":"106.68451691,10.90923023 106.68489838,10.90832996 106.68541718,10.90730953 106.68580627,10.90647030","Address":"89 (2/7), đường Bùi Công Trừng, Huyện Hóc Môn","Lat":10.910242,"Lng":106.684134,"K":0},{"StationId":3254,"StationOrder":25,"StationDirection":0,"RouteId":78,"RouteVarId":2,"StationCode":"HHM 225","StationName":"Đặng Công Bỉnh","pathPoints":"106.68580627,10.90647030 106.68598175,10.90604019 106.68625641,10.90526962 106.68649292,10.90470028 106.68659973,10.90433979 106.68678284,10.90382957 106.68721008,10.90275955 106.68731689,10.90254021","Address":"Đối diện 39/1F, đường Bùi Công Trừng, Huyện Hóc Môn","Lat":10.903489,"Lng":106.686859,"K":0},{"StationId":3258,"StationOrder":26,"StationDirection":0,"RouteId":78,"RouteVarId":2,"StationCode":"Q12T202","StationName":"Cầu Võng","pathPoints":"106.68731689,10.90254021 106.68785858,10.90145969 106.68834686,10.90077019 106.68845367,10.90052986 106.68855286,10.90011978","Address":"63, đường Bùi Công Trừng, Quận 12","Lat":10.899754,"Lng":106.688576,"K":0},{"StationId":3255,"StationOrder":27,"StationDirection":0,"RouteId":78,"RouteVarId":2,"StationCode":"Q12T203","StationName":"Chợ Đường","pathPoints":"106.68855286,10.90011978 106.68878174,10.89906025 106.68887329,10.89861012 106.68898773,10.89809990","Address":"64/4C, đường Bùi Công Trừng, Quận 12","Lat":10.897452,"Lng":106.689048,"K":0},{"StationId":3257,"StationOrder":28,"StationDirection":0,"RouteId":78,"RouteVarId":2,"StationCode":"Q12 046","StationName":"Cầu Phú Long","pathPoints":"106.68891907,10.89808464 106.68904877,10.89748383 106.68902588,10.89639854 106.68791962,10.89364910 106.68739319,10.89288998","Address":"793 (đối diện 487A), đường Hà Huy Giáp, Quận 12","Lat":10.892611,"Lng":106.687229,"K":0},{"StationId":3261,"StationOrder":29,"StationDirection":0,"RouteId":78,"RouteVarId":2,"StationCode":"Q12 047","StationName":"Cây Xăng Thanh Bình","pathPoints":"106.68739319,10.89288998 106.68696594,10.89225864 106.68653107,10.89159012 106.68641663,10.89142990 106.68535614,10.88995075","Address":"22/3, đường Hà Huy Giáp, Quận 12","Lat":10.886327,"Lng":106.682879,"K":0},{"StationId":3260,"StationOrder":30,"StationDirection":0,"RouteId":78,"RouteVarId":2,"StationCode":"Q12 048","StationName":"Trường Nguyễn Văn Thệ","pathPoints":"106.68535614,10.88995075 106.68492889,10.88838100 106.68384552,10.88709545 106.68312836,10.88651562","Address":"Trường Nguyễn Văn Thệ, đường Hà Huy Giáp, Quận 12","Lat":10.88423,"Lng":106.680905,"K":0},{"StationId":3262,"StationOrder":31,"StationDirection":0,"RouteId":78,"RouteVarId":2,"StationCode":"Q12 049","StationName":"Trường Điện Lực 2","pathPoints":"106.68312836,10.88651562 106.68181610,10.88567352 106.67982483,10.88253403 106.67907715,10.88081646","Address":"65/4, đường Hà Huy Giáp, Quận 12","Lat":10.881117,"Lng":106.679226,"K":0},{"StationId":3263,"StationOrder":32,"StationDirection":0,"RouteId":78,"RouteVarId":2,"StationCode":"Q12 050","StationName":"Chợ Thạnh Xuân","pathPoints":"106.67907715,10.88081646 106.67826843,10.87898254","Address":"59/2 (Chợ Thạnh Xuân), đường Hà Huy Giáp, Quận 12","Lat":10.878983,"Lng":106.678265,"K":0},{"StationId":204,"StationOrder":33,"StationDirection":0,"RouteId":78,"RouteVarId":2,"StationCode":"Q12 051","StationName":"Ga ra Thanh Hậu","pathPoints":"106.67826843,10.87898254 106.67771912,10.87786579 106.67740631,10.87706566 106.67721558,10.87658119 106.67700195,10.87611771 106.67671967,10.87507439","Address":"79C, đường Hà Huy Giáp, Quận 12","Lat":10.875074,"Lng":106.67672,"K":0},{"StationId":205,"StationOrder":34,"StationDirection":0,"RouteId":78,"RouteVarId":2,"StationCode":"Q12 052","StationName":"Vườn kiểng Quang Dũng","pathPoints":"106.67671967,10.87507439 106.67678833,10.87197685","Address":"59/4, đường Hà Huy Giáp, Quận 12","Lat":10.871977,"Lng":106.676785,"K":0},{"StationId":206,"StationOrder":35,"StationDirection":0,"RouteId":78,"RouteVarId":2,"StationCode":"Q12 053","StationName":"Cây xăng Tài Lộc","pathPoints":"106.67678833,10.87197685 106.67688751,10.87097073 106.67694855,10.87048054 106.67709351,10.86999035 106.67727661,10.86947441 106.67754364,10.86895752 106.67823029,10.86801529","Address":"331, đường Hà Huy Giáp, Quận 12","Lat":10.868015,"Lng":106.678233,"K":0},{"StationId":207,"StationOrder":36,"StationDirection":0,"RouteId":78,"RouteVarId":2,"StationCode":"Q12 054","StationName":"Đình thần Giao Khẩu","pathPoints":"106.67823029,10.86801529 106.67956543,10.86674023 106.68004608,10.86581326 106.68034363,10.86488628","Address":"297, đường Hà Huy Giáp, Quận 12","Lat":10.864886,"Lng":106.680341,"K":0},{"StationId":2354,"StationOrder":37,"StationDirection":0,"RouteId":78,"RouteVarId":2,"StationCode":"Q12 070","StationName":"Bến xe Ngã tư Ga","pathPoints":"106.68034363,10.86488628 106.68006897,10.86165047 106.67852020,10.86178780","Address":"Bến xe Ngã tư ga, đường Quốc lộ 1A, Quận 12","Lat":10.861725,"Lng":106.679354,"K":0},{"StationId":946,"StationOrder":38,"StationDirection":0,"RouteId":78,"RouteVarId":2,"StationCode":"BX37","StationName":"Bến xe Ngã tư Ga","pathPoints":"106.67849731,10.86166000 106.67832947,10.86166954","Address":"Bến xe Ngã Tư Ga, đường Quốc lộ 1A, Quận 12","Lat":10.862156867980957,"Lng":106.67835998535156,"K":0},{"StationId":946,"StationOrder":0,"StationDirection":1,"RouteId":78,"RouteVarId":1,"StationCode":"BX37","StationName":"Bến xe Ngã tư Ga","pathPoints":"","Address":"Bến xe Ngã Tư Ga, đường Quốc lộ 1A, Quận 12","Lat":10.862156867980957,"Lng":106.67835998535156,"K":0},{"StationId":68,"StationOrder":1,"StationDirection":1,"RouteId":78,"RouteVarId":1,"StationCode":"Q12 034","StationName":"Đình thần Giao Khẩu","pathPoints":"106.67832947,10.86166954 106.67665863,10.86178017 106.67565918,10.86182022 106.67433929,10.86184025 106.67260742,10.86182022 106.67125702,10.86178970 106.67125702,10.86166000 106.67429352,10.86170006 106.67534637,10.86168957 106.67703247,10.86161041 106.67836761,10.86151981 106.67899323,10.86147976 106.67910004,10.86141968 106.67917633,10.86133957 106.67922974,10.86122990 106.67925262,10.86098957 106.67916107,10.85962963 106.67913818,10.85900974 106.67917633,10.85890007 106.67925262,10.85879993 106.67945862,10.85869980 106.67958832,10.85865974 106.67976379,10.85851002 106.67980957,10.85840988 106.67986298,10.85826969 106.68002319,10.85958004 106.68022919,10.86139011 106.68035889,10.86260033 106.68045044,10.86343002 106.68049622,10.86390972 106.68048859,10.86413002 106.68048859,10.86425018","Address":"332, đường Hà Huy Giáp, Quận 12","Lat":10.865217,"Lng":106.680433,"K":0},{"StationId":74,"StationOrder":2,"StationDirection":1,"RouteId":78,"RouteVarId":1,"StationCode":"Q12 035","StationName":"Cây xăng Tài Lộc","pathPoints":"106.68051147,10.86482811 106.68041992,10.86527061 106.68016815,10.86594963 106.67985535,10.86650276 106.67929840,10.86729813","Address":"408B, đường Hà Huy Giáp, Quận 12","Lat":10.86831,"Lng":106.678319,"K":0},{"StationId":69,"StationOrder":3,"StationDirection":1,"RouteId":78,"RouteVarId":1,"StationCode":"Q12 036","StationName":"Vườn kiểng Quang Dũng","pathPoints":"106.67929840,10.86729813 106.67892456,10.86763573 106.67819214,10.86848354 106.67770386,10.86904240 106.67758179,10.86941624","Address":"452, đường Hà Huy Giáp, Quận 12","Lat":10.871371,"Lng":106.676978,"K":0},{"StationId":70,"StationOrder":4,"StationDirection":1,"RouteId":78,"RouteVarId":1,"StationCode":"Q12 037","StationName":"Ga ra Thanh Hậu","pathPoints":"106.67758179,10.86941624 106.67716980,10.87024879 106.67704010,10.87084389 106.67703247,10.87313557","Address":"508 (63A), đường Hà Huy Giáp, Quận 12","Lat":10.875454,"Lng":106.677032,"K":0},{"StationId":71,"StationOrder":5,"StationDirection":1,"RouteId":78,"RouteVarId":1,"StationCode":"Q12 038","StationName":"Chợ Thạnh Xuân","pathPoints":"106.67703247,10.87313557 106.67694855,10.87395763 106.67693329,10.87510586 106.67701721,10.87565899 106.67745972,10.87665462","Address":"Nhà văn hóa P. Thạnh Lộc, đường Hà Huy Giáp, Quận 12","Lat":10.878493,"Lng":106.678201,"K":0},{"StationId":77,"StationOrder":6,"StationDirection":1,"RouteId":78,"RouteVarId":1,"StationCode":"Q12 039","StationName":"Trường điện lực 2","pathPoints":"106.67819977,10.87849331 106.67902374,10.88039494","Address":"554 (Trường điện lực 2), đường Hà Huy Giáp, Quận 12","Lat":10.880785,"Lng":106.679188,"K":0},{"StationId":3204,"StationOrder":7,"StationDirection":1,"RouteId":78,"RouteVarId":1,"StationCode":"Q12 040","StationName":"Trường Nguyễn Văn Thệ","pathPoints":"106.67902374,10.88039494 106.67994690,10.88244915 106.68112183,10.88421440","Address":"628B, đường Hà Huy Giáp, Quận 12","Lat":10.884562,"Lng":106.681296,"K":0},{"StationId":3203,"StationOrder":8,"StationDirection":1,"RouteId":78,"RouteVarId":1,"StationCode":"Q12 041","StationName":"Cây Xăng Thanh Bình","pathPoints":"106.68112183,10.88421440 106.68199158,10.88554668 106.68370819,10.88671875","Address":"704, đường Hà Huy Giáp, Quận 12","Lat":10.886253,"Lng":106.68305,"K":0},{"StationId":3206,"StationOrder":9,"StationDirection":1,"RouteId":78,"RouteVarId":1,"StationCode":"Q12 042","StationName":"Cầu Ông Dung","pathPoints":"106.68366241,10.88677025 106.68399811,10.88710022 106.68428802,10.88745022 106.68473053,10.88796043 106.68495941,10.88827038 106.68505859,10.88848972 106.68515778,10.88885021 106.68530273,10.88930988","Address":"1/111, đường Hà Huy Giáp, Quận 12","Lat":10.88876,"Lng":106.685185,"K":0},{"StationId":3259,"StationOrder":10,"StationDirection":1,"RouteId":78,"RouteVarId":1,"StationCode":"Q12 043","StationName":"Cầu Phú Long","pathPoints":"106.68536377,10.88928413 106.68579865,10.89024544 106.68633270,10.89110947 106.68743134,10.89262676 106.68762970,10.89266872","Address":"856, đường Hà Huy Giáp, Quận 12","Lat":10.892079,"Lng":106.687031,"K":0},{"StationId":3205,"StationOrder":11,"StationDirection":1,"RouteId":78,"RouteVarId":1,"StationCode":"Q12 044","StationName":"Cầu Ông Dung","pathPoints":"106.68762970,10.89266872 106.68834686,10.89401722 106.68892670,10.89549255","Address":"307/39, đường Hà Huy Giáp, Quận 12","Lat":10.888945,"Lng":106.685105,"K":0},{"StationId":3210,"StationOrder":12,"StationDirection":1,"RouteId":78,"RouteVarId":1,"StationCode":"Q12T200","StationName":"Chợ Đường","pathPoints":"106.68892670,10.89549255 106.68913269,10.89649391 106.68914032,10.89773369","Address":"18, đường Bùi Công Trừng, Quận 12","Lat":10.897721,"Lng":106.689101,"K":0},{"StationId":3209,"StationOrder":13,"StationDirection":1,"RouteId":78,"RouteVarId":1,"StationCode":"Q12T201","StationName":"Cầu Võng","pathPoints":"106.68907928,10.89772034 106.68904877,10.89789009 106.68887329,10.89861012 106.68878174,10.89906025 106.68865204,10.89968967","Address":"64, đường Bùi Công Trừng, Quận 12","Lat":10.900102,"Lng":106.688603,"K":0},{"StationId":3214,"StationOrder":14,"StationDirection":1,"RouteId":78,"RouteVarId":1,"StationCode":"HHM 205","StationName":"Trường Đặng Công Bỉnh","pathPoints":"106.68865204,10.89968967 106.68845367,10.90052986 106.68834686,10.90077019 106.68785858,10.90145969 106.68743896,10.90229034","Address":"16, đường Bùi Công Trừng, Huyện Hóc Môn","Lat":10.903694,"Lng":106.686902,"K":0},{"StationId":3212,"StationOrder":15,"StationDirection":1,"RouteId":78,"RouteVarId":1,"StationCode":"HHM 206","StationName":"Cầu Bà Hồng","pathPoints":"106.68743896,10.90229034 106.68721008,10.90275955 106.68708801,10.90307045 106.68691254,10.90353012 106.68669128,10.90408993 106.68649292,10.90470028 106.68621826,10.90538979 106.68592072,10.90620995 106.68589020,10.90629005","Address":"94, đường Bùi Công Trừng, Huyện Hóc Môn","Lat":10.910579,"Lng":106.684177,"K":0},{"StationId":3211,"StationOrder":16,"StationDirection":1,"RouteId":78,"RouteVarId":1,"StationCode":"HHM 207","StationName":"Công ty Hải Hưng Thịnh","pathPoints":"106.68589020,10.90629005 106.68541718,10.90730953 106.68489838,10.90832996 106.68470764,10.90878010","Address":"Đối diện 135, đường Bùi Công Trừng, Huyện Hóc Môn","Lat":10.913307,"Lng":106.681184,"K":0},{"StationId":3213,"StationOrder":17,"StationDirection":1,"RouteId":78,"RouteVarId":1,"StationCode":"HHM 208","StationName":"Xã Nhị Bình","pathPoints":"106.68489838,10.90886307 106.68451691,10.90952587 106.68418884,10.91049480 106.68369293,10.91188526 106.68370819,10.91198158","Address":"Đd 143, đường Bùi Công Trừng, Huyện Hóc Môn","Lat":10.911906,"Lng":106.67686,"K":0},{"StationId":3216,"StationOrder":18,"StationDirection":1,"RouteId":78,"RouteVarId":1,"StationCode":"HHM 209","StationName":"Trường Võ Văn Thặng","pathPoints":"106.68370819,10.91198158 106.68355560,10.91221142 106.68180847,10.91366577 106.68039703,10.91302299 106.67935944,10.91267586 106.67900848,10.91266632","Address":"180 , đường Bùi Công Trừng, Huyện Hóc Môn","Lat":10.910958,"Lng":106.673298,"K":0},{"StationId":3215,"StationOrder":19,"StationDirection":1,"RouteId":78,"RouteVarId":1,"StationCode":"HHM 210","StationName":"Nhị Bình 6","pathPoints":"106.67903900,10.91257954 106.67736816,10.91207027 106.67375183,10.91106033","Address":"54/2, đường Bùi Công Trừng, Huyện Hóc Môn","Lat":10.909894,"Lng":106.668942,"K":0},{"StationId":3217,"StationOrder":20,"StationDirection":1,"RouteId":78,"RouteVarId":1,"StationCode":"HHM 211","StationName":"Phà An Sơn","pathPoints":"106.67375183,10.91106033 106.67220306,10.91065979 106.66947937,10.90995979 106.66754150,10.90948963","Address":"Đối diện 18/1, đường Bùi Công Trừng, Huyện Hóc Môn","Lat":10.90882,"Lng":106.664034,"K":0},{"StationId":3218,"StationOrder":21,"StationDirection":1,"RouteId":78,"RouteVarId":1,"StationCode":"HHM 219","StationName":"Công ty Quang Nguyệt","pathPoints":"106.66749573,10.90965271 106.66159821,10.90830421","Address":"Đối diện 381A, đường Bùi Công Trừng, Huyện Hóc Môn","Lat":10.907576,"Lng":106.659452,"K":0},{"StationId":3219,"StationOrder":22,"StationDirection":1,"RouteId":78,"RouteVarId":1,"StationCode":"HHM 212","StationName":"Ngã ba Đồn","pathPoints":"106.66165161,10.90812016 106.66055298,10.90781975 106.65965271,10.90756989 106.65886688,10.90732002 106.65759277,10.90715027 106.65711212,10.90711975 106.65685272,10.90715027 106.65585327,10.90734005 106.65457916,10.90762043","Address":"34, đường Bùi Công Trừng, Huyện Hóc Môn","Lat":10.907998,"Lng":106.652795,"K":0},{"StationId":3220,"StationOrder":23,"StationDirection":1,"RouteId":78,"RouteVarId":1,"StationCode":"HHM 213","StationName":"Trịnh Thị Dối","pathPoints":"106.65287018,10.90804005 106.65245819,10.90802956 106.65106201,10.90830040 106.64990997,10.90849018 106.64927673,10.90857983 106.64883423,10.90872478","Address":"112, đường Bùi Công Trừng, Huyện Hóc Môn","Lat":10.908725,"Lng":106.648836,"K":0},{"StationId":3224,"StationOrder":24,"StationDirection":1,"RouteId":78,"RouteVarId":1,"StationCode":"QCCT250","StationName":"Cầu Rạch Tra","pathPoints":"106.64883423,10.90872478 106.64595795,10.90924072 106.64445496,10.90900898 106.64724731,10.91215897 106.64982605,10.91538239 106.64984131,10.91599369 106.64883423,10.92073441 106.64927673,10.92087173","Address":"18C, đường Tỉnh lộ 9, Huyện Củ Chi","Lat":10.924005,"Lng":106.648257,"K":0},{"StationId":3226,"StationOrder":25,"StationDirection":1,"RouteId":78,"RouteVarId":1,"StationCode":"QCCT251","StationName":"Ủy Ban nhân dân Xã Bình Mỹ","pathPoints":"106.64871216,10.92076015 106.64845276,10.92201996 106.64836884,10.92249966 106.64827728,10.92323971","Address":"Kế 60, đường Tỉnh lộ 9, Huyện Củ Chi","Lat":10.928909,"Lng":106.647109,"K":0},{"StationId":3225,"StationOrder":26,"StationDirection":1,"RouteId":78,"RouteVarId":1,"StationCode":"QCCT252","StationName":"cầu Chú Cua","pathPoints":"106.64827728,10.92323971 106.64810181,10.92430019 106.64791107,10.92545986 106.64785767,10.92556953 106.64743042,10.92679024 106.64727783,10.92726994 106.64721680,10.92755985","Address":"118A, đường Tỉnh lộ 9, Huyện Củ Chi","Lat":10.935082,"Lng":106.645929,"K":0},{"StationId":3228,"StationOrder":27,"StationDirection":1,"RouteId":78,"RouteVarId":1,"StationCode":"QCCT253","StationName":"Cây xăng Phương Thủy","pathPoints":"106.64721680,10.92755985 106.64640045,10.93210983","Address":"198, đường Tỉnh lộ 9, Huyện Củ Chi","Lat":10.943551,"Lng":106.646594,"K":0},{"StationId":3227,"StationOrder":28,"StationDirection":1,"RouteId":78,"RouteVarId":1,"StationCode":"QCCT254","StationName":"Trường tiểu học Bình Mỹ 2","pathPoints":"106.64640045,10.93210983 106.64549255,10.93686008","Address":"264, đường Tỉnh lộ 9, Huyện Củ Chi","Lat":10.950992,"Lng":106.64529,"K":0},{"StationId":3229,"StationOrder":29,"StationDirection":1,"RouteId":78,"RouteVarId":1,"StationCode":"QCCT255","StationName":"Trường trung học cơ sở Bình Hòa","pathPoints":"106.64549255,10.93686008 106.64546204,10.93723965 106.64543915,10.93776989 106.64550018,10.93871021 106.64559937,10.93945980 106.64579010,10.94062996 106.64589691,10.94137001 106.64605713,10.94207001","Address":"386, đường Tỉnh lộ 9, Huyện Củ Chi","Lat":10.965234,"Lng":106.640473,"K":0},{"StationId":3230,"StationOrder":30,"StationDirection":1,"RouteId":78,"RouteVarId":1,"StationCode":"QCCT256","StationName":"Khu du lịch Bình Mỹ","pathPoints":"106.64605713,10.94207001 106.64659882,10.94447994 106.64694214,10.94556999 106.64698029,10.94581032 106.64697266,10.94624043 106.64675140,10.94686985 106.64659119,10.94731998","Address":"khu du lịch Bình Mỹ, đường Tỉnh lộ 9, Huyện Củ Chi","Lat":10.960953,"Lng":106.64227,"K":0},{"StationId":3231,"StationOrder":31,"StationDirection":1,"RouteId":78,"RouteVarId":1,"StationCode":"QCCT257","StationName":"Khu du lịch Bình Mỹ ","pathPoints":"106.64659119,10.94731998 106.64611816,10.94863987 106.64572144,10.94946957 106.64475250,10.95275974","Address":"đối diện Khu du lịch Bình Mỹ, đường Tỉnh lộ 9, Huyện Củ Chi","Lat":10.961411,"Lng":106.641937,"K":0},{"StationId":3232,"StationOrder":32,"StationDirection":1,"RouteId":78,"RouteVarId":1,"StationCode":"QCCT259","StationName":"cafe Vô Thường","pathPoints":"106.64475250,10.95279026 106.64409637,10.95503998 106.64376068,10.95611954 106.64298248,10.95847988 106.64263916,10.95954037 106.64205170,10.96117973 106.64164734,10.96214008","Address":"cafe Vô Thường, đường Tỉnh lộ 9, Huyện Củ Chi","Lat":10.962269,"Lng":106.64196,"K":0},{"StationId":1315,"StationOrder":33,"StationDirection":1,"RouteId":78,"RouteVarId":1,"StationCode":"QCCT350","StationName":"Ngã 3 Bình Mỹ","pathPoints":"106.64196014,10.96226883 106.64170837,10.96224785 106.64098358,10.96399689 106.64011383,10.96626091 106.64001465,10.96703053 106.63927460,10.96983147 106.63926697,10.97074795 106.63964844,10.97345543 106.63815308,10.97334957","Address":"1875 (Đối diện 1930), đường Tỉnh lộ 8, Củ Chi, Huyện Củ Chi","Lat":10.97335,"Lng":106.638153,"K":0},{"StationId":1314,"StationOrder":34,"StationDirection":1,"RouteId":78,"RouteVarId":1,"StationCode":"QCCT351","StationName":"Công ty Gum Gard","pathPoints":"106.63815308,10.97334957 106.63549042,10.97323418 106.63304901,10.97325039","Address":"1835, đường Tỉnh lộ 8, Huyện Củ Chi","Lat":10.973239,"Lng":106.633515,"K":0},{"StationId":1316,"StationOrder":35,"StationDirection":1,"RouteId":78,"RouteVarId":1,"StationCode":"QCCT352","StationName":"Cầu Bà Bếp","pathPoints":"106.63304901,10.97325039 106.63187408,10.97339153 106.62844849,10.97396660","Address":"1785, đường Tỉnh lộ 8, Huyện Củ Chi","Lat":10.973967,"Lng":106.628448,"K":0},{"StationId":7137,"StationOrder":36,"StationDirection":1,"RouteId":78,"RouteVarId":1,"StationCode":"BX70","StationName":"Khu công nghiệp Đông Nam","pathPoints":"106.62844849,10.97396660 106.62638855,10.97439289 106.62469482,10.97513008 106.62321472,10.97584629 106.62145233,10.96996880 106.62145233,10.96996880","Address":"KHu công nghiệp Đông Nam, đường Tỉnh lộ 8, Huyện Củ Chi","Lat":10.969969,"Lng":106.621456,"K":0}]