[{"StationId":7263,"StationOrder":0,"StationDirection":0,"RouteId":93,"RouteVarId":2,"StationCode":"BXLT Tan Tap","StationName":"Bến xe Tân Tập ","pathPoints":"","Address":"Bến xe Tân Tập, đường Đường DT 19, Ngoại thành","Lat":10.48643,"Lng":106.679955,"K":0},{"StationId":3116,"StationOrder":1,"StationDirection":0,"RouteId":93,"RouteVarId":2,"StationCode":"LA_4","StationName":"Nhà máy Kizunai","pathPoints":"106.67995453,10.48643017 106.67284393,10.48812866 106.67039490,10.48865032 106.66831207,10.48891926 106.66619873,10.48923588 106.66525269,10.48955250 106.66143036,10.49184227 106.66091156,10.49191570 106.66030884,10.49187374 106.65867615,10.49125671 106.65665436,10.49038601 106.65046692,10.49101925 106.64392090,10.49168873 106.63976288,10.49088669 106.63543701,10.49003792 106.62738037,10.48852921 106.62358093,10.48775387 106.62113190,10.48997498 106.61634827,10.49438381 106.61162567,10.49868870 106.60817719,10.50172615 106.60482788,10.50435352 106.60346222,10.50577736 106.60331726,10.50636768 106.60335541,10.50694847 106.60380554,10.51039791 106.60398102,10.51160049 106.60443878,10.51278210 106.60612488,10.51569366 106.60858154,10.52005005 106.61209106,10.52615738 106.61446381,10.53018665 106.62033844,10.54034424 106.62348175,10.54577637 106.62600708,10.55015373 106.62894440,10.55520630 106.63163757,10.56004715 106.63301849,10.56268406 106.63520050,10.56598473 106.63824463,10.57124805 106.64163971,10.57720661 106.64600372,10.58339214 106.64877319,10.58606052 106.65122986,10.58838558 106.65261841,10.58967209 106.65780640,10.59455490 106.66282654,10.59915352 106.66369629,10.59997559 106.66414642,10.60035038 106.66471100,10.60064602 106.66516113,10.60086727 106.66667938,10.60126209 106.66819763,10.60156822 106.66906738,10.60179996 106.66963196,10.60219574 106.66989899,10.60255432 106.67021942,10.60326576 106.67079926,10.60483170 106.67104340,10.60563850 106.67114258,10.60601902 106.67120361,10.60698891 106.67100525,10.60770035 106.67058563,10.60861301 106.66844940,10.61135483 106.66802216,10.61201859 106.66766357,10.61274624 106.66734314,10.61404324 106.66720581,10.61523533 106.66670990,10.61887360 106.66658020,10.61974812 106.66609955,10.62117195 106.66310120,10.62741470 106.66180420,10.63022995 106.66046906,10.63305092","Address":"B8/33B6, đường Quốc lộ 50, Huyện Bình Chánh","Lat":10.633061,"Lng":106.660509,"K":0},{"StationId":3119,"StationOrder":2,"StationDirection":0,"RouteId":93,"RouteVarId":2,"StationCode":"LA_1","StationName":"Hoàng Thái Mart","pathPoints":"106.66050720,10.63306141 106.65798950,10.63831806","Address":"Hoàng Thái Mart, đường Quốc lộ 50, Huyện Bình Chánh","Lat":10.638318,"Lng":106.657993,"K":0},{"StationId":3118,"StationOrder":3,"StationDirection":0,"RouteId":93,"RouteVarId":2,"StationCode":"HBC 198","StationName":"Trạm xăng Hoàng Thái","pathPoints":"106.65798950,10.63831806 106.65731049,10.64150238 106.65686035,10.64448071","Address":"Đối diện D8A/34, đường Quốc lộ 50, Huyện Bình Chánh","Lat":10.644481,"Lng":106.656861,"K":0},{"StationId":3121,"StationOrder":4,"StationDirection":0,"RouteId":93,"RouteVarId":2,"StationCode":"HBC 199","StationName":"Bệnh viện Tâm thần Bình Minh","pathPoints":"106.65686035,10.64448071 106.65677643,10.64521408 106.65653229,10.64647865 106.65632629,10.64733315 106.65596008,10.64827061 106.65602112,10.64828205","Address":"A11/32, đường Quốc lộ 50, Huyện Bình Chánh","Lat":10.648282,"Lng":106.656024,"K":0},{"StationId":3120,"StationOrder":5,"StationDirection":0,"RouteId":93,"RouteVarId":2,"StationCode":"HBC 200","StationName":"Chùa Phước Hội","pathPoints":"106.65602112,10.64828205 106.65479279,10.65230465","Address":"B7/177, đường Quốc lộ 50, Huyện Bình Chánh","Lat":10.652305,"Lng":106.654791,"K":0},{"StationId":3123,"StationOrder":6,"StationDirection":0,"RouteId":93,"RouteVarId":2,"StationCode":"HBC 201","StationName":"Chùa Tam Bửu","pathPoints":"106.65477753,10.65217018 106.65443420,10.65336418 106.65396881,10.65458012","Address":"B2/63/1, đường Quốc lộ 50, Huyện Bình Chánh","Lat":10.656296,"Lng":106.653214,"K":0},{"StationId":3122,"StationOrder":7,"StationDirection":0,"RouteId":93,"RouteVarId":2,"StationCode":"HBC 202","StationName":"Chùa Linh Hòa","pathPoints":"106.65321350,10.65629578 106.65213776,10.65862560 106.65190125,10.65990162","Address":"B2/35A, đường Quốc lộ 50, Huyện Bình Chánh","Lat":10.659902,"Lng":106.651905,"K":0},{"StationId":3125,"StationOrder":8,"StationDirection":0,"RouteId":93,"RouteVarId":2,"StationCode":"HBC 203","StationName":"Đường liên Ấp 1-2","pathPoints":"106.65190125,10.65990162 106.65165710,10.66300106","Address":"A8/240A, đường Quốc lộ 50, Huyện Bình Chánh","Lat":10.663001,"Lng":106.651658,"K":0},{"StationId":3124,"StationOrder":9,"StationDirection":0,"RouteId":93,"RouteVarId":2,"StationCode":"HBC 204","StationName":"Nghĩa trang Đa Phước","pathPoints":"106.65165710,10.66300106 106.65135193,10.66650200","Address":"Đối diện D14/407, đường Quốc lộ 50, Huyện Bình Chánh","Lat":10.666502,"Lng":106.651352,"K":0},{"StationId":3127,"StationOrder":10,"StationDirection":0,"RouteId":93,"RouteVarId":2,"StationCode":"HBC 205","StationName":"Trường THCS Đa Phước","pathPoints":"106.65135193,10.66650200 106.65119934,10.66866302 106.65117645,10.66985989","Address":"E11/323, đường Quốc lộ 50, Huyện Bình Chánh","Lat":10.66986,"Lng":106.651175,"K":0},{"StationId":3126,"StationOrder":11,"StationDirection":0,"RouteId":93,"RouteVarId":2,"StationCode":"HBC 206","StationName":"Công ty Hồng Nhất","pathPoints":"106.65117645,10.66985989 106.65100098,10.67350769","Address":"A1/6, đường Quốc lộ 50, Huyện Bình Chánh","Lat":10.673508,"Lng":106.651003,"K":0},{"StationId":3128,"StationOrder":12,"StationDirection":0,"RouteId":93,"RouteVarId":2,"StationCode":"HBC 207","StationName":"Đình Chánh An Phú","pathPoints":"106.65100098,10.67350769 106.65068054,10.67789936","Address":"A6/183, đường Quốc lộ 50, Huyện Bình Chánh","Lat":10.677899,"Lng":106.650681,"K":0},{"StationId":3129,"StationOrder":13,"StationDirection":0,"RouteId":93,"RouteVarId":2,"StationCode":"HBC 208","StationName":"Trường chuyên biệt Rạng Đông","pathPoints":"106.65068054,10.67789936 106.65054321,10.67935371 106.65047455,10.68010235 106.65049744,10.68086147 106.65074921,10.68200016 106.65126038,10.68314934","Address":"A12/363, đường Quốc lộ 50, Huyện Bình Chánh","Lat":10.683149,"Lng":106.651261,"K":0},{"StationId":3131,"StationOrder":14,"StationDirection":0,"RouteId":93,"RouteVarId":2,"StationCode":"HBC 209","StationName":"Trường tiểu học Phong Phú","pathPoints":"106.65126038,10.68314934 106.65369415,10.68851566","Address":"Trường tiểu học Phong Phú, đường Quốc lộ 50, Huyện Bình Chánh","Lat":10.688516,"Lng":106.653691,"K":0},{"StationId":3130,"StationOrder":15,"StationDirection":0,"RouteId":93,"RouteVarId":2,"StationCode":"HBC 210","StationName":"Trịnh Quang Nghị","pathPoints":"106.65369415,10.68851566 106.65470123,10.69070816 106.65509796,10.69262218","Address":"D3/65, đường Quốc lộ 50, Huyện Bình Chánh","Lat":10.692622,"Lng":106.655096,"K":0},{"StationId":3133,"StationOrder":16,"StationDirection":0,"RouteId":93,"RouteVarId":2,"StationCode":"HBC 211","StationName":"Trạm xăng Kim Quang","pathPoints":"106.65509796,10.69262218 106.65522766,10.69428253 106.65497589,10.69554806","Address":"E8/212M, đường Quốc lộ 50, Huyện Bình Chánh","Lat":10.695548,"Lng":106.654978,"K":0},{"StationId":3132,"StationOrder":17,"StationDirection":0,"RouteId":93,"RouteVarId":2,"StationCode":"HBC 212","StationName":"Trung tâm tư vấn đào tạo Úc Mỹ","pathPoints":"106.65497589,10.69554806 106.65450287,10.69813633","Address":"E8/214A, đường Quốc lộ 50, Huyện Bình Chánh","Lat":10.698136,"Lng":106.654501,"K":0},{"StationId":3136,"StationOrder":18,"StationDirection":0,"RouteId":93,"RouteVarId":2,"StationCode":"HBC 213","StationName":"Chùa Thiện Phước","pathPoints":"106.65450287,10.69813633 106.65434265,10.69901562 106.65423584,10.69990730 106.65435791,10.70086670 106.65458679,10.70176792","Address":"E9/251, đường Quốc lộ 50, Huyện Bình Chánh","Lat":10.701768,"Lng":106.654587,"K":0},{"StationId":3134,"StationOrder":19,"StationDirection":0,"RouteId":93,"RouteVarId":2,"StationCode":"HBC 214","StationName":"Xăng dầu Phong Phú","pathPoints":"106.65458679,10.70176792 106.65496063,10.70470905","Address":"E10/288, đường Quốc lộ 50, Huyện Bình Chánh","Lat":10.704709,"Lng":106.654957,"K":0},{"StationId":3137,"StationOrder":20,"StationDirection":0,"RouteId":93,"RouteVarId":2,"StationCode":"HBC 215","StationName":"Mầm non Anh Việt","pathPoints":"106.65496063,10.70470905 106.65549469,10.70823002","Address":"E11/304C, đường Quốc lộ 50, Huyện Bình Chánh","Lat":10.70823,"Lng":106.655493,"K":0},{"StationId":3135,"StationOrder":21,"StationDirection":0,"RouteId":93,"RouteVarId":2,"StationCode":"HBC 216","StationName":"Chùa Ân Hòa","pathPoints":"106.65549469,10.70823002 106.65586090,10.71081257 106.65575409,10.71205139","Address":"B10/7, đường Quốc lộ 50, Huyện Bình Chánh","Lat":10.712051,"Lng":106.655756,"K":0},{"StationId":3139,"StationOrder":22,"StationDirection":0,"RouteId":93,"RouteVarId":2,"StationCode":"HBC 217","StationName":"Văn phòng Ấp 3","pathPoints":"106.65575409,10.71205139 106.65562439,10.71379566 106.65568542,10.71551991","Address":"B13/118, đường Quốc lộ 50, Huyện Bình Chánh","Lat":10.71552,"Lng":106.655686,"K":0},{"StationId":3138,"StationOrder":23,"StationDirection":0,"RouteId":93,"RouteVarId":2,"StationCode":"HBC 218","StationName":"Chùa Thiên Trì","pathPoints":"106.65568542,10.71551991 106.65573883,10.71859837","Address":"B15/20, đường Quốc lộ 50, Huyện Bình Chánh","Lat":10.718598,"Lng":106.65574,"K":0},{"StationId":2247,"StationOrder":24,"StationDirection":0,"RouteId":93,"RouteVarId":2,"StationCode":"HBC 219","StationName":"Bình Hưng","pathPoints":"106.65573883,10.71859837 106.65583801,10.72084808","Address":"B17/24, đường Quốc lộ 50, Huyện Bình Chánh","Lat":10.720848,"Lng":106.655837,"K":0},{"StationId":2244,"StationOrder":25,"StationDirection":0,"RouteId":93,"RouteVarId":2,"StationCode":"HBC 220","StationName":"Giáo xứ Bình Hưng","pathPoints":"106.65583801,10.72084808 106.65594482,10.72492313","Address":"A18/16, đường Quốc lộ 50, Huyện Bình Chánh","Lat":10.724923,"Lng":106.655944,"K":0},{"StationId":2246,"StationOrder":26,"StationDirection":0,"RouteId":93,"RouteVarId":2,"StationCode":"HBC 221","StationName":"Mầm non ánh Dương","pathPoints":"106.65594482,10.72492313 106.65608978,10.72770023","Address":"A24/20B, đường Quốc lộ 50, Huyện Bình Chánh","Lat":10.7277,"Lng":106.656089,"K":0},{"StationId":2248,"StationOrder":27,"StationDirection":0,"RouteId":93,"RouteVarId":2,"StationCode":"HBC 222","StationName":"Công an Bình Hưng","pathPoints":"106.65608978,10.72770023 106.65610504,10.73090458","Address":"A27/13, đường Quốc lộ 50, Huyện Bình Chánh","Lat":10.730905,"Lng":106.656105,"K":0},{"StationId":2249,"StationOrder":28,"StationDirection":0,"RouteId":93,"RouteVarId":2,"StationCode":"Q8 072","StationName":"Bến xe Quận 8","pathPoints":"106.65610504,10.73090458 106.65624237,10.73313427","Address":"407, đường Quốc lộ 50, Quận 8","Lat":10.733134,"Lng":106.656239,"K":0},{"StationId":496,"StationOrder":29,"StationDirection":0,"RouteId":93,"RouteVarId":2,"StationCode":"BX 20","StationName":"Bến xe Quận 8","pathPoints":"106.65624237,10.73313427 106.65623474,10.73354053 106.65635681,10.73354530","Address":"GA HKXB QUẬN 8, đường Quốc lộ 50, Quận 8","Lat":10.733545,"Lng":106.656357,"K":0},{"StationId":496,"StationOrder":0,"StationDirection":1,"RouteId":93,"RouteVarId":1,"StationCode":"BX 20","StationName":"Bến xe Quận 8","pathPoints":"","Address":"GA HKXB QUẬN 8, đường Quốc lộ 50, Quận 8","Lat":10.733545,"Lng":106.656357,"K":0},{"StationId":2148,"StationOrder":1,"StationDirection":1,"RouteId":93,"RouteVarId":1,"StationCode":"Q8 071","StationName":"Bến xe Quận 8","pathPoints":"106.65704346,10.73311996 106.65609741,10.73313046 106.65609741,10.73274040","Address":"328-330, đường Quốc lộ 50, Quận 8","Lat":10.732776,"Lng":106.656051,"K":0},{"StationId":2149,"StationOrder":2,"StationDirection":1,"RouteId":93,"RouteVarId":1,"StationCode":"HBC 168","StationName":"Công an Bình Hưng","pathPoints":"106.65608978,10.73287392 106.65612030,10.73224926 106.65605927,10.73153019","Address":"A6/17, đường Quốc lộ 50, Huyện Bình Chánh","Lat":10.7308,"Lng":106.655971,"K":0},{"StationId":2151,"StationOrder":3,"StationDirection":1,"RouteId":93,"RouteVarId":1,"StationCode":"HBC 169","StationName":"Mầm non Ánh Dương","pathPoints":"106.65596771,10.73079967 106.65589142,10.72789001","Address":"A11/07, đường Quốc lộ 50, Huyện Bình Chánh","Lat":10.72789,"Lng":106.65589,"K":0},{"StationId":2150,"StationOrder":4,"StationDirection":1,"RouteId":93,"RouteVarId":1,"StationCode":"HBC 170","StationName":"Giáo xứ Bình Hưng","pathPoints":"106.65589142,10.72789001 106.65583038,10.72529221","Address":"A13/1A, đường Quốc lộ 50, Huyện Bình Chánh","Lat":10.725292,"Lng":106.655831,"K":0},{"StationId":2153,"StationOrder":5,"StationDirection":1,"RouteId":93,"RouteVarId":1,"StationCode":"HBC 171","StationName":"Bình Hưng","pathPoints":"106.65585327,10.72528648 106.65581512,10.72303009","Address":"B2/21, đường Quốc lộ 50, Huyện Bình Chánh","Lat":10.72058,"Lng":106.655686,"K":0},{"StationId":3019,"StationOrder":6,"StationDirection":1,"RouteId":93,"RouteVarId":1,"StationCode":"HBC 172","StationName":"Nguyễn Văn Linh","pathPoints":"106.65568542,10.72058010 106.65561676,10.71847725","Address":"B4/13, đường Quốc lộ 50, Huyện Bình Chánh","Lat":10.718477,"Lng":106.655617,"K":0},{"StationId":3020,"StationOrder":7,"StationDirection":1,"RouteId":93,"RouteVarId":1,"StationCode":"HBC 173","StationName":"Trường tiều học Bình Hưng","pathPoints":"106.65561676,10.71847725 106.65553284,10.71576214","Address":"B6/19, đường Quốc lộ 50, Huyện Bình Chánh","Lat":10.715762,"Lng":106.655531,"K":0},{"StationId":3021,"StationOrder":8,"StationDirection":1,"RouteId":93,"RouteVarId":1,"StationCode":"HBC 174","StationName":"Chùa An Hòa","pathPoints":"106.65553284,10.71576214 106.65546417,10.71382809 106.65562439,10.71193027","Address":"B8/31, đường Quốc lộ 50, Huyện Bình Chánh","Lat":10.71193,"Lng":106.655627,"K":0},{"StationId":3023,"StationOrder":9,"StationDirection":1,"RouteId":93,"RouteVarId":1,"StationCode":"HBC 176","StationName":"Mầm non Anh Việt","pathPoints":"106.65562439,10.71193027 106.65567780,10.71096039 106.65535736,10.70838833","Address":"E11/307, đường Quốc lộ 50, Huyện Bình Chánh","Lat":10.708388,"Lng":106.655359,"K":0},{"StationId":3025,"StationOrder":10,"StationDirection":1,"RouteId":93,"RouteVarId":1,"StationCode":"HBC 177","StationName":"Xăng dầu Phong Phú","pathPoints":"106.65535736,10.70838833 106.65480042,10.70467186","Address":"E4/106, đường Quốc lộ 50, Huyện Bình Chánh","Lat":10.704672,"Lng":106.654801,"K":0},{"StationId":3024,"StationOrder":11,"StationDirection":1,"RouteId":93,"RouteVarId":1,"StationCode":"HBC 178","StationName":"Chùa Thiện Phước","pathPoints":"106.65480042,10.70467186 106.65430450,10.70151520","Address":"E5/142, đường Quốc lộ 50, Huyện Bình Chánh","Lat":10.701515,"Lng":106.654308,"K":0},{"StationId":3026,"StationOrder":12,"StationDirection":1,"RouteId":93,"RouteVarId":1,"StationCode":"HBC 179","StationName":"Trung tâm tư vấn đào tạo Úc Mỹ","pathPoints":"106.65430450,10.70151520 106.65402985,10.69995403 106.65435791,10.69819355","Address":"Đối diện E8/215, đường Quốc lộ 50, Huyện Bình Chánh","Lat":10.698194,"Lng":106.654356,"K":0},{"StationId":3027,"StationOrder":13,"StationDirection":1,"RouteId":93,"RouteVarId":1,"StationCode":"HBC 180","StationName":"Trạm xăng Kim Quang","pathPoints":"106.65435791,10.69819355 106.65487671,10.69541645","Address":"D7/203, đường Quốc lộ 50, Huyện Bình Chánh","Lat":10.695416,"Lng":106.654876,"K":0},{"StationId":3028,"StationOrder":14,"StationDirection":1,"RouteId":93,"RouteVarId":1,"StationCode":"HBC 181","StationName":"Trịnh Quang Nghị","pathPoints":"106.65487671,10.69541645 106.65504456,10.69426155 106.65494537,10.69251060","Address":"D10/281, đường Quốc lộ 50, Huyện Bình Chánh","Lat":10.692511,"Lng":106.654946,"K":0},{"StationId":3029,"StationOrder":15,"StationDirection":1,"RouteId":93,"RouteVarId":1,"StationCode":"HBC 182","StationName":"Trường Tiểu học Phong Phú","pathPoints":"106.65494537,10.69251060 106.65458679,10.69080353 106.65347290,10.68843079","Address":"B5/126, đường Quốc lộ 50, Huyện Bình Chánh","Lat":10.688431,"Lng":106.653471,"K":0},{"StationId":3030,"StationOrder":16,"StationDirection":1,"RouteId":93,"RouteVarId":1,"StationCode":"HBC 183","StationName":"Sân banh ngã 3","pathPoints":"106.65347290,10.68843079 106.65106964,10.68308640","Address":"A2/33, đường Quốc lộ 50, Huyện Bình Chánh","Lat":10.683086,"Lng":106.651068,"K":0},{"StationId":3031,"StationOrder":17,"StationDirection":1,"RouteId":93,"RouteVarId":1,"StationCode":"HBC 184","StationName":"Hội quán Thanh niên","pathPoints":"106.65106964,10.68308640 106.65047455,10.68155766 106.65033722,10.68084049 106.65032959,10.68021297 106.65048981,10.67798901","Address":"A4/94, đường Quốc lộ 50, Huyện Bình Chánh","Lat":10.677989,"Lng":106.650488,"K":0},{"StationId":3032,"StationOrder":18,"StationDirection":1,"RouteId":93,"RouteVarId":1,"StationCode":"HBC 185","StationName":"Ngã 3 đường 3S","pathPoints":"106.65048981,10.67798901 106.65085602,10.67359161","Address":"E7/194, đường Quốc lộ 50, Huyện Bình Chánh","Lat":10.673592,"Lng":106.650853,"K":0},{"StationId":3033,"StationOrder":19,"StationDirection":1,"RouteId":93,"RouteVarId":1,"StationCode":"HBC 186","StationName":"Trường THCS Đa Phước","pathPoints":"106.65085602,10.67359161 106.65105438,10.66976547","Address":"E11/323, đường Quốc lộ 50, Huyện Bình Chánh","Lat":10.669765,"Lng":106.651052,"K":0},{"StationId":3034,"StationOrder":20,"StationDirection":1,"RouteId":93,"RouteVarId":1,"StationCode":"HBC 187","StationName":"Nghĩa trang Đa Phước","pathPoints":"106.65105438,10.66976547 106.65122986,10.66666985","Address":"D16/460A2, đường Quốc lộ 50, Huyện Bình Chánh","Lat":10.66667,"Lng":106.651229,"K":0},{"StationId":3035,"StationOrder":21,"StationDirection":1,"RouteId":93,"RouteVarId":1,"StationCode":"HBC 188","StationName":"Đường liên Ấp 1-2","pathPoints":"106.65126801,10.66665840 106.65155029,10.66345215","Address":"A14/396, đường Quốc lộ 50, Huyện Bình Chánh","Lat":10.662801,"Lng":106.65154,"K":0},{"StationId":3036,"StationOrder":22,"StationDirection":1,"RouteId":93,"RouteVarId":1,"StationCode":"HBC 189","StationName":"Chùa Linh Hòa","pathPoints":"106.65154266,10.66280079 106.65177917,10.65995407","Address":"D9/261/1A, đường Quốc lộ 50, Huyện Bình Chánh","Lat":10.659954,"Lng":106.651776,"K":0},{"StationId":3038,"StationOrder":23,"StationDirection":1,"RouteId":93,"RouteVarId":1,"StationCode":"HBC 191","StationName":"Chùa Tam Bửu","pathPoints":"106.65177917,10.65995407 106.65188599,10.65900517 106.65313721,10.65616417","Address":"D8/238/8, đường Quốc lộ 50, Huyện Bình Chánh","Lat":10.656164,"Lng":106.653138,"K":0},{"StationId":3039,"StationOrder":24,"StationDirection":1,"RouteId":93,"RouteVarId":1,"StationCode":"HBC 192","StationName":"Chùa Phước Hội","pathPoints":"106.65313721,10.65616417 106.65415955,10.65394402 106.65460968,10.65246296","Address":"D7/221A, đường Quốc lộ 50, Huyện Bình Chánh","Lat":10.652463,"Lng":106.654608,"K":0},{"StationId":3040,"StationOrder":25,"StationDirection":1,"RouteId":93,"RouteVarId":1,"StationCode":"HBC 193","StationName":"Cầu Ông Thìn","pathPoints":"106.65501404,10.65134430 106.65599060,10.64808846","Address":"A8/22A, đường Quốc lộ 50, Huyện Bình Chánh","Lat":10.648087,"Lng":106.655982,"K":0},{"StationId":3041,"StationOrder":26,"StationDirection":1,"RouteId":93,"RouteVarId":1,"StationCode":"HBC 194","StationName":"Trạm xăng Hoàng Thái","pathPoints":"106.65599060,10.64808846 106.65634918,10.64705944 106.65664673,10.64567757 106.65677643,10.64433765","Address":"D7/23A, đường Quốc lộ 50, Huyện Bình Chánh","Lat":10.644338,"Lng":106.656776,"K":0},{"StationId":3042,"StationOrder":27,"StationDirection":1,"RouteId":93,"RouteVarId":1,"StationCode":"LA_2","StationName":"Hoàng Thái Mart","pathPoints":"106.65677643,10.64433765 106.65718842,10.64123917","Address":"Đối diện B8/33B6, đường Quốc lộ 50, Huyện Bình Chánh","Lat":10.637843,"Lng":106.658036,"K":0},{"StationId":4421,"StationOrder":28,"StationDirection":1,"RouteId":93,"RouteVarId":1,"StationCode":"LA_3","StationName":"Nhà máy Kizunai","pathPoints":"106.65803528,10.63784313 106.66023254,10.63329887","Address":"Quốc lộ 1A, đường Quốc lộ 1A, Huyện Bình Chánh","Lat":10.633299,"Lng":106.66023,"K":0},{"StationId":7263,"StationOrder":29,"StationDirection":1,"RouteId":93,"RouteVarId":1,"StationCode":"BXLT Tan Tap","StationName":"Bến xe Tân Tập ","pathPoints":"106.66023254,10.63329887 106.66374969,10.62593842 106.66602325,10.62115097 106.66649628,10.61973763 106.66735077,10.61370659 106.66763306,10.61260986 106.66825867,10.61155510 106.67024994,10.60897636 106.67075348,10.60819054 106.67109680,10.60722065 106.67106628,10.60596561 106.67045593,10.60402584 106.66975403,10.60241222 106.66946411,10.60212708 106.66896057,10.60185337 106.66514587,10.60093594 106.66403961,10.60038757 106.66156006,10.59816170 106.65719604,10.59412289 106.65412903,10.59124374 106.64964294,10.58698368 106.64595795,10.58349228 106.64371490,10.58032894 106.64154053,10.57724857 106.63758850,10.57039356 106.63510132,10.56599522 106.63365173,10.56383324 106.62802124,10.55387688 106.62522125,10.54900360 106.62377167,10.54656792 106.62056732,10.54098797 106.61101532,10.52456474 106.60478210,10.51367855 106.60425568,10.51270771 106.60385132,10.51147366 106.60314941,10.50630474 106.60338593,10.50568199 106.60498047,10.50407887 106.60787201,10.50185299 106.61238861,10.49785519 106.61624908,10.49431038 106.62347412,10.48772717 106.63274384,10.48952103 106.63751984,10.49039650 106.64379120,10.49157810 106.65527344,10.49039650 106.65678406,10.49028015 106.65876007,10.49115562 106.66058350,10.49189472 106.66143036,10.49173641 106.66211700,10.49134636 106.66523743,10.48939419 106.66651917,10.48907757 106.67031860,10.48855019 106.67465210,10.48762226 106.67995453,10.48643017","Address":"Bến xe Tân Tập, đường Đường DT 19, Ngoại thành","Lat":10.48643,"Lng":106.679955,"K":0}]