[{"StationId":7210,"StationOrder":0,"StationDirection":0,"RouteId":98,"RouteVarId":2,"StationCode":"BXLT Duc Hue","StationName":"Bến xe Đức Huệ","pathPoints":"","Address":"ĐT 824, đường ĐT 824, Ngoại thành","Lat":10.836741,"Lng":106.466725,"K":0},{"StationId":3436,"StationOrder":1,"StationDirection":0,"RouteId":98,"RouteVarId":2,"StationCode":"HBC 294","StationName":"Trường Tiểu học Cầu Xáng","pathPoints":"106.46672821,10.83674145 106.46661377,10.83680439 106.46607208,10.83620358 106.46506500,10.83479214 106.46318054,10.83192539 106.46231842,10.83045006 106.46130371,10.82905960 106.45730591,10.82364273 106.46360779,10.81942749 106.46681213,10.81727219 106.46998596,10.81512833 106.47965240,10.80875778 106.48450470,10.80553818 106.48659515,10.80421543 106.48857117,10.80280304 106.48922729,10.80241871 106.49139404,10.80095863 106.49194336,10.80060577 106.49504852,10.79910374 106.49864197,10.79733849 106.50623322,10.79341793 106.50893402,10.79218006 106.51170349,10.79075718 106.51343536,10.78978729 106.51466370,10.78919220 106.51756287,10.78757954","Address":"Đối diện 3A61, đường Tỉnh lộ 10 Bình Chánh, Huyện Bình Chánh","Lat":10.78758,"Lng":106.517563,"K":0},{"StationId":3437,"StationOrder":2,"StationDirection":0,"RouteId":98,"RouteVarId":2,"StationCode":"HBC 295","StationName":"Thịnh Thành","pathPoints":"106.51756287,10.78757954 106.52284241,10.78499794","Address":"Đối diện 3A35/3, đường Tỉnh lộ 10 Bình Chánh, Huyện Bình Chánh","Lat":10.784998,"Lng":106.522842,"K":0},{"StationId":3438,"StationOrder":3,"StationDirection":0,"RouteId":98,"RouteVarId":2,"StationCode":"HBC 290","StationName":"Hoàng My","pathPoints":"106.52284241,10.78499794 106.52856445,10.78215218","Address":"Đối diện 3A.11, đường Tỉnh lộ 10 Bình Chánh, Huyện Bình Chánh","Lat":10.782152,"Lng":106.528561,"K":0},{"StationId":3439,"StationOrder":4,"StationDirection":0,"RouteId":98,"RouteVarId":2,"StationCode":"HBC 296","StationName":"Kênh A","pathPoints":"106.52856445,10.78215218 106.53305817,10.77987003","Address":"Đối diện 2A/92, đường Tỉnh lộ 10 Bình Chánh, Huyện Bình Chánh","Lat":10.77987,"Lng":106.533061,"K":0},{"StationId":3440,"StationOrder":5,"StationDirection":0,"RouteId":98,"RouteVarId":2,"StationCode":"HBC 297","StationName":"Ủy ban xã Lê Minh Xuân ","pathPoints":"106.53305817,10.77987003 106.53820801,10.77731419","Address":"F2/11, đường Tỉnh lộ 10 Bình Chánh, Huyện Bình Chánh","Lat":10.777314,"Lng":106.538211,"K":0},{"StationId":3441,"StationOrder":6,"StationDirection":0,"RouteId":98,"RouteVarId":2,"StationCode":"HBC 298","StationName":"Ủy ban xã Phạm Văn Hai","pathPoints":"106.53820801,10.77731419 106.54300690,10.77488518","Address":"F4.7, đường Tỉnh lộ 10 Bình Chánh, Huyện Bình Chánh","Lat":10.774885,"Lng":106.543007,"K":0},{"StationId":3442,"StationOrder":7,"StationDirection":0,"RouteId":98,"RouteVarId":2,"StationCode":"HBC 299","StationName":"Công ty Chấn Hưng","pathPoints":"106.54300690,10.77488518 106.54631042,10.77308846","Address":"F5/6, đường Tỉnh lộ 10 Bình Chánh, Huyện Bình Chánh","Lat":10.773088,"Lng":106.546311,"K":0},{"StationId":3443,"StationOrder":8,"StationDirection":0,"RouteId":98,"RouteVarId":2,"StationCode":"HBC 300","StationName":"Trường tiểu học Phạm Văn Hai","pathPoints":"106.54631042,10.77308846 106.55012512,10.77128029","Address":"F7/6, đường Tỉnh lộ 10 Bình Chánh, Huyện Bình Chánh","Lat":10.77128,"Lng":106.550125,"K":0},{"StationId":3444,"StationOrder":9,"StationDirection":0,"RouteId":98,"RouteVarId":2,"StationCode":"HBC 301","StationName":"Mầm non Hoa Thiên Tuế","pathPoints":"106.55012512,10.77128029 106.55443573,10.76907825","Address":"G8/20, đường Trần Văn Giàu, Huyện Bình Chánh","Lat":10.769078,"Lng":106.554433,"K":0},{"StationId":3311,"StationOrder":10,"StationDirection":0,"RouteId":98,"RouteVarId":2,"StationCode":"HBC 302","StationName":"Trường Trung học cơ sở Lê Minh Xuân","pathPoints":"106.55443573,10.76907825 106.55787659,10.76734924","Address":"G8/1, đường Trần Văn Giàu, Huyện Bình Chánh","Lat":10.767349,"Lng":106.557877,"K":0},{"StationId":3313,"StationOrder":11,"StationDirection":0,"RouteId":98,"RouteVarId":2,"StationCode":"HBC 303","StationName":"Coop Mart Vĩnh Lộc B","pathPoints":"106.55787659,10.76734924 106.56309509,10.76492500","Address":"G3/7, đường Trần Văn Giàu, Huyện Bình Chánh","Lat":10.764925,"Lng":106.563097,"K":0},{"StationId":3312,"StationOrder":12,"StationDirection":0,"RouteId":98,"RouteVarId":2,"StationCode":"HBC 304","StationName":"Võ Văn Vân","pathPoints":"106.56309509,10.76492500 106.56549835,10.76389027 106.56717682,10.76303291","Address":"G22/33A, đường Trần Văn Giàu, Huyện Bình Chánh","Lat":10.763033,"Lng":106.567174,"K":0},{"StationId":3446,"StationOrder":13,"StationDirection":0,"RouteId":98,"RouteVarId":2,"StationCode":"QBT 151","StationName":"Cầu Tân Tạo","pathPoints":"106.56717682,10.76303291 106.57163239,10.76113033","Address":"Đ/d 1800, đường Tỉnh lộ 10,Tân Tạo, Hồ Chí Minh, Việt Nam, Quận Bình Tân","Lat":10.76113,"Lng":106.571632,"K":0},{"StationId":3445,"StationOrder":14,"StationDirection":0,"RouteId":98,"RouteVarId":2,"StationCode":"QBT 152","StationName":"Giai Hồng Phát","pathPoints":"106.57163239,10.76113033 106.57453918,10.75976563 106.57544708,10.75961399","Address":"1749, đường Tỉnh lộ 10,Tân Tạo, Hồ Chí Minh, Việt Nam, Quận Bình Tân","Lat":10.759614,"Lng":106.575447,"K":0},{"StationId":3448,"StationOrder":15,"StationDirection":0,"RouteId":98,"RouteVarId":2,"StationCode":"QBT 153","StationName":"Phòng khám Đa khoa Thành An","pathPoints":"106.57544708,10.75961399 106.57843781,10.75884628","Address":"1689, đường Tỉnh lộ 10,Tân Tạo, Hồ Chí Minh, Việt Nam, Quận Bình Tân","Lat":10.758846,"Lng":106.578438,"K":0},{"StationId":3447,"StationOrder":16,"StationDirection":0,"RouteId":98,"RouteVarId":2,"StationCode":"QBT 154","StationName":"Mầm non Vy Vy","pathPoints":"106.57843781,10.75885963 106.57990265,10.75846004 106.58065033,10.75827980","Address":"1581, đường Tỉnh lộ 10,Tân Tạo, Hồ Chí Minh, Việt Nam, Quận Bình Tân","Lat":10.758222,"Lng":106.580635,"K":0},{"StationId":3450,"StationOrder":17,"StationDirection":0,"RouteId":98,"RouteVarId":2,"StationCode":"QBT 155","StationName":"Cầu vượt Tân Tạo - Chợ Đệm","pathPoints":"106.58065033,10.75827980 106.58307648,10.75765038","Address":"1441, đường Tỉnh lộ 10,Tân Tạo, Hồ Chí Minh, Việt Nam, Quận Bình Tân","Lat":10.757578,"Lng":106.583069,"K":0},{"StationId":2381,"StationOrder":18,"StationDirection":0,"RouteId":98,"RouteVarId":2,"StationCode":"QBT 157","StationName":"Ngã 4 Bà Hom","pathPoints":"106.58306885,10.75757790 106.58638000,10.75682449 106.58740997,10.75677681 106.58838654,10.75685596 106.59133148,10.75647640 106.59415436,10.75585461","Address":"1209, đường Tỉnh lộ 10,Tân Tạo, Hồ Chí Minh, Việt Nam, Quận Bình Tân","Lat":10.755855,"Lng":106.594154,"K":0},{"StationId":2382,"StationOrder":19,"StationDirection":0,"RouteId":98,"RouteVarId":2,"StationCode":"QBT 158","StationName":"Trạm 34","pathPoints":"106.59415436,10.75585461 106.59806061,10.75496960","Address":"1135, đường Tỉnh lộ 10,Tân Tạo, Hồ Chí Minh, Việt Nam, Quận Bình Tân","Lat":10.75497,"Lng":106.598061,"K":0},{"StationId":2383,"StationOrder":20,"StationDirection":0,"RouteId":98,"RouteVarId":2,"StationCode":"QBT 159","StationName":"Đại Hòa","pathPoints":"106.59806061,10.75496960 106.59808350,10.75504971 106.59872437,10.75488567 106.59947205,10.75474834 106.59985352,10.75473976 106.60028076,10.75468540 106.60198975,10.75463963 106.60198975,10.75455856","Address":"991, đường Tỉnh lộ 10,Tân Tạo, Hồ Chí Minh, Việt Nam, Quận Bình Tân","Lat":10.754559,"Lng":106.60199,"K":0},{"StationId":3404,"StationOrder":21,"StationDirection":0,"RouteId":98,"RouteVarId":2,"StationCode":"QBT 164","StationName":"Ấp Văn hóa","pathPoints":"106.60198975,10.75461960 106.60308838,10.75457954 106.60363770,10.75465965 106.60401917,10.75473976 106.60414124,10.75477982 106.60430908,10.75491047 106.60452271,10.75514984","Address":"899, đường Tỉnh lộ 10,Tân Tạo, Hồ Chí Minh, Việt Nam, Quận Bình Tân","Lat":10.755135,"Lng":106.604538,"K":0},{"StationId":2906,"StationOrder":22,"StationDirection":0,"RouteId":98,"RouteVarId":2,"StationCode":"QBT 160","StationName":"Lê Đình Cẩn","pathPoints":"106.60452271,10.75514984 106.60475922,10.75549030 106.60520172,10.75617981 106.60592651,10.75720978 106.60619354,10.75763035 106.60632324,10.75778961 106.60639954,10.75786018","Address":"831, đường Tỉnh lộ 10,Tân Tạo, Hồ Chí Minh, Việt Nam, Quận Bình Tân","Lat":10.75781,"Lng":106.60643,"K":0},{"StationId":3452,"StationOrder":23,"StationDirection":0,"RouteId":98,"RouteVarId":2,"StationCode":"QBT 161","StationName":"Nhà thờ tin lành","pathPoints":"106.60643005,10.75780964 106.60697174,10.75805283 106.60832214,10.75794697 106.60967255,10.75776768","Address":"693, đường Tỉnh lộ 10,Tân Tạo, Hồ Chí Minh, Việt Nam, Quận Bình Tân","Lat":10.757768,"Lng":106.609671,"K":0},{"StationId":3451,"StationOrder":24,"StationDirection":0,"RouteId":98,"RouteVarId":2,"StationCode":"QBT 162","StationName":"Bông Sen","pathPoints":"106.60967255,10.75776768 106.61012268,10.75774193 106.61074829,10.75782585 106.61213684,10.75822639 106.61266327,10.75825310 106.61299133,10.75819492","Address":"595, đường Tỉnh lộ 10,Tân Tạo, Hồ Chí Minh, Việt Nam, Quận Bình Tân","Lat":10.758195,"Lng":106.612991,"K":0},{"StationId":3454,"StationOrder":25,"StationDirection":0,"RouteId":98,"RouteVarId":2,"StationCode":"QBT 166","StationName":"Cấp nước Bình Trị Đông","pathPoints":"106.61299133,10.75819492 106.61431885,10.75788879 106.61615753,10.75755215 106.61822510,10.75740147","Address":"Cấp nước BTĐ, đường Tỉnh lộ 10,Tân Tạo, Hồ Chí Minh, Việt Nam, Quận Bình Tân","Lat":10.757401,"Lng":106.618225,"K":0},{"StationId":4767,"StationOrder":26,"StationDirection":0,"RouteId":98,"RouteVarId":2,"StationCode":"Q6 009","StationName":"An Dương Vương","pathPoints":"106.61822510,10.75740147 106.62002563,10.75712013 106.62146759,10.75705624 106.62442780,10.75590801 106.62599945,10.75566483","Address":"263-265, đường Bà Hom, Quận 6","Lat":10.755665,"Lng":106.626,"K":0},{"StationId":4769,"StationOrder":27,"StationDirection":0,"RouteId":98,"RouteVarId":2,"StationCode":"Q6 011","StationName":"Chợ Phú Lâm","pathPoints":"106.62599945,10.75566483 106.63143921,10.75461102","Address":"109, đường Bà Hom, Quận 6","Lat":10.754611,"Lng":106.631439,"K":0},{"StationId":724,"StationOrder":28,"StationDirection":0,"RouteId":98,"RouteVarId":2,"StationCode":"Q6 039","StationName":"Cầu Ông Buông","pathPoints":"106.63143921,10.75461102 106.63404083,10.75405216 106.63410187,10.75378895 106.63442993,10.75355721 106.63475800,10.75373650 106.63488007,10.75399971 106.63523102,10.75431633 106.63799286,10.75454807","Address":"963, đường Hồng Bàng, Quận 6","Lat":10.754548,"Lng":106.637995,"K":0},{"StationId":719,"StationOrder":29,"StationDirection":0,"RouteId":98,"RouteVarId":2,"StationCode":"Q6 040","StationName":"Ngân hàng ACB","pathPoints":"106.63799286,10.75454807 106.63961029,10.75452137 106.64124298,10.75429535","Address":"871, đường Hồng Bàng, Quận 6","Lat":10.754295,"Lng":106.641245,"K":0},{"StationId":721,"StationOrder":30,"StationDirection":0,"RouteId":98,"RouteVarId":2,"StationCode":"Q6 041","StationName":"Trường Nguyễn Đức Cảnh","pathPoints":"106.64124298,10.75429535 106.64400482,10.75402069","Address":"799, đường Hồng Bàng, Quận 6","Lat":10.754021,"Lng":106.644003,"K":0},{"StationId":723,"StationOrder":31,"StationDirection":0,"RouteId":98,"RouteVarId":2,"StationCode":"Q6 042","StationName":"Chùa Nam Phổ Đà","pathPoints":"106.64400482,10.75402069 106.64595795,10.75378895","Address":"735, đường Hồng Bàng, Quận 6","Lat":10.753789,"Lng":106.645955,"K":0},{"StationId":464,"StationOrder":32,"StationDirection":0,"RouteId":98,"RouteVarId":2,"StationCode":"Q5 023","StationName":"Bến xe Chợ Lớn","pathPoints":"106.64595795,10.75378895 106.65233612,10.75333118","Address":"555, đường Hồng Bàng, Quận 5","Lat":10.753331,"Lng":106.652334,"K":0},{"StationId":8,"StationOrder":33,"StationDirection":0,"RouteId":98,"RouteVarId":2,"StationCode":"BX14","StationName":"Bến xe Chợ Lớn","pathPoints":"106.65233612,10.75333118 106.65377045,10.75363064 106.65330505,10.75169659 106.65313721,10.75147057 106.65296936,10.75133324 106.65256500,10.75125313","Address":"GA HKXB CHO LON, đường Lê Quang Sung, Quận 5","Lat":10.751253128051758,"Lng":106.6525650024414,"K":0},{"StationId":8,"StationOrder":0,"StationDirection":1,"RouteId":98,"RouteVarId":1,"StationCode":"BX14","StationName":"Bến xe Chợ Lớn","pathPoints":"","Address":"GA HKXB CHO LON, đường Lê Quang Sung, Quận 5","Lat":10.751253128051758,"Lng":106.6525650024414,"K":0},{"StationId":621,"StationOrder":1,"StationDirection":1,"RouteId":98,"RouteVarId":1,"StationCode":"Q6 071","StationName":"Trường Võ Văn Tần","pathPoints":"106.65256500,10.75125313 106.65257263,10.75107002 106.65101624,10.75099564 106.64959717,10.75114346 106.64966583,10.75224495 106.64974976,10.75227070 106.64974976,10.75227070","Address":"96-98, đường Phạm Đình Hổ, Quận 6","Lat":10.752271,"Lng":106.64975,"K":0},{"StationId":620,"StationOrder":2,"StationDirection":1,"RouteId":98,"RouteVarId":1,"StationCode":"Q11 094","StationName":"Cây Mai","pathPoints":"106.64974976,10.75227070 106.64974976,10.75227070 106.64965057,10.75232887 106.64976501,10.75360966 106.64929199,10.75365543 106.64926147,10.75368881","Address":"384, đường Hồng Bàng, Quận 11","Lat":10.753689,"Lng":106.64926,"K":0},{"StationId":622,"StationOrder":3,"StationDirection":1,"RouteId":98,"RouteVarId":1,"StationCode":"Q11 095","StationName":"Lò Siêu","pathPoints":"106.64926147,10.75368881 106.64924622,10.75365734 106.64683533,10.75390339 106.64678955,10.75395203","Address":"508, đường Hồng Bàng, Quận 11","Lat":10.753952,"Lng":106.646787,"K":0},{"StationId":624,"StationOrder":4,"StationDirection":1,"RouteId":98,"RouteVarId":1,"StationCode":"Q11 096","StationName":"Cây Gõ","pathPoints":"106.64678955,10.75395203 106.64673615,10.75390530 106.64438629,10.75417805 106.64437103,10.75423241","Address":"638-640, đường Hồng Bàng, Quận 11","Lat":10.754232,"Lng":106.644368,"K":0},{"StationId":625,"StationOrder":5,"StationDirection":1,"RouteId":98,"RouteVarId":1,"StationCode":"Q11 097","StationName":"Chùa Huê Lâm","pathPoints":"106.64437103,10.75423241 106.64122772,10.75455761","Address":"690 (138), đường Hồng Bàng, Quận 11","Lat":10.754558,"Lng":106.641229,"K":0},{"StationId":623,"StationOrder":6,"StationDirection":1,"RouteId":98,"RouteVarId":1,"StationCode":"Q11 098","StationName":"Tân Hóa","pathPoints":"106.64122772,10.75455761 106.64122772,10.75455761 106.64121246,10.75447941 106.63842773,10.75477028 106.63842773,10.75477028","Address":"786, đường Hồng Bàng, Quận 11","Lat":10.75477,"Lng":106.638428,"K":0},{"StationId":626,"StationOrder":7,"StationDirection":1,"RouteId":98,"RouteVarId":1,"StationCode":"Q6 038","StationName":"Trường Mạc Đỉnh Chi","pathPoints":"106.63842773,10.75477028 106.63842773,10.75477028 106.63842773,10.75477028 106.63742828,10.75472736 106.63700104,10.75477982 106.63661194,10.75482178 106.63609314,10.75479031 106.63559723,10.75467968 106.63557434,10.75473213 106.63557434,10.75473213 106.63557434,10.75473213","Address":"832-834, đường Hồng Bàng, Quận 6","Lat":10.754732,"Lng":106.635574,"K":0},{"StationId":4763,"StationOrder":8,"StationDirection":1,"RouteId":98,"RouteVarId":1,"StationCode":"Q6 005","StationName":"Coop mart Phú Lâm","pathPoints":"106.63557434,10.75473213 106.63557434,10.75473213 106.63495636,10.75435257 106.63436127,10.75423717 106.63419342,10.75413704 106.63374329,10.75425816 106.63374329,10.75425816","Address":"Đối diện 35, đường Bà Hom, Quận 6","Lat":10.754258,"Lng":106.633746,"K":0},{"StationId":4764,"StationOrder":9,"StationDirection":1,"RouteId":98,"RouteVarId":1,"StationCode":"Q6 006","StationName":"Chợ Phú Lâm","pathPoints":"106.63374329,10.75425816 106.63059998,10.75486374","Address":"64A3-64A4, đường Bà Hom, Quận 6","Lat":10.754864,"Lng":106.630602,"K":0},{"StationId":4765,"StationOrder":10,"StationDirection":1,"RouteId":98,"RouteVarId":1,"StationCode":"Q6 007","StationName":"Kim Ngân","pathPoints":"106.63059998,10.75486374 106.62899017,10.75519085","Address":"100-102, đường Bà Hom, Quận 6","Lat":10.755191,"Lng":106.628993,"K":0},{"StationId":4766,"StationOrder":11,"StationDirection":1,"RouteId":98,"RouteVarId":1,"StationCode":"Q6 008","StationName":"Ngã 4 Da Sà","pathPoints":"106.62899017,10.75519085 106.62656403,10.75566483","Address":"248-250, đường Bà Hom, Quận 6","Lat":10.755665,"Lng":106.626563,"K":0},{"StationId":3455,"StationOrder":12,"StationDirection":1,"RouteId":98,"RouteVarId":1,"StationCode":"QBT 135","StationName":"Siêu thị Phú Lâm","pathPoints":"106.62656403,10.75566483 106.62656403,10.75566483 106.62485504,10.75591850 106.62393188,10.75619221 106.62246704,10.75680351 106.62155151,10.75709915 106.62056732,10.75720119","Address":"334, đường Tỉnh lộ 10,Tân Tạo, Hồ Chí Minh, Việt Nam, Quận Bình Tân","Lat":10.757201,"Lng":106.620567,"K":0},{"StationId":3457,"StationOrder":13,"StationDirection":1,"RouteId":98,"RouteVarId":1,"StationCode":"QBT 136","StationName":"Chợ Phú Lâm","pathPoints":"106.62056732,10.75720119 106.61920166,10.75745678 106.61835480,10.75748062","Address":"408, đường Tỉnh lộ 10,Tân Tạo, Hồ Chí Minh, Việt Nam, Quận Bình Tân","Lat":10.757481,"Lng":106.618355,"K":0},{"StationId":3453,"StationOrder":14,"StationDirection":1,"RouteId":98,"RouteVarId":1,"StationCode":"QBT 165","StationName":"Da sà cũ","pathPoints":"106.61835480,10.75748062 106.61546326,10.75775719","Address":"491, đường Tỉnh lộ 10,Tân Tạo, Hồ Chí Minh, Việt Nam, Quận Bình Tân","Lat":10.757757,"Lng":106.615464,"K":0},{"StationId":3459,"StationOrder":15,"StationDirection":1,"RouteId":98,"RouteVarId":1,"StationCode":"QBT 138","StationName":"Kim Ngân","pathPoints":"106.61546326,10.75775719 106.61310577,10.75822735","Address":"570, đường Tỉnh lộ 10,Tân Tạo, Hồ Chí Minh, Việt Nam, Quận Bình Tân","Lat":10.758227,"Lng":106.613104,"K":0},{"StationId":3460,"StationOrder":16,"StationDirection":1,"RouteId":98,"RouteVarId":1,"StationCode":"QBT 139","StationName":"Da sà","pathPoints":"106.61310577,10.75822735 106.61270142,10.75835323 106.61214447,10.75834751 106.61117554,10.75805759 106.61052704,10.75789452 106.61010742,10.75788403","Address":"686, đường Tỉnh lộ 10,Tân Tạo, Hồ Chí Minh, Việt Nam, Quận Bình Tân","Lat":10.757884,"Lng":106.610107,"K":0},{"StationId":3461,"StationOrder":17,"StationDirection":1,"RouteId":98,"RouteVarId":1,"StationCode":"QBT 140","StationName":"Chùa Mai Sơn","pathPoints":"106.61010742,10.75788403 106.61010742,10.75788403 106.60987091,10.75788403 106.60916138,10.75794029 106.60880280,10.75798988 106.60811615,10.75808907 106.60768890,10.75813007 106.60769653,10.75816059 106.60769653,10.75816059","Address":"824-810, đường Tỉnh lộ 10,Tân Tạo, Hồ Chí Minh, Việt Nam, Quận Bình Tân","Lat":10.758161,"Lng":106.607697,"K":0},{"StationId":3423,"StationOrder":18,"StationDirection":1,"RouteId":98,"RouteVarId":1,"StationCode":"QBT 141","StationName":"Da sà mới","pathPoints":"106.60769653,10.75816059 106.60697174,10.75818443 106.60636139,10.75795269 106.60543823,10.75667667 106.60459900,10.75532818","Address":"932, đường Tỉnh lộ 10,Tân Tạo, Hồ Chí Minh, Việt Nam, Quận Bình Tân","Lat":10.755328,"Lng":106.604599,"K":0},{"StationId":2310,"StationOrder":19,"StationDirection":1,"RouteId":98,"RouteVarId":1,"StationCode":"QBT 142","StationName":"Kim Thành","pathPoints":"106.60459900,10.75532818 106.60430145,10.75497437 106.60404968,10.75480652 106.60335541,10.75468540 106.60169983,10.75474167","Address":"1050, đường Tỉnh lộ 10,Tân Tạo, Hồ Chí Minh, Việt Nam, Quận Bình Tân","Lat":10.754742,"Lng":106.6017,"K":0},{"StationId":2312,"StationOrder":20,"StationDirection":1,"RouteId":98,"RouteVarId":1,"StationCode":"QBT 143","StationName":"Trung tâm dạy nghề","pathPoints":"106.60169983,10.75474167 106.60150146,10.75468540 106.60077667,10.75471973 106.59999084,10.75473976 106.59979248,10.75473976 106.59915924,10.75483036 106.59845734,10.75496006 106.59794617,10.75509644 106.59777069,10.75519848","Address":"1146, đường Tỉnh lộ 10,Tân Tạo, Hồ Chí Minh, Việt Nam, Quận Bình Tân","Lat":10.755198,"Lng":106.597771,"K":0},{"StationId":2313,"StationOrder":21,"StationDirection":1,"RouteId":98,"RouteVarId":1,"StationCode":"QBT 144","StationName":"Chợ Bình Trị Đông","pathPoints":"106.59777069,10.75519848 106.59744263,10.75521183 106.59379578,10.75607109","Address":"1230, đường Tỉnh lộ 10,Tân Tạo, Hồ Chí Minh, Việt Nam, Quận Bình Tân","Lat":10.756071,"Lng":106.593796,"K":0},{"StationId":3449,"StationOrder":22,"StationDirection":1,"RouteId":98,"RouteVarId":1,"StationCode":"QBT 156","StationName":"Phòng Y học ","pathPoints":"106.59379578,10.75607109 106.59033966,10.75673008 106.58862305,10.75696182 106.58694458,10.75683498","Address":"1335, đường Tỉnh lộ 10,Tân Tạo, Hồ Chí Minh, Việt Nam, Quận Bình Tân","Lat":10.756835,"Lng":106.586945,"K":0},{"StationId":3466,"StationOrder":23,"StationDirection":1,"RouteId":98,"RouteVarId":1,"StationCode":"QBT 146","StationName":"Khang Mỹ Lạc","pathPoints":"106.58694458,10.75683498 106.58644104,10.75687695 106.58506012,10.75718307 106.58325195,10.75769424","Address":"1480, đường Tỉnh lộ 10,Tân Tạo, Hồ Chí Minh, Việt Nam, Quận Bình Tân","Lat":10.757694,"Lng":106.583252,"K":0},{"StationId":3463,"StationOrder":24,"StationDirection":1,"RouteId":98,"RouteVarId":1,"StationCode":"QBT 147","StationName":"Đạt Hòa","pathPoints":"106.58325195,10.75769424 106.58085632,10.75830269","Address":"1598, đường Tỉnh lộ 10,Tân Tạo, Hồ Chí Minh, Việt Nam, Quận Bình Tân","Lat":10.758303,"Lng":106.580856,"K":0},{"StationId":3464,"StationOrder":25,"StationDirection":1,"RouteId":98,"RouteVarId":1,"StationCode":"QBT 148","StationName":"Ngã 4 Bà Hom","pathPoints":"106.58085632,10.75830269 106.58054352,10.75837898 106.57990265,10.75851631 106.57894135,10.75877476 106.57855988,10.75883484","Address":"1724, đường Tỉnh lộ 10,Tân Tạo, Hồ Chí Minh, Việt Nam, Quận Bình Tân","Lat":10.758835,"Lng":106.57856,"K":0},{"StationId":3465,"StationOrder":26,"StationDirection":1,"RouteId":98,"RouteVarId":1,"StationCode":"QBT 149","StationName":"Chợ Bà Hom","pathPoints":"106.57855988,10.75883484 106.57563019,10.75958538","Address":"1754, đường Tỉnh lộ 10,Tân Tạo, Hồ Chí Minh, Việt Nam, Quận Bình Tân","Lat":10.759585,"Lng":106.57563,"K":0},{"StationId":3468,"StationOrder":27,"StationDirection":1,"RouteId":98,"RouteVarId":1,"StationCode":"QBT 150","StationName":"Công ty XNK Tam Phát","pathPoints":"106.57563019,10.75958538 106.57563019,10.75957966 106.57460022,10.75986004 106.57357788,10.76033020 106.57253265,10.76078033 106.57192230,10.76106167 106.57151031,10.76127529","Address":"1806-1810, đường Tỉnh lộ 10,Tân Tạo, Hồ Chí Minh, Việt Nam, Quận Bình Tân","Lat":10.761275,"Lng":106.57151,"K":0},{"StationId":3289,"StationOrder":28,"StationDirection":1,"RouteId":98,"RouteVarId":1,"StationCode":"HBC 280","StationName":"Võ Văn Vân","pathPoints":"106.57151031,10.76127529 106.57111359,10.76143074 106.56974792,10.76202965 106.56775665,10.76292992 106.56744385,10.76313782","Address":"1A7, đường Trần Văn Giàu, Huyện Bình Chánh","Lat":10.763138,"Lng":106.567447,"K":0},{"StationId":3288,"StationOrder":29,"StationDirection":1,"RouteId":98,"RouteVarId":1,"StationCode":"HBC 281","StationName":"Coop mart Vĩnh Lộc B","pathPoints":"106.56744385,10.76313782 106.56520081,10.76412010 106.56324768,10.76509857","Address":"1A24/2, đường Trần Văn Giàu, Huyện Bình Chánh","Lat":10.765099,"Lng":106.563247,"K":0},{"StationId":3290,"StationOrder":30,"StationDirection":1,"RouteId":98,"RouteVarId":1,"StationCode":"HBC 282","StationName":"Trường Trung học cơ sở Lê Minh Xuân","pathPoints":"106.56324768,10.76509857 106.55967712,10.76667976 106.55792999,10.76757622","Address":"1A/31, đường Trần Văn Giàu, Huyện Bình Chánh","Lat":10.767576,"Lng":106.557931,"K":0},{"StationId":3467,"StationOrder":31,"StationDirection":1,"RouteId":98,"RouteVarId":1,"StationCode":"HBC 283","StationName":"Mầm non Hoa Thiên Tuế","pathPoints":"106.55792999,10.76757622 106.55792999,10.76757622 106.55458069,10.76920414 106.55438232,10.76938343","Address":"1A59/2, đường Trần Văn Giàu, Huyện Bình Chánh","Lat":10.769383,"Lng":106.554379,"K":0},{"StationId":3470,"StationOrder":32,"StationDirection":1,"RouteId":98,"RouteVarId":1,"StationCode":"HBC 284","StationName":"Trường tiểu học Phạm Văn Hai","pathPoints":"106.55438232,10.76938343 106.55039978,10.77138042","Address":"2A/2, đường Tỉnh lộ 10, Huyện Bình Chánh","Lat":10.77138,"Lng":106.550399,"K":0},{"StationId":3469,"StationOrder":33,"StationDirection":1,"RouteId":98,"RouteVarId":1,"StationCode":"HBC 285","StationName":"Bệnh viện Tâm thần Bình Minh","pathPoints":"106.55039978,10.77138042 106.54650116,10.77342510","Address":"2A/27/1, đường Tỉnh lộ 10, Huyện Bình Chánh","Lat":10.773425,"Lng":106.546504,"K":0},{"StationId":3472,"StationOrder":34,"StationDirection":1,"RouteId":98,"RouteVarId":1,"StationCode":"HBC 286","StationName":"Ủy ban xã Phạm Văn Hai","pathPoints":"106.54650116,10.77342510 106.54305267,10.77512741","Address":"Ủy ban xã Phạm Văn Hai, đường Tỉnh lộ 10, Huyện Bình Chánh","Lat":10.775127,"Lng":106.543055,"K":0},{"StationId":3471,"StationOrder":35,"StationDirection":1,"RouteId":98,"RouteVarId":1,"StationCode":"HBC 287","StationName":"Ủy ban xã Lê Minh Xuân","pathPoints":"106.54305267,10.77512741 106.53804779,10.77763557","Address":"2A/63, đường Tỉnh lộ 10 Bình Chánh, Huyện Bình Chánh","Lat":10.777636,"Lng":106.53805,"K":0},{"StationId":3474,"StationOrder":36,"StationDirection":1,"RouteId":98,"RouteVarId":1,"StationCode":"HBC 288","StationName":"Kênh A","pathPoints":"106.53804779,10.77763557 106.53321838,10.78004932","Address":"2A/94, đường Tỉnh lộ 10 Bình Chánh, Huyện Bình Chánh","Lat":10.780049,"Lng":106.533217,"K":0},{"StationId":3473,"StationOrder":37,"StationDirection":1,"RouteId":98,"RouteVarId":1,"StationCode":"HBC 291","StationName":"Hoàng My","pathPoints":"106.53321838,10.78004932 106.52875519,10.78230000","Address":"3A.11, đường Tỉnh lộ 10 Bình Chánh, Huyện Bình Chánh","Lat":10.7823,"Lng":106.528759,"K":0},{"StationId":3476,"StationOrder":38,"StationDirection":1,"RouteId":98,"RouteVarId":1,"StationCode":"HBC 292","StationName":"Thịnh Thành","pathPoints":"106.52875519,10.78230000 106.52333832,10.78499222","Address":"3A35/1, đường Tỉnh lộ 10 Bình Chánh, Huyện Bình Chánh","Lat":10.784992,"Lng":106.523336,"K":0},{"StationId":3475,"StationOrder":39,"StationDirection":1,"RouteId":98,"RouteVarId":1,"StationCode":"HBC 293","StationName":"Trường Tiểu học Cầu Xáng","pathPoints":"106.52333832,10.78499222 106.51800537,10.78765392","Address":"3A60, đường Tỉnh lộ 10 Bình Chánh, Huyện Bình Chánh","Lat":10.787654,"Lng":106.518009,"K":0},{"StationId":7210,"StationOrder":40,"StationDirection":1,"RouteId":98,"RouteVarId":1,"StationCode":"BXLT Duc Hue","StationName":"Bến xe Đức Huệ","pathPoints":"106.51800537,10.78765392 106.49682617,10.79828739 106.49202728,10.80063725 106.48040771,10.80832577 106.47440338,10.81237793 106.46817780,10.81651878 106.46166229,10.82091331 106.45753479,10.82365894 106.46279907,10.83096695 106.46455383,10.83395958 106.46556854,10.83539772 106.46614838,10.83617783 106.46672821,10.83674145","Address":"ĐT 824, đường ĐT 824, Ngoại thành","Lat":10.836741,"Lng":106.466725,"K":0}]