[{"StationId":2745,"StationOrder":0,"StationDirection":0,"RouteId":91,"RouteVarId":182,"StationCode":"BX35","StationName":"Bãi xe buýt Thới An","pathPoints":"","Address":"BÃI XE THỚI AN, đường Lê Văn Khương, Quận 12","Lat":10.878466606140137,"Lng":106.64797973632812,"K":0},{"StationId":1746,"StationOrder":1,"StationDirection":0,"RouteId":91,"RouteVarId":182,"StationCode":"Q12 014","StationName":"Ủy Ban nhân dân Phường Thới An","pathPoints":"106.64891052,10.87851048 106.64904785,10.87582016 106.64910889,10.87495995","Address":"Đài liệt sỹ, đường Lê Văn Khương, Quận 12","Lat":10.875496,"Lng":106.648997,"K":0},{"StationId":1745,"StationOrder":2,"StationDirection":0,"RouteId":91,"RouteVarId":182,"StationCode":"Q12 015","StationName":"Bảo hiểm xã hội Quận 12","pathPoints":"106.64910889,10.87495995 106.64922333,10.87310982 106.64929199,10.87143040","Address":"251, đường Lê Văn Khương, Quận 12","Lat":10.872488,"Lng":106.649158,"K":0},{"StationId":1748,"StationOrder":3,"StationDirection":0,"RouteId":91,"RouteVarId":182,"StationCode":"Q12 016","StationName":"Công ty Bia Tiger","pathPoints":"106.64929199,10.87143040 106.64936066,10.86970997 106.64949036,10.86748028","Address":"119, đường Lê Văn Khương, Quận 12","Lat":10.868505,"Lng":106.649351,"K":0},{"StationId":1749,"StationOrder":4,"StationDirection":0,"RouteId":91,"RouteVarId":182,"StationCode":"Q12T018","StationName":"Hiệp Thành 37","pathPoints":"106.64949036,10.86748028 106.64959717,10.86542034","Address":"99, đường Lê Văn Khương, Quận 12","Lat":10.865413,"Lng":106.649513,"K":0},{"StationId":1747,"StationOrder":5,"StationDirection":0,"RouteId":91,"RouteVarId":182,"StationCode":"Q12 017","StationName":"Metro Hiệp Phú","pathPoints":"106.64959717,10.86542034 106.64974213,10.86275005","Address":"Metro Hiệp Phú, đường Lê Văn Khương, Quận 12","Lat":10.862847,"Lng":106.649593,"K":0},{"StationId":2775,"StationOrder":6,"StationDirection":0,"RouteId":91,"RouteVarId":182,"StationCode":"Q12 078","StationName":"Cao su Vina","pathPoints":"106.64974213,10.86275005 106.64975739,10.86211014 106.64929199,10.86198997 106.64903259,10.86190033 106.64859009,10.86170006 106.64762115,10.86116982 106.64756012,10.86108017 106.64737701,10.86100006 106.64682770,10.86071968 106.64672852,10.86065960","Address":"67/3A, đường Quốc lộ 1A, Quận 12","Lat":10.861767,"Lng":106.648536,"K":0},{"StationId":2776,"StationOrder":7,"StationDirection":0,"RouteId":91,"RouteVarId":182,"StationCode":"Q12 079","StationName":"Cây xăng Trung Tín","pathPoints":"106.64672852,10.86065960 106.64382935,10.85908031","Address":"1828, đường Quốc lộ 1A, Quận 12","Lat":10.860302,"Lng":106.645682,"K":0},{"StationId":2777,"StationOrder":8,"StationDirection":0,"RouteId":91,"RouteVarId":182,"StationCode":"Q12 080","StationName":"Trạm điện Hóc Môn","pathPoints":"106.64382935,10.85908031 106.64102173,10.85754013","Address":"1956, đường Quốc lộ 1A, Quận 12","Lat":10.857668,"Lng":106.640918,"K":0},{"StationId":2778,"StationOrder":9,"StationDirection":0,"RouteId":91,"RouteVarId":182,"StationCode":"Q12 081","StationName":"Ngã tư Đình","pathPoints":"106.64102173,10.85754013 106.63844299,10.85614014","Address":"44D, đường Quốc lộ 1A, Quận 12","Lat":10.856256,"Lng":106.638172,"K":0},{"StationId":2779,"StationOrder":10,"StationDirection":0,"RouteId":91,"RouteVarId":182,"StationCode":"Q12 082","StationName":"Nhà lầu","pathPoints":"106.63844299,10.85614014 106.63629913,10.85496998","Address":"228/3, đường Quốc lộ 1A, Quận 12","Lat":10.855055,"Lng":106.636165,"K":0},{"StationId":2781,"StationOrder":11,"StationDirection":0,"RouteId":91,"RouteVarId":182,"StationCode":"Q12 083","StationName":"Trường Nguyễn Du","pathPoints":"106.63629913,10.85496998 106.63259888,10.85295963","Address":"Đối diện Trường Nguyễn Du, đường Quốc lộ 1A, Quận 12","Lat":10.853048,"Lng":106.632469,"K":0},{"StationId":2780,"StationOrder":12,"StationDirection":0,"RouteId":91,"RouteVarId":182,"StationCode":"Q12 084","StationName":"Công viên phần mềm Quang Trung","pathPoints":"106.63259888,10.85295963 106.63105011,10.85212994","Address":"Công viên phần mềm Quang Trung, đường Quốc lộ 1A, Quận 12","Lat":10.852242,"Lng":106.630935,"K":0},{"StationId":2091,"StationOrder":13,"StationDirection":0,"RouteId":91,"RouteVarId":182,"StationCode":"Q12 057","StationName":"Cầu vượt Quang Trung","pathPoints":"106.63105011,10.85212994 106.62950134,10.85138035 106.62734985,10.85037041 106.62670898,10.85007000 106.62644196,10.85004997 106.62625885,10.85011005 106.62618256,10.85023022 106.62615204,10.85033035 106.62616730,10.85046959 106.62626648,10.85054970 106.62651062,10.85066032 106.62748718,10.85101986 106.62767792,10.85105991 106.62795258,10.85101032 106.62850952,10.85091019 106.62962341,10.85068989 106.63027954,10.85054970 106.63091278,10.85035992 106.63121796,10.85023022 106.63152313,10.85004997 106.63188934,10.84974957 106.63273621,10.84914970","Address":"B45, đường Tô Ký, Quận 12","Lat":10.84946,"Lng":106.632174,"K":0},{"StationId":2092,"StationOrder":14,"StationDirection":0,"RouteId":91,"RouteVarId":182,"StationCode":"Q12 060","StationName":"Chợ Cầu","pathPoints":"106.63275146,10.84914970 106.63414001,10.84813976","Address":"84A, đường Tô Ký, Quận 12","Lat":10.848253,"Lng":106.634363,"K":0},{"StationId":3415,"StationOrder":15,"StationDirection":0,"RouteId":91,"RouteVarId":182,"StationCode":"Q12 148","StationName":"Quang Trung","pathPoints":"106.63414001,10.84813976 106.63491821,10.84759045 106.63510132,10.84747028 106.63507080,10.84741020 106.63462067,10.84702015 106.63419342,10.84667969","Address":"119B, đường Nguyễn Văn Quá, Quận 12","Lat":10.846736,"Lng":106.634148,"K":0},{"StationId":3414,"StationOrder":16,"StationDirection":0,"RouteId":91,"RouteVarId":182,"StationCode":"Q12 149","StationName":"Chợ An Sương","pathPoints":"106.63419342,10.84667969 106.63332367,10.84597969 106.63202667,10.84453011 106.63162231,10.84409046","Address":"593, đường Nguyễn Văn Quá, Quận 12","Lat":10.844001,"Lng":106.631423,"K":0},{"StationId":3417,"StationOrder":17,"StationDirection":0,"RouteId":91,"RouteVarId":182,"StationCode":"Q12 150","StationName":"Cafe Venus","pathPoints":"106.63162231,10.84409046 106.63139343,10.84381962 106.63117218,10.84335995 106.63079071,10.84239960 106.63031006,10.84130955 106.63028717,10.84123993","Address":"B168, đường Nguyễn Văn Quá, Quận 12","Lat":10.841826,"Lng":106.630463,"K":0},{"StationId":3416,"StationOrder":18,"StationDirection":0,"RouteId":91,"RouteVarId":182,"StationCode":"Q12 151","StationName":"Trường Phan Bội Châu","pathPoints":"106.63028717,10.84123993 106.63020325,10.84097004 106.63015747,10.84080982 106.63007355,10.84027004 106.62973022,10.83885002","Address":"401, đường Nguyễn Văn Quá, Quận 12","Lat":10.838375,"Lng":106.629535,"K":0},{"StationId":3419,"StationOrder":19,"StationDirection":0,"RouteId":91,"RouteVarId":182,"StationCode":"Q12 152","StationName":"Nhà hàng Đông Phương","pathPoints":"106.62973022,10.83885002 106.62934875,10.83743000 106.62890625,10.83578968 106.62879181,10.83530045","Address":"285, đường Nguyễn Văn Quá, Quận 12","Lat":10.834897,"Lng":106.628602,"K":0},{"StationId":3421,"StationOrder":20,"StationDirection":0,"RouteId":91,"RouteVarId":182,"StationCode":"Q12 153","StationName":"Sân bóng đá Cây Sộp","pathPoints":"106.62877655,10.83526039 106.62847137,10.83417988 106.62812805,10.83312035","Address":"213, đường Nguyễn Văn Quá, Quận 12","Lat":10.8324,"Lng":106.627867,"K":0},{"StationId":3418,"StationOrder":21,"StationDirection":0,"RouteId":91,"RouteVarId":182,"StationCode":"Q12 154","StationName":"Ngân hàng ACB","pathPoints":"106.62812805,10.83312035 106.62732697,10.83059025","Address":"127, đường Nguyễn Văn Quá, Quận 12","Lat":10.830282,"Lng":106.627148,"K":0},{"StationId":3420,"StationOrder":22,"StationDirection":0,"RouteId":91,"RouteVarId":182,"StationCode":"Q12 155","StationName":"Đường song hành QL22","pathPoints":"106.62731171,10.83055019 106.62690735,10.82931995 106.62683868,10.82894039 106.62673950,10.82810020","Address":"1/48, đường Nguyễn Văn Quá, Quận 12","Lat":10.828106,"Lng":106.626713,"K":0},{"StationId":272,"StationOrder":23,"StationDirection":0,"RouteId":91,"RouteVarId":182,"StationCode":"Q12 128","StationName":"Cầu Tham Lương - Siêu thị Thiên Hòa","pathPoints":"106.62673950,10.82810020 106.62670898,10.82777977 106.62669373,10.82703972 106.62654877,10.82602024 106.62595367,10.82662010","Address":"1/17A, đường Trường Chinh, Quận 12","Lat":10.826957,"Lng":106.625828,"K":0},{"StationId":169,"StationOrder":24,"StationDirection":0,"RouteId":91,"RouteVarId":182,"StationCode":"Q12 139","StationName":"Cầu Tham Lương - Siêu thị Thiên Hòa","pathPoints":"106.62595367,10.82662010 106.62528229,10.82740974 106.62519836,10.82752037 106.62503052,10.82740974 106.62522125,10.82717991 106.62560272,10.82676029 106.62599182,10.82637978","Address":"Kế 2/6B, đường Trường Chinh, Quận 12","Lat":10.82624,"Lng":106.62586,"K":0},{"StationId":174,"StationOrder":25,"StationDirection":0,"RouteId":91,"RouteVarId":182,"StationCode":"QTP 010","StationName":"Trạm Dệt Thành Công","pathPoints":"106.62599182,10.82637978 106.62699890,10.82542038 106.62803650,10.82446957 106.62949371,10.82310963 106.62975311,10.82277012 106.63001251,10.82229996 106.63007355,10.82213974","Address":"8, đường Trường Chinh, Quận Tân Phú","Lat":10.822315,"Lng":106.629825,"K":0},{"StationId":173,"StationOrder":26,"StationDirection":0,"RouteId":91,"RouteVarId":182,"StationCode":"QTP 011","StationName":"Trạm KCN Tân Bình","pathPoints":"106.63007355,10.82213974 106.63030243,10.82145977 106.63040161,10.82110023 106.63089752,10.81947041","Address":"881, đường Trường Chinh, Quận Tân Phú","Lat":10.819386,"Lng":106.630615,"K":0},{"StationId":176,"StationOrder":27,"StationDirection":0,"RouteId":91,"RouteVarId":182,"StationCode":"QTP 012","StationName":"Trạm Coopmart Thắng Lợi","pathPoints":"106.63089752,10.81947041 106.63162231,10.81711006","Address":"2, đường Trường Chinh, Quận Tân Phú","Lat":10.817114,"Lng":106.631472,"K":0},{"StationId":175,"StationOrder":28,"StationDirection":0,"RouteId":91,"RouteVarId":182,"StationCode":"QTP 013","StationName":"Chế Lan Viên","pathPoints":"106.63162231,10.81711006 106.63288116,10.81299973","Address":"28/7B, đường Trường Chinh, Quận Tân Phú","Lat":10.812878,"Lng":106.632748,"K":0},{"StationId":177,"StationOrder":29,"StationDirection":0,"RouteId":91,"RouteVarId":182,"StationCode":"QTP 014","StationName":"Trạm Đài Liệt Sỹ","pathPoints":"106.63288116,10.81299973 106.63311768,10.81221962 106.63381195,10.80986977 106.63433838,10.80823040","Address":"1/3, đường Trường Chinh, Quận Tân Phú","Lat":10.808209,"Lng":106.634262,"K":0},{"StationId":2292,"StationOrder":30,"StationDirection":0,"RouteId":91,"RouteVarId":182,"StationCode":"QTP 015","StationName":"Siêu thị BigC","pathPoints":"106.63433838,10.80823040 106.63440704,10.80799961 106.63448334,10.80760002 106.63481903,10.80665016 106.63497925,10.80636978","Address":"1/1, đường Trường Chinh, Quận Tân Phú","Lat":10.806212,"Lng":106.634773,"K":0},{"StationId":2291,"StationOrder":31,"StationDirection":0,"RouteId":91,"RouteVarId":182,"StationCode":"QTP 016","StationName":"Trạm Tân Kỳ Tân Quý","pathPoints":"106.63500977,10.80628967 106.63530731,10.80535984 106.63545990,10.80486012","Address":"33/24 (659-661), đường Trường Chinh, Quận Tân Phú","Lat":10.8048,"Lng":106.635269,"K":0},{"StationId":2294,"StationOrder":32,"StationDirection":0,"RouteId":91,"RouteVarId":182,"StationCode":"QTP 017","StationName":"Trạm Bà Quẹo","pathPoints":"106.63545990,10.80486012 106.63601685,10.80313015 106.63610840,10.80288029 106.63636780,10.80230999 106.63642883,10.80220985","Address":"593A, đường Trường Chinh, Quận Tân Phú","Lat":10.80215,"Lng":106.63633,"K":0},{"StationId":2392,"StationOrder":33,"StationDirection":0,"RouteId":91,"RouteVarId":182,"StationCode":"QTP 001","StationName":"Trạm Ngã ba Bà Quẹo","pathPoints":"106.63642883,10.80220985 106.63672638,10.80177975 106.63670349,10.80161953 106.63681793,10.80111980 106.63687134,10.80091953","Address":"971, đường Âu Cơ, Quận Tân Phú","Lat":10.800759,"Lng":106.636814,"K":0},{"StationId":2395,"StationOrder":34,"StationDirection":0,"RouteId":91,"RouteVarId":182,"StationCode":"QTP 002","StationName":"Trạm chợ Võ Thành Trang","pathPoints":"106.63687134,10.80091953 106.63760376,10.79823971","Address":"885-887, đường Âu Cơ, Quận Tân Phú","Lat":10.798211,"Lng":106.637497,"K":0},{"StationId":4312,"StationOrder":35,"StationDirection":0,"RouteId":91,"RouteVarId":182,"StationCode":"QTP 186","StationName":"Âu Cơ","pathPoints":"106.63749695,10.79821110 106.63819122,10.79612732 106.63802338,10.79440784","Address":"1033, đường Lũy Bán Bích, Quận Tân Phú","Lat":10.794367,"Lng":106.637898,"K":0},{"StationId":4313,"StationOrder":36,"StationDirection":0,"RouteId":91,"RouteVarId":182,"StationCode":"QTP 187","StationName":"Thống Nhất","pathPoints":"106.63802338,10.79440784 106.63744354,10.79127407","Address":"903, đường Lũy Bán Bích, Quận Tân Phú","Lat":10.789993,"Lng":106.637088,"K":0},{"StationId":4314,"StationOrder":37,"StationDirection":0,"RouteId":91,"RouteVarId":182,"StationCode":"QTP 188","StationName":"Vườn Lài","pathPoints":"106.63744354,10.79127407 106.63688660,10.78776360","Address":"821, đường Lũy Bán Bích, Quận Tân Phú","Lat":10.787785,"Lng":106.636766,"K":0},{"StationId":3574,"StationOrder":38,"StationDirection":0,"RouteId":91,"RouteVarId":182,"StationCode":"QTP 189","StationName":"Ủy Ban nhân dân quận Tân Phú","pathPoints":"106.63688660,10.78776360 106.63642120,10.78474998","Address":"đối diện 566, đường Lũy Bán Bích, Quận Tân Phú","Lat":10.78534,"Lng":106.636385,"K":0},{"StationId":3575,"StationOrder":39,"StationDirection":0,"RouteId":91,"RouteVarId":182,"StationCode":"QTP 190","StationName":"Phú thọ Hòa","pathPoints":"106.63648224,10.78474045 106.63593292,10.78106976","Address":"721, đường Lũy Bán Bích, Quận Tân Phú","Lat":10.782489,"Lng":106.63594,"K":0},{"StationId":3576,"StationOrder":40,"StationDirection":0,"RouteId":91,"RouteVarId":182,"StationCode":"QTP 191","StationName":"Thoại Ngọc Hầu","pathPoints":"106.63593292,10.78106976 106.63581085,10.78044987 106.63555908,10.77958965 106.63524628,10.77875996 106.63516998,10.77855015","Address":"611, đường Lũy Bán Bích, Quận Tân Phú","Lat":10.779211,"Lng":106.635237,"K":0},{"StationId":3577,"StationOrder":41,"StationDirection":0,"RouteId":91,"RouteVarId":182,"StationCode":"QTPT220","StationName":"Đình Hòa Thạnh","pathPoints":"106.63516998,10.77855015 106.63487244,10.77789021 106.63468933,10.77756023 106.63436890,10.77709007 106.63413239,10.77670002 106.63377380,10.77618980","Address":"531, đường Lũy Bán Bích, Quận Tân Phú","Lat":10.777061,"Lng":106.634159,"K":0},{"StationId":3578,"StationOrder":42,"StationDirection":0,"RouteId":91,"RouteVarId":182,"StationCode":"QTP 193","StationName":"công ty nhựa Tân Phú","pathPoints":"106.63377380,10.77618980 106.63308716,10.77515984 106.63287354,10.77474976 106.63269806,10.77439022 106.63244629,10.77373981","Address":"425, đường Lũy Bán Bích, Quận Tân Phú","Lat":10.774632,"Lng":106.632625,"K":0},{"StationId":3579,"StationOrder":43,"StationDirection":0,"RouteId":91,"RouteVarId":182,"StationCode":"QTP 194","StationName":"Cây Keo","pathPoints":"106.63244629,10.77373981 106.63220978,10.77299023 106.63210297,10.77237988 106.63195038,10.77141953 106.63185883,10.77079010","Address":"295-297, đường Lũy Bán Bích, Quận Tân Phú","Lat":10.771633,"Lng":106.631831,"K":0},{"StationId":1570,"StationOrder":44,"StationDirection":0,"RouteId":91,"RouteVarId":182,"StationCode":"QTP 137","StationName":"Ngã 4 Hòa Bình","pathPoints":"106.63185883,10.77079010 106.63179779,10.77029037 106.63313293,10.76990032","Address":"69, đường Hòa Bình, Quận Tân Phú","Lat":10.769694,"Lng":106.633057,"K":0},{"StationId":1567,"StationOrder":45,"StationDirection":0,"RouteId":91,"RouteVarId":182,"StationCode":"QTP 136","StationName":"Cây Xăng Hòa Bình","pathPoints":"106.63313293,10.76990032 106.63390350,10.76963043 106.63421631,10.76949978 106.63432312,10.76947021 106.63439941,10.76947975 106.63446045,10.76947975 106.63500977,10.76953030 106.63530731,10.76955986","Address":"176/26, đường Hòa Bình, Quận Tân Phú","Lat":10.769457,"Lng":106.634797,"K":0},{"StationId":1571,"StationOrder":46,"StationDirection":0,"RouteId":91,"RouteVarId":182,"StationCode":"Q11 045","StationName":"Thuỷ Tạ","pathPoints":"106.63530731,10.76955986 106.63571167,10.76959038 106.63597870,10.76955986 106.63630676,10.76949024 106.63687134,10.76930046 106.63793182,10.76887035 106.63796234,10.76885033","Address":"đd 90 (nhà hàng Thủy Tạ Đầm Sen), đường Hòa Bình, Quận 11","Lat":10.768814,"Lng":106.637866,"K":0},{"StationId":1569,"StationOrder":47,"StationDirection":0,"RouteId":91,"RouteVarId":182,"StationCode":"Q11 046","StationName":"Bãi xe buýt Đầm Sen","pathPoints":"106.63796234,10.76885033 106.63893890,10.76850033 106.63918304,10.76838970 106.63963318,10.76807976","Address":"7B (Bến xe buýt Đầm Sen), đường Hòa Bình, Quận 11","Lat":10.767929,"Lng":106.639776,"K":0},{"StationId":1043,"StationOrder":48,"StationDirection":0,"RouteId":91,"RouteVarId":182,"StationCode":"Q11 047","StationName":"Ngã 4 Hòa Bình","pathPoints":"106.63963318,10.76807976 106.64053345,10.76756001 106.64096832,10.76729012 106.64115143,10.76718998 106.64138794,10.76710033 106.64158630,10.76704025","Address":"3 (79), đường Hòa Bình, Quận 11","Lat":10.76698,"Lng":106.641571,"K":0},{"StationId":1044,"StationOrder":49,"StationDirection":0,"RouteId":91,"RouteVarId":182,"StationCode":"Q11 041","StationName":"Tòa án nhân dân Q11","pathPoints":"106.64158630,10.76704025 106.64217377,10.76686954 106.64215851,10.76685047 106.64215851,10.76679993 106.64221191,10.76669979 106.64231110,10.76665020 106.64241028,10.76665974 106.64248657,10.76673031 106.64337921,10.76642036","Address":"85, đường Ông Ích Khiêm, Quận 11","Lat":10.766342,"Lng":106.643349,"K":0},{"StationId":1045,"StationOrder":50,"StationDirection":0,"RouteId":91,"RouteVarId":182,"StationCode":"Q11 042","StationName":"Ông Ích Khiêm","pathPoints":"106.64337921,10.76642036 106.64517975,10.76581001","Address":"43, đường Ông Ích Khiêm, Quận 11","Lat":10.765737,"Lng":106.645157,"K":0},{"StationId":1046,"StationOrder":51,"StationDirection":0,"RouteId":91,"RouteVarId":182,"StationCode":"Q11 038","StationName":"Chợ Lãnh Binh Thăng","pathPoints":"106.64517975,10.76581001 106.64584351,10.76558018 106.64633942,10.76539993 106.64646149,10.76531982 106.64736938,10.76480961 106.64801025,10.76445007","Address":"307, đường Lãnh Binh Thăng, Quận 11","Lat":10.764374,"Lng":106.647964,"K":0},{"StationId":1047,"StationOrder":52,"StationDirection":0,"RouteId":91,"RouteVarId":182,"StationCode":"Q11 039","StationName":"CV Lãnh Binh Thăng","pathPoints":"106.64801025,10.76445007 106.65006256,10.76334000","Address":"281A (Siêu thị Vinatex), đường Lãnh Binh Thăng, Quận 11","Lat":10.763238,"Lng":106.650167,"K":0},{"StationId":1048,"StationOrder":53,"StationDirection":0,"RouteId":91,"RouteVarId":182,"StationCode":"Q11 048","StationName":"Trường TH Phú Thọ","pathPoints":"106.65006256,10.76334000 106.65106964,10.76280022 106.65122223,10.76276016 106.65222168,10.76266003 106.65222931,10.76196003 106.65229797,10.76167011 106.65241241,10.76138020 106.65270233,10.76097012","Address":"316, đường Tôn Thất Hiệp, Quận 11","Lat":10.761051,"Lng":106.652656,"K":0},{"StationId":153,"StationOrder":54,"StationDirection":0,"RouteId":91,"RouteVarId":182,"StationCode":"Q11 013","StationName":"Chợ Thiết","pathPoints":"106.65270233,10.76097012 106.65290070,10.76076984 106.65316772,10.76056004 106.65328979,10.76018047 106.65373230,10.76043034","Address":"1163, đường Đường 3/2, Quận 11","Lat":10.760371,"Lng":106.653763,"K":0},{"StationId":154,"StationOrder":55,"StationDirection":0,"RouteId":91,"RouteVarId":182,"StationCode":"Q11 014","StationName":"Lê Đại Hành","pathPoints":"106.65373230,10.76043034 106.65563965,10.76144981 106.65595245,10.76163960","Address":"1007 (1029), đường Đường 3/2, Quận 11","Lat":10.761562,"Lng":106.656006,"K":0},{"StationId":1049,"StationOrder":56,"StationDirection":0,"RouteId":91,"RouteVarId":182,"StationCode":"Q11 049","StationName":"Chợ Thiết","pathPoints":"106.65595245,10.76163960 106.65698242,10.76220989 106.65701294,10.76204014 106.65704346,10.76103973","Address":"167-169, đường Phó Cơ Điều, Quận 11","Lat":10.761036,"Lng":106.656982,"K":0},{"StationId":281,"StationOrder":57,"StationDirection":0,"RouteId":91,"RouteVarId":182,"StationCode":"Q5 043","StationName":"Bệnh viện Chợ Rẫy","pathPoints":"106.65698242,10.76103592 106.65698242,10.76103592 106.65704346,10.75932312 106.65706635,10.75745678 106.65812683,10.75765705 106.66012573,10.75807858 106.66012573,10.75807858","Address":"201A, đường Nguyễn Chí Thanh, Quận 5","Lat":10.758079,"Lng":106.660128,"K":0},{"StationId":616,"StationOrder":58,"StationDirection":0,"RouteId":91,"RouteVarId":182,"StationCode":"Q5 034","StationName":"Bệnh viện Hùng Vương","pathPoints":"106.66012573,10.75807858 106.66153717,10.75834274 106.66220856,10.75570202","Address":"Hông Bệnh viện Hùng Vương, đường Lý Thường Kiệt, Quận 5","Lat":10.755702,"Lng":106.66221,"K":0},{"StationId":434,"StationOrder":59,"StationDirection":0,"RouteId":91,"RouteVarId":182,"StationCode":"Q5 018","StationName":"Bệnh viện Hùng Vương","pathPoints":"106.66220856,10.75570202 106.66234589,10.75540733 106.66107178,10.75519562","Address":"132, đường Hồng Bàng, Quận 5","Lat":10.755196,"Lng":106.661072,"K":0},{"StationId":436,"StationOrder":60,"StationDirection":0,"RouteId":91,"RouteVarId":182,"StationCode":"Q5 019","StationName":"Bệnh viện Chợ Rẫy","pathPoints":"106.66107178,10.75519562 106.66039276,10.75501156 106.65950012,10.75487518","Address":"172, đường Hồng Bàng, Quận 5","Lat":10.754875,"Lng":106.659501,"K":0},{"StationId":397,"StationOrder":61,"StationDirection":0,"RouteId":91,"RouteVarId":182,"StationCode":"Q5 013","StationName":"Rạp Đại Quang","pathPoints":"106.65950012,10.75487518 106.65823364,10.75456905 106.65821075,10.75424194 106.65859985,10.75310421 106.65879059,10.75244522","Address":"81, đường Châu Văn Liêm, Quận 5","Lat":10.752445,"Lng":106.658792,"K":0},{"StationId":137,"StationOrder":62,"StationDirection":0,"RouteId":91,"RouteVarId":182,"StationCode":"Q5 014","StationName":"Bưu điện Quận 5","pathPoints":"106.65879059,10.75244522 106.65889740,10.75138092","Address":"13-15, đường Châu Văn Liêm, Quận 5","Lat":10.751381,"Lng":106.658894,"K":0},{"StationId":617,"StationOrder":63,"StationDirection":0,"RouteId":91,"RouteVarId":182,"StationCode":"Q8 110","StationName":"Tùng Thiện Vương","pathPoints":"106.65889740,10.75138092 106.65905762,10.75088501 106.65901947,10.75078487 106.65907288,10.75065899 106.65917206,10.75060558 106.65929413,10.75060558 106.65965271,10.75050068 106.65982056,10.75041103 106.65991974,10.75021553 106.66042328,10.74874020 106.66049957,10.74831867 106.66050720,10.74790764 106.66036224,10.74702168 106.65978241,10.74688530 106.65922546,10.74632645 106.65883636,10.74577808 106.65692902,10.74483013","Address":"388, đường Tùng Thiện Vương, Quận 8","Lat":10.74483,"Lng":106.656926,"K":0},{"StationId":618,"StationOrder":64,"StationDirection":0,"RouteId":91,"RouteVarId":182,"StationCode":"Q8 069","StationName":"Chùa Pháp Quang","pathPoints":"106.65692902,10.74483013 106.65617371,10.74440765 106.65563965,10.74380684 106.65553284,10.74354362 106.65547943,10.74324799 106.65550995,10.74296379 106.65557098,10.74267960 106.65628052,10.74075031 106.65614319,10.73864174","Address":"100, đường Quốc lộ 50, Quận 8","Lat":10.738642,"Lng":106.656142,"K":0},{"StationId":619,"StationOrder":65,"StationDirection":0,"RouteId":91,"RouteVarId":182,"StationCode":"Q8 070","StationName":"Bùi Minh Trực","pathPoints":"106.65614319,10.73864174 106.65618896,10.73756695 106.65612793,10.73645973","Address":"224, đường Quốc lộ 50, Quận 8","Lat":10.73646,"Lng":106.656126,"K":0},{"StationId":496,"StationOrder":66,"StationDirection":0,"RouteId":91,"RouteVarId":182,"StationCode":"BX 20","StationName":"Bến xe Quận 8","pathPoints":"106.65612793,10.73645973 106.65608978,10.73351955 106.65635681,10.73354530","Address":"GA HKXB QUẬN 8, đường Quốc lộ 50, Quận 8","Lat":10.733545,"Lng":106.656357,"K":0},{"StationId":496,"StationOrder":0,"StationDirection":1,"RouteId":91,"RouteVarId":181,"StationCode":"BX 20","StationName":"Bến xe Quận 8","pathPoints":"","Address":"GA HKXB QUẬN 8, đường Quốc lộ 50, Quận 8","Lat":10.733545,"Lng":106.656357,"K":0},{"StationId":502,"StationOrder":1,"StationDirection":1,"RouteId":91,"RouteVarId":181,"StationCode":"Q8 073","StationName":"Bùi Minh Trực","pathPoints":"106.65615082,10.73363972 106.65621185,10.73606968","Address":"193, đường Quốc lộ 50, Quận 8","Lat":10.73646,"Lng":106.656346,"K":0},{"StationId":499,"StationOrder":2,"StationDirection":1,"RouteId":91,"RouteVarId":181,"StationCode":"Q8 074","StationName":"Cầu Nhị Thiên Đường","pathPoints":"106.65621185,10.73606968 106.65628815,10.73882961","Address":"81, đường Quốc lộ 50, Quận 8","Lat":10.738769,"Lng":106.656427,"K":0},{"StationId":542,"StationOrder":3,"StationDirection":1,"RouteId":91,"RouteVarId":181,"StationCode":"Q8 111","StationName":"Tùng Thiện Vương","pathPoints":"106.65628815,10.73882961 106.65628815,10.73923969 106.65638733,10.74069023 106.65635681,10.74090958 106.65622711,10.74122047 106.65585327,10.74217033 106.65570831,10.74260998 106.65558624,10.74295044 106.65554810,10.74326038 106.65557861,10.74351978 106.65567780,10.74376965 106.65579987,10.74396992 106.65583801,10.74407005 106.65602112,10.74423981 106.65647888,10.74448013","Address":"487, đường Tùng Thiện Vương, Quận 8","Lat":10.744513,"Lng":106.656802,"K":0},{"StationId":501,"StationOrder":4,"StationDirection":1,"RouteId":91,"RouteVarId":181,"StationCode":"Q8 112","StationName":"Chợ Xóm Củi","pathPoints":"106.65647888,10.74448013 106.65854645,10.74563980 106.65904999,10.74584961 106.65960693,10.74612045","Address":"337, đường Tùng Thiện Vương, Quận 8","Lat":10.746073,"Lng":106.659763,"K":0},{"StationId":3,"StationOrder":5,"StationDirection":1,"RouteId":91,"RouteVarId":181,"StationCode":"Q5 011","StationName":"Bưu điện Quận 5","pathPoints":"106.65960693,10.74612045 106.66024780,10.74643993 106.66036224,10.74650955 106.66045380,10.74662971 106.66059875,10.74779987 106.66062927,10.74816990 106.66062164,10.74831009 106.66056824,10.74868011 106.66046143,10.74899960 106.66005707,10.75010967 106.66007233,10.75022030 106.66011810,10.75030994 106.66021729,10.75037956 106.66040039,10.75045967 106.66056061,10.75055981 106.66060638,10.75063992 106.66110229,10.75092030 106.66133881,10.75100994 106.66150665,10.75104046 106.66149902,10.75119972 106.66127014,10.75113010 106.66092682,10.75098038 106.66050720,10.75072002 106.66026306,10.75057030 106.66011810,10.75053024 106.65998077,10.75053024 106.65986633,10.75055027 106.65966034,10.75063038 106.65926361,10.75078964 106.65924835,10.75082016 106.65920258,10.75086975 106.65917206,10.75088024 106.65911102,10.75135994","Address":"14-16, đường Châu Văn Liêm, Quận 5","Lat":10.751368,"Lng":106.659203,"K":0},{"StationId":5,"StationOrder":6,"StationDirection":1,"RouteId":91,"RouteVarId":181,"StationCode":"Q5 012","StationName":"Rạp Đại Quang","pathPoints":"106.65911102,10.75135994 106.65904999,10.75183010 106.65895081,10.75201035 106.65885162,10.75255013","Address":"68, đường Châu Văn Liêm, Quận 5","Lat":10.752566,"Lng":106.658937,"K":0},{"StationId":437,"StationOrder":7,"StationDirection":1,"RouteId":91,"RouteVarId":181,"StationCode":"Q5 025","StationName":"Bệnh viện Chợ Rẫy","pathPoints":"106.65885162,10.75255013 106.65878296,10.75296974 106.65849304,10.75378990 106.65837097,10.75434017 106.65840149,10.75444984 106.65921783,10.75459957","Address":"357-359, đường Hồng Bàng, Quận 5","Lat":10.754553,"Lng":106.659232,"K":0},{"StationId":544,"StationOrder":8,"StationDirection":1,"RouteId":91,"RouteVarId":181,"StationCode":"Q5 033","StationName":"Hùng Vương Plaza","pathPoints":"106.65921783,10.75459957 106.66153717,10.75502014 106.66245270,10.75520992 106.66236877,10.75539017 106.66219330,10.75597954","Address":"4, đường Lý Thường Kiệt, Quận 5","Lat":10.756013,"Lng":106.662333,"K":0},{"StationId":393,"StationOrder":9,"StationDirection":1,"RouteId":91,"RouteVarId":181,"StationCode":"Q11 021","StationName":"BV Răng Hàm Mặt","pathPoints":"106.66219330,10.75597954 106.66149139,10.75842953 106.66149139,10.75844955 106.66084290,10.75831032","Address":"598, đường Nguyễn Chí Thanh, Quận 11","Lat":10.758364,"Lng":106.660828,"K":0},{"StationId":1014,"StationOrder":10,"StationDirection":1,"RouteId":91,"RouteVarId":181,"StationCode":"Q11 025","StationName":"Đường 3/2","pathPoints":"106.66082764,10.75836372 106.66084290,10.75831032 106.66027832,10.75819016 106.65953064,10.75802994 106.65952301,10.75804996 106.65827942,10.75773144 106.65862274,10.75886917 106.65879059,10.75934410 106.65888214,10.75959969 106.65823364,10.76049042 106.65762329,10.76138973 106.65740967,10.76165962 106.65743256,10.76167297","Address":"170-172, đường Lê Đại Hành, Quận 11","Lat":10.761831,"Lng":106.657323,"K":0},{"StationId":1016,"StationOrder":11,"StationDirection":1,"RouteId":91,"RouteVarId":181,"StationCode":"Q11 033","StationName":"Cổng chào CV Đầm sen","pathPoints":"106.65740967,10.76165962 106.65727234,10.76183033 106.65705109,10.76224041 106.65698242,10.76220989 106.65663147,10.76216030 106.65598297,10.76222992 106.65589905,10.76224041","Address":"20, đường Lãnh Binh Thăng, Quận 11","Lat":10.762285,"Lng":106.655858,"K":0},{"StationId":1023,"StationOrder":12,"StationDirection":1,"RouteId":91,"RouteVarId":181,"StationCode":"Q11 034","StationName":"Chợ Phú Thọ","pathPoints":"106.65589905,10.76224041 106.65386200,10.76247978","Address":"134, đường Lãnh Binh Thăng, Quận 11","Lat":10.762522,"Lng":106.653798,"K":0},{"StationId":1018,"StationOrder":13,"StationDirection":1,"RouteId":91,"RouteVarId":181,"StationCode":"Q11 035","StationName":"CV Lãnh Binh Thăng","pathPoints":"106.65386200,10.76247978 106.65281677,10.76257992 106.65174866,10.76272011 106.65151215,10.76272964","Address":"Đối diện Trường mầm non (278), đường Lãnh Binh Thăng, Quận 11","Lat":10.76307,"Lng":106.650746,"K":0},{"StationId":1024,"StationOrder":14,"StationDirection":1,"RouteId":91,"RouteVarId":181,"StationCode":"Q11 036","StationName":"Nhà văn hóa Quận 11","pathPoints":"106.65151215,10.76272964 106.65117645,10.76276970 106.65106964,10.76280022 106.65045929,10.76313019 106.64814758,10.76438046","Address":"284, đường Lãnh Binh Thăng, Quận 11","Lat":10.764453,"Lng":106.648193,"K":0},{"StationId":1027,"StationOrder":15,"StationDirection":1,"RouteId":91,"RouteVarId":181,"StationCode":"Q11 037","StationName":"Chợ Lãnh Binh Thăng","pathPoints":"106.64814758,10.76438046 106.64685822,10.76508999","Address":"308-310, đường Lãnh Binh Thăng, Quận 11","Lat":10.76512,"Lng":106.646926,"K":0},{"StationId":1020,"StationOrder":16,"StationDirection":1,"RouteId":91,"RouteVarId":181,"StationCode":"Q11 040","StationName":"Tòa án nhân dân Q11","pathPoints":"106.64685822,10.76508999 106.64633942,10.76539993 106.64530182,10.76576996 106.64428711,10.76611042 106.64305878,10.76653957","Address":"150, đường Ông Ích Khiêm, Quận 11","Lat":10.76659,"Lng":106.643082,"K":0},{"StationId":1029,"StationOrder":17,"StationDirection":1,"RouteId":91,"RouteVarId":181,"StationCode":"Q11 043","StationName":"Bãi xe buýt Đầm Sen","pathPoints":"106.64305878,10.76653957 106.64250183,10.76675034 106.64250946,10.76677990 106.64250946,10.76683044 106.64247131,10.76692009 106.64237976,10.76698017 106.64231110,10.76698017 106.64225006,10.76696014 106.64218140,10.76688957 106.64163971,10.76702976 106.64125824,10.76714993 106.64109802,10.76721954","Address":"40A, đường Hòa Bình, Quận 11","Lat":10.767196,"Lng":106.641176,"K":0},{"StationId":1616,"StationOrder":18,"StationDirection":1,"RouteId":91,"RouteVarId":181,"StationCode":"Q11 044","StationName":"Trường Hòa Bình","pathPoints":"106.64108276,10.76723003 106.63979340,10.76797962 106.63909912,10.76842022","Address":"72, đường Hòa Bình, Quận 11","Lat":10.768361,"Lng":106.639261,"K":0},{"StationId":1604,"StationOrder":19,"StationDirection":1,"RouteId":91,"RouteVarId":181,"StationCode":"QTP 146","StationName":"Đầm Sen","pathPoints":"106.63909912,10.76842022 106.63761139,10.76900005 106.63701630,10.76924038","Address":"45 (Đối diện công viên nước Đầm Sen), đường Hòa Bình, Quận Tân Phú","Lat":10.769367,"Lng":106.63707,"K":0},{"StationId":1617,"StationOrder":20,"StationDirection":1,"RouteId":91,"RouteVarId":181,"StationCode":"QTP 145","StationName":"Chùa Huệ Quang","pathPoints":"106.63701630,10.76924038 106.63658905,10.76939964 106.63613892,10.76953030 106.63587189,10.76957989 106.63551331,10.76959038 106.63526917,10.76955986","Address":"116, đường Hòa Bình, Quận Tân Phú","Lat":10.769599,"Lng":106.634604,"K":0},{"StationId":1619,"StationOrder":21,"StationDirection":1,"RouteId":91,"RouteVarId":181,"StationCode":"QTP 144","StationName":"Ngã 4 Hòa Bình","pathPoints":"106.63526917,10.76955986 106.63452911,10.76947975 106.63440704,10.76947975 106.63432312,10.76947021 106.63411713,10.76951981 106.63390350,10.76963043 106.63336182,10.76982975","Address":"126, đường Hòa Bình, Quận Tân Phú","Lat":10.77001,"Lng":106.632839,"K":0},{"StationId":4315,"StationOrder":22,"StationDirection":1,"RouteId":91,"RouteVarId":181,"StationCode":"QTPT232","StationName":"Cây Keo","pathPoints":"106.63336182,10.77000046 106.63191223,10.77068520","Address":"264, đường Lũy Bán Bích, Quận Tân Phú","Lat":10.770685,"Lng":106.631916,"K":0},{"StationId":4316,"StationOrder":23,"StationDirection":1,"RouteId":91,"RouteVarId":181,"StationCode":"QTPT233","StationName":"Thạch Lam","pathPoints":"106.63191223,10.77068520 106.63248444,10.77367783","Address":"314, đường Lũy Bán Bích, Quận Tân Phú","Lat":10.773678,"Lng":106.632484,"K":0},{"StationId":4317,"StationOrder":24,"StationDirection":1,"RouteId":91,"RouteVarId":181,"StationCode":"QTP 204","StationName":"Đình Hòa Thạnh","pathPoints":"106.63248444,10.77367783 106.63378906,10.77606010","Address":"394, đường Lũy Bán Bích, Quận Tân Phú","Lat":10.776355,"Lng":106.633966,"K":0},{"StationId":4318,"StationOrder":25,"StationDirection":1,"RouteId":91,"RouteVarId":181,"StationCode":"QTP 205","StationName":"Thoại Ngọc Hầu","pathPoints":"106.63378906,10.77606010 106.63520050,10.77839470","Address":"464, đường Lũy Bán Bích, Quận Tân Phú","Lat":10.779464,"Lng":106.635575,"K":0},{"StationId":4319,"StationOrder":26,"StationDirection":1,"RouteId":91,"RouteVarId":181,"StationCode":"QTPT236","StationName":"Phú thọ Hòa","pathPoints":"106.63520050,10.77839470 106.63598633,10.78097153","Address":"558, đường Lũy Bán Bích, Quận Tân Phú","Lat":10.783048,"Lng":106.636273,"K":0},{"StationId":4320,"StationOrder":27,"StationDirection":1,"RouteId":91,"RouteVarId":181,"StationCode":"QTP 207","StationName":"Ủy Ban nhân dân quận Tân Phú","pathPoints":"106.63598633,10.78097153 106.63654327,10.78463936","Address":"564, đường Lũy Bán Bích, Quận Tân Phú","Lat":10.78505,"Lng":106.636605,"K":0},{"StationId":4321,"StationOrder":28,"StationDirection":1,"RouteId":91,"RouteVarId":181,"StationCode":"QTPT239","StationName":"Vườn Lài","pathPoints":"106.63654327,10.78463936 106.63703156,10.78763771","Address":"620, đường Lũy Bán Bích, Quận Tân Phú","Lat":10.788086,"Lng":106.637029,"K":0},{"StationId":4322,"StationOrder":29,"StationDirection":1,"RouteId":91,"RouteVarId":181,"StationCode":"QTP 209","StationName":"Thống Nhất","pathPoints":"106.63703156,10.78763771 106.63758850,10.79118919","Address":"672, đường Lũy Bán Bích, Quận Tân Phú","Lat":10.789693,"Lng":106.637303,"K":0},{"StationId":4323,"StationOrder":30,"StationDirection":1,"RouteId":91,"RouteVarId":181,"StationCode":"QTP 210","StationName":"Âu Cơ","pathPoints":"106.63758850,10.79118919 106.63807678,10.79448128","Address":"742 (kios 10), đường Lũy Bán Bích, Quận Tân Phú","Lat":10.794541,"Lng":106.638118,"K":0},{"StationId":2422,"StationOrder":31,"StationDirection":1,"RouteId":91,"RouteVarId":181,"StationCode":"QTB 051","StationName":"Ngã ba Ba Vân","pathPoints":"106.63807678,10.79448128 106.63821411,10.79629517","Address":"928, đường Âu Cơ, Quận Tân Bình","Lat":10.796,"Lng":106.638349,"K":0},{"StationId":2425,"StationOrder":32,"StationDirection":1,"RouteId":91,"RouteVarId":181,"StationCode":"QTB 052","StationName":"Chợ Võ Thành Trang","pathPoints":"106.63816071,10.79627991 106.63745880,10.79876041","Address":"988-990, đường Âu Cơ, Quận Tân Bình","Lat":10.798709,"Lng":106.637576,"K":0},{"StationId":2424,"StationOrder":33,"StationDirection":1,"RouteId":91,"RouteVarId":181,"StationCode":"QTB 053","StationName":"Ngã ba Bà Quẹo","pathPoints":"106.63745880,10.79876041 106.63694000,10.80066967","Address":"1064, đường Âu Cơ, Quận Tân Bình","Lat":10.800674,"Lng":106.637045,"K":0},{"StationId":1302,"StationOrder":34,"StationDirection":1,"RouteId":91,"RouteVarId":181,"StationCode":"QTB 073","StationName":"Ngã tư Tân Kỳ Tân Quý","pathPoints":"106.63694000,10.80066967 106.63681793,10.80111980 106.63670349,10.80161953 106.63672638,10.80177975 106.63642883,10.80220985 106.63610840,10.80288029 106.63565826,10.80420017 106.63553619,10.80459976","Address":"638, đường Trường Chinh, Quận Tân Bình","Lat":10.804732,"Lng":106.635629,"K":0},{"StationId":2202,"StationOrder":35,"StationDirection":1,"RouteId":91,"RouteVarId":181,"StationCode":"QTB 074","StationName":"Siêu thị Big C","pathPoints":"106.63553619,10.80459976 106.63504791,10.80618000","Address":"680, đường Trường Chinh, Quận Tân Bình","Lat":10.806202,"Lng":106.635184,"K":0},{"StationId":268,"StationOrder":36,"StationDirection":1,"RouteId":91,"RouteVarId":181,"StationCode":"QTB 075","StationName":"Mũi tàu Cộng Hòa","pathPoints":"106.63504791,10.80618000 106.63497925,10.80636978 106.63493347,10.80665970 106.63488007,10.80706978 106.63481903,10.80762005 106.63462067,10.80801010","Address":"19B1, đường Trường Chinh, Quận Tân Bình","Lat":10.808078,"Lng":106.634696,"K":0},{"StationId":267,"StationOrder":37,"StationDirection":1,"RouteId":91,"RouteVarId":181,"StationCode":"QTB 076","StationName":"Ngã ba Chế Lan Viên","pathPoints":"106.63462067,10.80801010 106.63450623,10.80827045 106.63417053,10.80928993 106.63343811,10.81167984","Address":"9B, đường Trường Chinh, Quận Tân Bình","Lat":10.811695,"Lng":106.633499,"K":0},{"StationId":269,"StationOrder":38,"StationDirection":1,"RouteId":91,"RouteVarId":181,"StationCode":"QTB 077","StationName":"Tân Sơn","pathPoints":"106.63343811,10.81167984 106.63253784,10.81462002","Address":"720, đường Trường Chinh, Quận Tân Bình","Lat":10.814638,"Lng":106.632584,"K":0},{"StationId":270,"StationOrder":39,"StationDirection":1,"RouteId":91,"RouteVarId":181,"StationCode":"QTB 078","StationName":"Siêu thị Coop Mart Thắng Lợi","pathPoints":"106.63253784,10.81462002 106.63163757,10.81752968","Address":"792 (25/19), đường Trường Chinh, Quận Tân Bình","Lat":10.817541,"Lng":106.631691,"K":0},{"StationId":271,"StationOrder":40,"StationDirection":1,"RouteId":91,"RouteVarId":181,"StationCode":"QTB 079","StationName":"Khu Công Nghiệp tân Bình","pathPoints":"106.63163757,10.81752968 106.63038635,10.82162952","Address":"906, đường Trường Chinh, Quận Tân Bình","Lat":10.821644,"Lng":106.630447,"K":0},{"StationId":3407,"StationOrder":41,"StationDirection":1,"RouteId":91,"RouteVarId":181,"StationCode":"Q12 140","StationName":"Đường song hành QL 22","pathPoints":"106.63038635,10.82162952 106.63025665,10.82201958 106.63004303,10.82254028 106.62976837,10.82297993 106.62959290,10.82320023 106.62840271,10.82431984 106.62654877,10.82602024 106.62669373,10.82703972 106.62670135,10.82732010","Address":"1/42, đường Nguyễn Văn Quá, Quận 12","Lat":10.827323,"Lng":106.626762,"K":0},{"StationId":3406,"StationOrder":42,"StationDirection":1,"RouteId":91,"RouteVarId":181,"StationCode":"Q12 141","StationName":"Ngân hàng ACB","pathPoints":"106.62670135,10.82732010 106.62670898,10.82777977 106.62683868,10.82894039 106.62690735,10.82931995 106.62702179,10.82964039","Address":"90A, đường Nguyễn Văn Quá, Quận 12","Lat":10.829908,"Lng":106.627148,"K":0},{"StationId":3409,"StationOrder":43,"StationDirection":1,"RouteId":91,"RouteVarId":181,"StationCode":"Q12 142","StationName":"Sân bóng Cây Sộp","pathPoints":"106.62702179,10.82964039 106.62812805,10.83312035 106.62827301,10.83353996","Address":"Kế 1/97 (đd 205), đường Nguyễn Văn Quá, Quận 12","Lat":10.832068,"Lng":106.627888,"K":0},{"StationId":3408,"StationOrder":44,"StationDirection":1,"RouteId":91,"RouteVarId":181,"StationCode":"Q12 143","StationName":"Nhà hàng Đông Phương","pathPoints":"106.62827301,10.83353996 106.62875366,10.83514023 106.62899780,10.83609009","Address":"344, đường Nguyễn Văn Quá, Quận 12","Lat":10.835909,"Lng":106.628999,"K":0},{"StationId":3411,"StationOrder":45,"StationDirection":1,"RouteId":91,"RouteVarId":181,"StationCode":"Q12 144","StationName":"Trường Phan Bội Châu","pathPoints":"106.62899780,10.83609009 106.62934875,10.83743000 106.62966919,10.83860016 106.62979889,10.83915997 106.62982178,10.83922958","Address":"21A, đường Nguyễn Văn Quá, Quận 12","Lat":10.838032,"Lng":106.629578,"K":0},{"StationId":3410,"StationOrder":46,"StationDirection":1,"RouteId":91,"RouteVarId":181,"StationCode":"Q12 145","StationName":"Cafe Venus","pathPoints":"106.62982178,10.83922958 106.63004303,10.84010983 106.63009644,10.84045029 106.63018799,10.84094048 106.63023376,10.84109020 106.63049316,10.84171009","Address":"566, đường Nguyễn Văn Quá, Quận 12","Lat":10.84153,"Lng":106.630458,"K":0},{"StationId":3412,"StationOrder":47,"StationDirection":1,"RouteId":91,"RouteVarId":181,"StationCode":"Q12 146","StationName":"Chợ An Sương","pathPoints":"106.63049316,10.84171009 106.63117218,10.84335995 106.63139343,10.84381962 106.63181305,10.84428978","Address":"708 (Trung tâm y tế), đường Nguyễn Văn Quá, Quận 12","Lat":10.84436,"Lng":106.631944,"K":0},{"StationId":3413,"StationOrder":48,"StationDirection":1,"RouteId":91,"RouteVarId":181,"StationCode":"Q12 147","StationName":"Quang Trung","pathPoints":"106.63182068,10.84430027 106.63258362,10.84512997 106.63330841,10.84597015 106.63394165,10.84648991 106.63408661,10.84659958","Address":"52, đường Nguyễn Văn Quá, Quận 12","Lat":10.846415,"Lng":106.633886,"K":0},{"StationId":2056,"StationOrder":49,"StationDirection":1,"RouteId":91,"RouteVarId":181,"StationCode":"Q12 058","StationName":"Chợ Cầu","pathPoints":"106.63408661,10.84659958 106.63497162,10.84731960 106.63510132,10.84747028 106.63516235,10.84755993 106.63452148,10.84801960","Address":"B79, đường Tô Ký, Quận 12","Lat":10.848148,"Lng":106.634068,"K":0},{"StationId":2052,"StationOrder":50,"StationDirection":1,"RouteId":91,"RouteVarId":181,"StationCode":"Q12 059","StationName":"Cầu vượt Quang Trung","pathPoints":"106.63452148,10.84801960 106.63292694,10.84916973 106.63217926,10.84974003","Address":"170, đường Tô Ký, Quận 12","Lat":10.849823,"Lng":106.632185,"K":0},{"StationId":2677,"StationOrder":51,"StationDirection":1,"RouteId":91,"RouteVarId":181,"StationCode":"Q12 100","StationName":"Trường Nguyễn Du","pathPoints":"106.63217926,10.84974003 106.63188171,10.84996033 106.63188171,10.85000992 106.63114166,10.85058022 106.63107300,10.85066986 106.63099670,10.85079002 106.63099670,10.85093021 106.63108063,10.85107040 106.63130951,10.85126019 106.63146210,10.85144043 106.63153839,10.85161972 106.63159180,10.85181046 106.63166809,10.85198021 106.63178253,10.85214043 106.63185120,10.85223007 106.63201904,10.85237026 106.63214874,10.85245991 106.63229370,10.85262012","Address":"Trường Nguyễn Du, đường Quốc lộ 1A, Quận 12","Lat":10.852583,"Lng":106.632347,"K":0},{"StationId":2675,"StationOrder":52,"StationDirection":1,"RouteId":91,"RouteVarId":181,"StationCode":"Q12 101","StationName":"Bác sĩ Liêm","pathPoints":"106.63231659,10.85262966 106.63368225,10.85338974","Address":"103/4B, đường Quốc lộ 1A, Quận 12","Lat":10.853322,"Lng":106.633719,"K":0},{"StationId":2676,"StationOrder":53,"StationDirection":1,"RouteId":91,"RouteVarId":181,"StationCode":"Q12 102","StationName":"Ngã tư Đình","pathPoints":"106.63368225,10.85338974 106.63980103,10.85671997","Address":"1793B, đường Quốc lộ 1A, Quận 12","Lat":10.856667,"Lng":106.639832,"K":0},{"StationId":2678,"StationOrder":54,"StationDirection":1,"RouteId":91,"RouteVarId":181,"StationCode":"Q12 103","StationName":"Cây xăng Thạnh Xuân","pathPoints":"106.63980103,10.85671997 106.64185333,10.85785007 106.64353180,10.85875034 106.64417267,10.85910034","Address":"Kế cây xăng Thạnh Xuân, đường Quốc lộ 1A, Quận 12","Lat":10.858953,"Lng":106.644233,"K":0},{"StationId":2680,"StationOrder":55,"StationDirection":1,"RouteId":91,"RouteVarId":181,"StationCode":"Q12 104","StationName":"Cao su Vina","pathPoints":"106.64417267,10.85910034 106.64495850,10.85951996 106.64512634,10.85964012 106.64698792,10.86065006 106.64759827,10.86098957 106.64777374,10.86102962","Address":"1721, đường Quốc lộ 1A, Quận 12","Lat":10.86097,"Lng":106.647781,"K":0},{"StationId":1670,"StationOrder":56,"StationDirection":1,"RouteId":91,"RouteVarId":181,"StationCode":"Q12 001","StationName":"Metro Hiệp Phú","pathPoints":"106.64777374,10.86102962 106.64784241,10.86104965 106.64851379,10.86139965 106.64910889,10.86168957 106.64945984,10.86180019 106.64978027,10.86188984 106.64978027,10.86196995 106.64975739,10.86211014 106.64968872,10.86351013","Address":"48, đường Lê Văn Khương, Quận 12","Lat":10.863513,"Lng":106.649757,"K":0},{"StationId":1672,"StationOrder":57,"StationDirection":1,"RouteId":91,"RouteVarId":181,"StationCode":"Q12T002","StationName":"Trạm xăng Hưng Thịnh","pathPoints":"106.64968872,10.86351013 106.64959717,10.86528969","Address":"Cây xăng Hưng Thịnh, đường Lê Văn Khương, Quận 12","Lat":10.865292,"Lng":106.649666,"K":0},{"StationId":1669,"StationOrder":58,"StationDirection":1,"RouteId":91,"RouteVarId":181,"StationCode":"Q12 002","StationName":"Công ty bia Tiger","pathPoints":"106.64959717,10.86528969 106.64945984,10.86808014","Address":"Công ty bia Tiger, đường Lê Văn Khương, Quận 12","Lat":10.868094,"Lng":106.649555,"K":0},{"StationId":1674,"StationOrder":59,"StationDirection":1,"RouteId":91,"RouteVarId":181,"StationCode":"Q12 003","StationName":"Bảo hiểm xã hội Quận 12","pathPoints":"106.64945984,10.86808014 106.64936066,10.86970997 106.64929199,10.87150955 106.64926910,10.87205029","Address":"270, đường Lê Văn Khương, Quận 12","Lat":10.872066,"Lng":106.649335,"K":0},{"StationId":1671,"StationOrder":60,"StationDirection":1,"RouteId":91,"RouteVarId":181,"StationCode":"Q12 004","StationName":"UBND phường Thới An","pathPoints":"106.64926910,10.87205029 106.64914703,10.87423038","Address":"Ủy ban nhân dan P.Thới An, đường Lê Văn Khương, Quận 12","Lat":10.875195,"Lng":106.649185,"K":0},{"StationId":3426,"StationOrder":61,"StationDirection":1,"RouteId":91,"RouteVarId":181,"StationCode":"Q12 005","StationName":"Bãi xe buýt Thới An","pathPoints":"106.64914703,10.87423038 106.64897919,10.87705040 106.64890289,10.87884045","Address":"390, đường Lê Văn Khương, Quận 12","Lat":10.878841,"Lng":106.649002,"K":0},{"StationId":2745,"StationOrder":62,"StationDirection":1,"RouteId":91,"RouteVarId":181,"StationCode":"BX35","StationName":"Bãi xe buýt Thới An","pathPoints":"106.64890289,10.87884045 106.64891052,10.87851048","Address":"BÃI XE THỚI AN, đường Lê Văn Khương, Quận 12","Lat":10.878466606140137,"Lng":106.64797973632812,"K":0}]