[{"StationId":1088,"StationOrder":0,"StationDirection":0,"RouteId":112,"RouteVarId":224,"StationCode":"BX 71","StationName":"Hiệp Phước","pathPoints":"","Address":"Bến Hiệp Phước, đường Nguyễn Văn Tạo, Huyện Nhà Bè","Lat":10.602154,"Lng":106.741635,"K":0},{"StationId":1118,"StationOrder":1,"StationDirection":0,"RouteId":112,"RouteVarId":224,"StationCode":"HNB 060","StationName":"Nhà Tưởng niệm Liệt sỹ Nhà Bè","pathPoints":"106.74163818,10.60215378 106.74170685,10.60250187 106.74127960,10.60434246","Address":"Đối diện Nghĩa trang liệt sỹ Nhà Bè, đường Nguyễn Văn Tạo, Huyện Nhà Bè","Lat":10.604189,"Lng":106.741308,"K":0},{"StationId":1119,"StationOrder":2,"StationDirection":0,"RouteId":112,"RouteVarId":224,"StationCode":"HNB 059","StationName":"Chùa Phước Linh","pathPoints":"106.74127960,10.60434246 106.74070740,10.60649872 106.74060822,10.60785866 106.74021149,10.60905075 106.74010468,10.60981464","Address":"1095, đường Nguyễn Văn Tạo, Huyện Nhà Bè","Lat":10.610005,"Lng":106.740074,"K":0},{"StationId":1121,"StationOrder":3,"StationDirection":0,"RouteId":112,"RouteVarId":224,"StationCode":"HNB 058","StationName":"Công an xã Hiệp Phước","pathPoints":"106.74010468,10.60981464 106.73965454,10.61234570 106.73950195,10.61525631 106.73928070,10.61644745 106.73915863,10.61764526","Address":"1244 (Cửa sắt Ba Thủy), đường Nguyễn Văn Tạo, Huyện Nhà Bè","Lat":10.617645,"Lng":106.739157,"K":0},{"StationId":1120,"StationOrder":4,"StationDirection":0,"RouteId":112,"RouteVarId":224,"StationCode":"HNB 057","StationName":"Giáo xứ Tin Mừng","pathPoints":"106.73915863,10.61764526 106.73815918,10.62215328","Address":"Kế 919 (1733), đường Nguyễn Văn Tạo, Huyện Nhà Bè","Lat":10.622153,"Lng":106.738159,"K":0},{"StationId":1123,"StationOrder":5,"StationDirection":0,"RouteId":112,"RouteVarId":224,"StationCode":"HNB 055","StationName":"Ngã tư Long Hậu","pathPoints":"106.73815918,10.62215328 106.73777771,10.62384033 106.73751831,10.62543201 106.73610687,10.63116932","Address":"921, đường Nguyễn Văn Tạo, Huyện Nhà Bè","Lat":10.631169,"Lng":106.736104,"K":0},{"StationId":1129,"StationOrder":6,"StationDirection":0,"RouteId":112,"RouteVarId":224,"StationCode":"HNB 051","StationName":"Công ty may Đại Sơn","pathPoints":"106.73610687,10.63116932 106.73507690,10.63595581 106.73368073,10.64034271 106.73138428,10.64717007","Address":"617, đường Nguyễn Văn Tạo, Huyện Nhà Bè","Lat":10.64717,"Lng":106.731384,"K":0},{"StationId":1130,"StationOrder":7,"StationDirection":0,"RouteId":112,"RouteVarId":224,"StationCode":"HNB 050","StationName":"Chợ Bà Chồi","pathPoints":"106.73130035,10.64732838 106.73119354,10.64762878 106.73097229,10.64828777 106.73083496,10.64882565 106.73066711,10.64933681 106.73052979,10.64987469","Address":"78A, đường Nguyễn Văn Tạo, Huyện Nhà Bè","Lat":10.650117,"Lng":106.730461,"K":0},{"StationId":1127,"StationOrder":8,"StationDirection":0,"RouteId":112,"RouteVarId":224,"StationCode":"HNB 049","StationName":"Bệnh viện Nhân Tâm","pathPoints":"106.73033905,10.65040112 106.73011017,10.65111828 106.72976685,10.65203571 106.72951508,10.65294266 106.72941589,10.65339088","Address":"Kế 205 (155), đường Nguyễn Văn Tạo, Huyện Nhà Bè","Lat":10.653391,"Lng":106.729415,"K":0},{"StationId":1128,"StationOrder":9,"StationDirection":0,"RouteId":112,"RouteVarId":224,"StationCode":"HNB 048","StationName":"Trường Long Thới","pathPoints":"106.72941589,10.65339088 106.72916412,10.65400219 106.72890472,10.65478802 106.72853851,10.65595818 106.72829437,10.65676498 106.72820282,10.65713310","Address":"Đối diện CA H.Nhà Bè, đường Nguyễn Văn Tạo, Huyện Nhà Bè","Lat":10.657133,"Lng":106.728203,"K":0},{"StationId":1131,"StationOrder":10,"StationDirection":0,"RouteId":112,"RouteVarId":224,"StationCode":"HNB 047","StationName":"Hàng Tre","pathPoints":"106.72820282,10.65713310 106.72765350,10.65876770 106.72712708,10.66040802 106.72621155,10.66346455","Address":"137, đường Nguyễn Văn Tạo, Huyện Nhà Bè","Lat":10.663465,"Lng":106.726213,"K":0},{"StationId":1132,"StationOrder":11,"StationDirection":0,"RouteId":112,"RouteVarId":224,"StationCode":"HNB 046","StationName":"Vòng xoay Long Thới","pathPoints":"106.72621155,10.66346455 106.72591400,10.66418743 106.72479248,10.66776657","Address":"24C-17, đường Nguyễn Văn Tạo, Huyện Nhà Bè","Lat":10.667767,"Lng":106.724796,"K":0},{"StationId":3629,"StationOrder":12,"StationDirection":0,"RouteId":112,"RouteVarId":224,"StationCode":"HNB 097","StationName":"Cầu Bà Chiêm","pathPoints":"106.72476959,10.66775036 106.72457123,10.66852570 106.72477722,10.66909504 106.72470093,10.66970730 106.72383881,10.67349720","Address":"Trụ đèn số 7, đường Nguyễn Hữu Thọ, Huyện Nhà Bè","Lat":10.674393,"Lng":106.723638,"K":0},{"StationId":7073,"StationOrder":13,"StationDirection":0,"RouteId":112,"RouteVarId":224,"StationCode":"HNB 129","StationName":"Cầu Phước Kiểng","pathPoints":"106.72364044,10.67439270 106.72279358,10.67775726","Address":"Trụ đèn 17, đường Nguyễn Hữu Thọ, Huyện Nhà Bè","Lat":10.677757,"Lng":106.72279,"K":0},{"StationId":7076,"StationOrder":14,"StationDirection":0,"RouteId":112,"RouteVarId":224,"StationCode":"HNB 132","StationName":"Phú Long","pathPoints":"106.72279358,10.67775726 106.72121429,10.68447781","Address":"Phú Long, đường Nguyễn Hữu Thọ, Huyện Nhà Bè","Lat":10.684478,"Lng":106.721213,"K":0},{"StationId":7074,"StationOrder":15,"StationDirection":0,"RouteId":112,"RouteVarId":224,"StationCode":"HNB 130","StationName":"Cầu Bảng 2","pathPoints":"106.72121429,10.68447781 106.71936798,10.69059277","Address":"Trụ đèn 50, đường Nguyễn Hữu Thọ, Huyện Nhà Bè","Lat":10.690593,"Lng":106.719368,"K":0},{"StationId":3626,"StationOrder":16,"StationDirection":0,"RouteId":112,"RouteVarId":224,"StationCode":"HNB 098","StationName":"Phạm Hữu Lầu","pathPoints":"106.71936798,10.69059277 106.71891785,10.69194221 106.71841431,10.69477844 106.71797943,10.69670677","Address":"Trụ đèn 72, đường Nguyễn Hữu Thọ, Huyện Nhà Bè","Lat":10.696707,"Lng":106.717983,"K":0},{"StationId":3631,"StationOrder":17,"StationDirection":0,"RouteId":112,"RouteVarId":224,"StationCode":"HNB 099","StationName":"Bình Xuyên 2","pathPoints":"106.71797943,10.69670677 106.71714783,10.69840431 106.71625519,10.69972229 106.71319580,10.70407581","Address":"92, đường Nguyễn Hữu Thọ, Huyện Nhà Bè","Lat":10.704076,"Lng":106.713193,"K":0},{"StationId":3627,"StationOrder":18,"StationDirection":0,"RouteId":112,"RouteVarId":224,"StationCode":"HNB 100","StationName":"Bệnh viện huyện Nhà Bè","pathPoints":"106.71319580,10.70407581 106.71298218,10.70431900 106.71163940,10.70612717 106.71099091,10.70704365 106.71052551,10.70776081","Address":"Đối diện khu nhà ở Thái Sơn, đường Nguyễn Hữu Thọ, Huyện Nhà Bè","Lat":10.707761,"Lng":106.710527,"K":0},{"StationId":7069,"StationOrder":19,"StationDirection":0,"RouteId":112,"RouteVarId":224,"StationCode":"HNB_127","StationName":"Làng Đại học Khu B","pathPoints":"106.71052551,10.70776081 106.70871735,10.71009064","Address":"Đối diện Làng ĐH Khu B, đường Nguyễn Hữu Thọ, Huyện Nhà Bè","Lat":10.710091,"Lng":106.708714,"K":0},{"StationId":3630,"StationOrder":20,"StationDirection":0,"RouteId":112,"RouteVarId":224,"StationCode":"HNB 101","StationName":"Cầu Số 1","pathPoints":"106.70871735,10.71009064 106.70788574,10.71130848 106.70748138,10.71191978 106.70730591,10.71237278","Address":"Làng ĐH Khu B, đường Nguyễn Hữu Thọ, Huyện Nhà Bè","Lat":10.712373,"Lng":106.707308,"K":0},{"StationId":3632,"StationOrder":21,"StationDirection":0,"RouteId":112,"RouteVarId":224,"StationCode":"HNB 102","StationName":"Ngã 3 Phước Lộc","pathPoints":"106.70730591,10.71237278 106.70634460,10.71340561 106.70558929,10.71443939 106.70449829,10.71604061","Address":"Cột đèn 146, đường Nguyễn Hữu Thọ, Huyện Nhà Bè","Lat":10.716041,"Lng":106.704497,"K":0},{"StationId":3633,"StationOrder":22,"StationDirection":0,"RouteId":112,"RouteVarId":224,"StationCode":"HNB 103","StationName":"Hoàng Anh Gia Lai 3","pathPoints":"106.70449829,10.71604061 106.70325470,10.71755886 106.70289612,10.71806049 106.70244598,10.71880817 106.70198059,10.71984196","Address":"Đối diện Hoàng Anh Gia Lai 3, đường Nguyễn Hữu Thọ, Huyện Nhà Bè","Lat":10.719842,"Lng":106.701981,"K":0},{"StationId":1244,"StationOrder":23,"StationDirection":0,"RouteId":112,"RouteVarId":224,"StationCode":"Q7 074","StationName":"Tra My","pathPoints":"106.70198059,10.71984196 106.70178223,10.72039032 106.70159149,10.72103786 106.70142365,10.72187138 106.70130920,10.72262478 106.70106506,10.72484875 106.70056915,10.72854900 106.70047760,10.72946072","Address":"291/8, đường Nguyễn Hữu Thọ, Quận 7","Lat":10.729461,"Lng":106.700479,"K":0},{"StationId":1246,"StationOrder":24,"StationDirection":0,"RouteId":112,"RouteVarId":224,"StationCode":"Q7 075","StationName":"ĐH Tôn Đức Thắng","pathPoints":"106.70047760,10.72946072 106.70027924,10.73060989 106.70021820,10.73153687","Address":"568, đường Nguyễn Hữu Thọ, Quận 7","Lat":10.731537,"Lng":106.700222,"K":0},{"StationId":1245,"StationOrder":25,"StationDirection":0,"RouteId":112,"RouteVarId":224,"StationCode":"Q7 076","StationName":"Đại học Cảnh sát","pathPoints":"106.70021820,10.73153687 106.70006561,10.73209095 106.69997406,10.73306561 106.69996643,10.73371983 106.70000458,10.73398304","Address":"Đối diện 36, đường Nguyễn Hữu Thọ, Quận 7","Lat":10.733983,"Lng":106.700002,"K":0},{"StationId":1247,"StationOrder":26,"StationDirection":0,"RouteId":112,"RouteVarId":224,"StationCode":"Q7 077","StationName":"Siêu thị Lotte","pathPoints":"106.70000458,10.73398304 106.70002747,10.73427296 106.70050812,10.73752499 106.70096588,10.74016571 106.70119476,10.74121380","Address":"Siêu thị Lotte, đường Nguyễn Hữu Thọ, Quận 7","Lat":10.741214,"Lng":106.701193,"K":0},{"StationId":1249,"StationOrder":27,"StationDirection":0,"RouteId":112,"RouteVarId":224,"StationCode":"Q7 078","StationName":"Ngã 3 Tân Quy","pathPoints":"106.70119476,10.74121380 106.70134735,10.74237347 106.70156860,10.74353790 106.70168304,10.74394417","Address":"458B, đường Nguyễn Hữu Thọ, Quận 7","Lat":10.744229,"Lng":106.701708,"K":0},{"StationId":1251,"StationOrder":28,"StationDirection":0,"RouteId":112,"RouteVarId":224,"StationCode":"Q7 079","StationName":"Cầu Kinh Tẻ","pathPoints":"106.70168304,10.74394417 106.70194244,10.74558830 106.70226288,10.74683189","Address":"Đối diện 44/9, đường Nguyễn Hữu Thọ, Quận 7","Lat":10.746832,"Lng":106.702266,"K":0},{"StationId":4424,"StationOrder":29,"StationDirection":0,"RouteId":112,"RouteVarId":224,"StationCode":"Q4 015","StationName":"Hồ Bơi Quận 4","pathPoints":"106.70226288,10.74683189 106.70224762,10.74761200 106.70246124,10.74910355 106.70242310,10.75022602 106.70233917,10.75137520 106.70201111,10.75498009 106.70181274,10.75534916 106.70083618,10.75660896 106.70070648,10.75686741","Address":"120-122, đường Khánh Hội, Quận 4","Lat":10.756867,"Lng":106.700705,"K":0},{"StationId":1250,"StationOrder":30,"StationDirection":0,"RouteId":112,"RouteVarId":224,"StationCode":"Q4 016","StationName":"Chung cư Tân Vĩnh","pathPoints":"106.70070648,10.75686741 106.69989777,10.75788403 106.69931793,10.75872707","Address":"202-204, đường Khánh Hội, Quận 4","Lat":10.758727,"Lng":106.699315,"K":0},{"StationId":1253,"StationOrder":31,"StationDirection":0,"RouteId":112,"RouteVarId":224,"StationCode":"Q4 011","StationName":"Hoàng Diệu","pathPoints":"106.69931793,10.75872707 106.69861603,10.75960159 106.69931793,10.76008224","Address":"303-305, đường Hoàng Diệu, Quận 4","Lat":10.760082,"Lng":106.699321,"K":0},{"StationId":1379,"StationOrder":32,"StationDirection":0,"RouteId":112,"RouteVarId":224,"StationCode":"Q1 120","StationName":"Cầu Ông Lãnh","pathPoints":"106.69931793,10.76008224 106.70055389,10.76102543 106.69967651,10.76223660 106.69873810,10.76320171 106.69787598,10.76402855 106.69744110,10.76470852 106.69686127,10.76574135 106.69660950,10.76625347","Address":"82 - 84, đường Nguyễn Thái Học, Quận 1","Lat":10.766253,"Lng":106.696612,"K":0},{"StationId":7274,"StationOrder":33,"StationDirection":0,"RouteId":112,"RouteVarId":224,"StationCode":"Q1 188","StationName":"Nguyễn Thị Nghĩa","pathPoints":"106.69660950,10.76625347 106.69418335,10.77024174 106.69349670,10.76995182","Address":"94-96, đường Lê Lai, Quận 1","Lat":10.769952,"Lng":106.693495,"K":0},{"StationId":7275,"StationOrder":34,"StationDirection":0,"RouteId":112,"RouteVarId":224,"StationCode":"Q1 189","StationName":"Tôn Thất Tùng","pathPoints":"106.69349670,10.76995182 106.69349670,10.76989460 106.69046783,10.76876068","Address":"202-204, đường Lê Lai, Quận 1","Lat":10.768761,"Lng":106.690469,"K":0},{"StationId":35,"StationOrder":35,"StationDirection":0,"RouteId":112,"RouteVarId":224,"StationCode":"BX 01","StationName":"TĐH xe buýt Sài Gòn","pathPoints":"106.69046783,10.76876068 106.69050598,10.76870823 106.68921661,10.76814461 106.68936157,10.76767635","Address":"TĐH xe buýt Sài Gòn- CV 23/9, đường Lê Lai, Quận 1","Lat":10.767676,"Lng":106.689362,"K":0},{"StationId":35,"StationOrder":0,"StationDirection":1,"RouteId":112,"RouteVarId":223,"StationCode":"BX 01","StationName":"TĐH xe buýt Sài Gòn","pathPoints":"","Address":"TĐH xe buýt Sài Gòn- CV 23/9, đường Lê Lai, Quận 1","Lat":10.767676,"Lng":106.689362,"K":0},{"StationId":7276,"StationOrder":1,"StationDirection":1,"RouteId":112,"RouteVarId":223,"StationCode":"Q1 190","StationName":"Tôn Thất Tùng","pathPoints":"106.68936157,10.76767635 106.68936157,10.76767635 106.68955994,10.76720715 106.69089508,10.76772308 106.69094086,10.76766968 106.69094086,10.76766968","Address":"277-279-275Y, đường Phạm Ngũ Lão, Quận 1","Lat":10.76767,"Lng":106.690941,"K":0},{"StationId":7277,"StationOrder":2,"StationDirection":1,"RouteId":112,"RouteVarId":223,"StationCode":"Q1 191","StationName":"Nguyễn Thị Nghĩa","pathPoints":"106.69094086,10.76766968 106.69090271,10.76773357 106.69362640,10.76885128 106.69370270,10.76878834","Address":"187, đường Phạm Ngũ Lão, Quận 1","Lat":10.768788,"Lng":106.693699,"K":0},{"StationId":1451,"StationOrder":3,"StationDirection":1,"RouteId":112,"RouteVarId":223,"StationCode":"Q1 118","StationName":"Trần Hưng Đạo","pathPoints":"106.69370270,10.76878834 106.69370270,10.76878834 106.69460297,10.76917267 106.69498444,10.76846123 106.69498444,10.76846123","Address":"197, đường Nguyễn Thái Học, Quận 1","Lat":10.768461,"Lng":106.694984,"K":0},{"StationId":1344,"StationOrder":4,"StationDirection":1,"RouteId":112,"RouteVarId":223,"StationCode":"Q1 119","StationName":"Cầu Ông Lãnh","pathPoints":"106.69498444,10.76846123 106.69557953,10.76751804 106.69612885,10.76657581","Address":"65G, đường Nguyễn Thái Học, Quận 1","Lat":10.766522,"Lng":106.696156,"K":0},{"StationId":1196,"StationOrder":5,"StationDirection":1,"RouteId":112,"RouteVarId":223,"StationCode":"Q4 010","StationName":"Hoàng Diệu","pathPoints":"106.69615936,10.76652241 106.69624329,10.76653194 106.69753265,10.76424503 106.69761658,10.76408195 106.69946289,10.76219463 106.69995117,10.76156235 106.70033264,10.76100349 106.69989014,10.76069832 106.69983673,10.76073456","Address":"K48-K50, đường Hoàng Diệu, Quận 4","Lat":10.760735,"Lng":106.699836,"K":0},{"StationId":1194,"StationOrder":6,"StationDirection":1,"RouteId":112,"RouteVarId":223,"StationCode":"Q4 019","StationName":"Khánh Hội","pathPoints":"106.69983673,10.76073456 106.69984436,10.76067734 106.69852448,10.75967026 106.69902039,10.75889969 106.69897461,10.75886440","Address":"Đối diện 220, đường Khánh Hội, Quận 4","Lat":10.758864,"Lng":106.698972,"K":0},{"StationId":1198,"StationOrder":7,"StationDirection":1,"RouteId":112,"RouteVarId":223,"StationCode":"Q4 020","StationName":"Hồ Bơi Quận 4","pathPoints":"106.69897461,10.75886440 106.69979858,10.75780487 106.70058441,10.75672531","Address":"149, đường Khánh Hội, Quận 4","Lat":10.756414,"Lng":106.700817,"K":0},{"StationId":1197,"StationOrder":8,"StationDirection":1,"RouteId":112,"RouteVarId":223,"StationCode":"Q7 068","StationName":"Cầu Kinh Tẻ","pathPoints":"106.70058441,10.75672531 106.70181274,10.75519085 106.70233154,10.75015259 106.70219421,10.74845028","Address":"44/7, đường Nguyễn Hữu Thọ, Quận 7","Lat":10.747496,"Lng":106.70203,"K":0},{"StationId":1201,"StationOrder":9,"StationDirection":1,"RouteId":112,"RouteVarId":223,"StationCode":"Q7 069","StationName":"Ngã 3 Tân Quy","pathPoints":"106.70202637,10.74749565 106.70202637,10.74749565 106.70211792,10.74747562 106.70156097,10.74418640 106.70146942,10.74413395 106.70146942,10.74413395","Address":"2, đường Nguyễn Hữu Thọ, Quận 7","Lat":10.744134,"Lng":106.701472,"K":0},{"StationId":1199,"StationOrder":10,"StationDirection":1,"RouteId":112,"RouteVarId":223,"StationCode":"Q7 070","StationName":"Siêu thị Lotte","pathPoints":"106.70146942,10.74413395 106.70146942,10.74413395 106.70150757,10.74402809 106.70101166,10.74125576 106.70094299,10.74119759 106.70094299,10.74119759","Address":"Đối diện siêu thị Lotte, đường Nguyễn Hữu Thọ, Quận 7","Lat":10.741198,"Lng":106.700946,"K":0},{"StationId":1202,"StationOrder":11,"StationDirection":1,"RouteId":112,"RouteVarId":223,"StationCode":"Q7 071","StationName":"Đại học Cảnh sát","pathPoints":"106.70094299,10.74119759 106.70098114,10.74109840 106.69992065,10.73460484 106.69985199,10.73457336","Address":"Đối diện B10, đường Nguyễn Hữu Thọ, Quận 7","Lat":10.734573,"Lng":106.699852,"K":0},{"StationId":1200,"StationOrder":12,"StationDirection":1,"RouteId":112,"RouteVarId":223,"StationCode":"Q7 072","StationName":"ĐH Tôn Đức Thắng","pathPoints":"106.69985199,10.73457336 106.69989014,10.73433018 106.69985962,10.73377037 106.69992828,10.73258972 106.70001984,10.73188019 106.70005798,10.73159981 106.69998169,10.73159027 106.70000458,10.73141575","Address":"Đối diện 568, đường Nguyễn Hữu Thọ, Quận 7","Lat":10.731416,"Lng":106.700007,"K":0},{"StationId":1204,"StationOrder":13,"StationDirection":1,"RouteId":112,"RouteVarId":223,"StationCode":"Q7 073","StationName":"Trà My","pathPoints":"106.70000458,10.73141575 106.69998169,10.73159027 106.70005798,10.73159981 106.70011902,10.73116970 106.70020294,10.73056030 106.70027924,10.73023987 106.70033264,10.72946644 106.70024109,10.72941875","Address":"645, đường Nguyễn Hữu Thọ, Quận 7","Lat":10.729419,"Lng":106.700243,"K":0},{"StationId":3621,"StationOrder":14,"StationDirection":1,"RouteId":112,"RouteVarId":223,"StationCode":"HNB 104","StationName":"Hoàng Anh Gia Lai 3","pathPoints":"106.70024109,10.72941875 106.70040131,10.72807980 106.70043945,10.72770023 106.70033264,10.72732067 106.70061493,10.72470665 106.70090485,10.72239304 106.70108795,10.72123814 106.70133209,10.72008419","Address":"Chung cư HAGL 3, đường Nguyễn Hữu Thọ, Huyện Nhà Bè","Lat":10.719858,"Lng":106.701429,"K":0},{"StationId":3622,"StationOrder":15,"StationDirection":1,"RouteId":112,"RouteVarId":223,"StationCode":"HNB 105","StationName":"Ngã 3 Phước Lộc","pathPoints":"106.70143127,10.71985817 106.70133209,10.72008419 106.70195770,10.71872997 106.70265961,10.71748638 106.70396423,10.71580982 106.70392609,10.71567154","Address":"Khu dân cư làng đại học, đường Nguyễn Hữu Thọ, Huyện Nhà Bè","Lat":10.715672,"Lng":106.703929,"K":0},{"StationId":3624,"StationOrder":16,"StationDirection":1,"RouteId":112,"RouteVarId":223,"StationCode":"HNB 106","StationName":"Cầu số 1","pathPoints":"106.70392609,10.71567154 106.70404053,10.71572018 106.70647430,10.71233082 106.70645142,10.71220970","Address":"Đối diện Park Premier, đường Nguyễn Hữu Thọ, Huyện Nhà Bè","Lat":10.71221,"Lng":106.706455,"K":0},{"StationId":7068,"StationOrder":17,"StationDirection":1,"RouteId":112,"RouteVarId":223,"StationCode":"HNB_126","StationName":"Làng Đại học Khu B","pathPoints":"106.70645142,10.71220970 106.70645142,10.71220970 106.70659637,10.71220398 106.70800781,10.71030712 106.70791626,10.71015930 106.70791626,10.71015930","Address":"Làng Đại học Khu B, đường Nguyễn Hữu Thọ, Huyện Nhà Bè","Lat":10.710159,"Lng":106.70792,"K":0},{"StationId":3623,"StationOrder":18,"StationDirection":1,"RouteId":112,"RouteVarId":223,"StationCode":"HNB 107","StationName":"Bệnh viện huyện Nhà Bè","pathPoints":"106.70791626,10.71015930 106.70791626,10.71015930 106.70807648,10.71021175 106.70896912,10.70899963 106.70985413,10.70778751 106.70970917,10.70763969 106.70970917,10.70763969","Address":"Bệnh viện huyện Nhà Bè, đường Nguyễn Hữu Thọ, Huyện Nhà Bè","Lat":10.70764,"Lng":106.709712,"K":0},{"StationId":7077,"StationOrder":19,"StationDirection":1,"RouteId":112,"RouteVarId":223,"StationCode":"HNB 133","StationName":"Khu dân cư Galleria","pathPoints":"106.70970917,10.70763969 106.70970917,10.70763969 106.70994568,10.70767689 106.71116638,10.70603180 106.71240234,10.70437717 106.71237946,10.70426559 106.71237946,10.70426559","Address":"Khu dân cư Galleria, đường Nguyễn Hữu Thọ, Huyện Nhà Bè","Lat":10.704266,"Lng":106.712378,"K":0},{"StationId":3628,"StationOrder":20,"StationDirection":1,"RouteId":112,"RouteVarId":223,"StationCode":"HNB 109","StationName":"Bình Xuyên 2","pathPoints":"106.71237946,10.70426559 106.71237946,10.70426559 106.71247101,10.70424461 106.71379089,10.70247936 106.71506500,10.70077705 106.71504974,10.70060253 106.71504974,10.70060253","Address":"Bình Xuyên 2, đường Nguyễn Hữu Thọ, Huyện Nhà Bè","Lat":10.700603,"Lng":106.715049,"K":0},{"StationId":3625,"StationOrder":21,"StationDirection":1,"RouteId":112,"RouteVarId":223,"StationCode":"HNB 108","StationName":"Phạm Hữu Lầu","pathPoints":"106.71504974,10.70060253 106.71610260,10.69927979 106.71685791,10.69814110 106.71710968,10.69756603 106.71741486,10.69680214 106.71781158,10.69553661 106.71799469,10.69446182 106.71811676,10.69360256","Address":"Ngã tư Phạm Hữu Lầu, đường Nguyễn Hữu Thọ, Huyện Nhà Bè","Lat":10.693603,"Lng":106.718118,"K":0},{"StationId":7075,"StationOrder":22,"StationDirection":1,"RouteId":112,"RouteVarId":223,"StationCode":"HNB 131","StationName":"Phú Long","pathPoints":"106.71811676,10.69360256 106.72065735,10.68416214","Address":"Đối diện KDC Phú Long, đường Nguyễn Hữu Thọ, Huyện Nhà Bè","Lat":10.684162,"Lng":106.720655,"K":0},{"StationId":7072,"StationOrder":23,"StationDirection":1,"RouteId":112,"RouteVarId":223,"StationCode":"HNB 128","StationName":"Cầu Phước Kiểng","pathPoints":"106.72065735,10.68416214 106.72222900,10.67783070","Address":"Trụ đèn 158, đường Nguyễn Hữu Thọ, Huyện Nhà Bè","Lat":10.677831,"Lng":106.722232,"K":0},{"StationId":4225,"StationOrder":24,"StationDirection":1,"RouteId":112,"RouteVarId":223,"StationCode":"HNB 110","StationName":"Cầu Bà Chiêm","pathPoints":"106.72222900,10.67783070 106.72222900,10.67783070 106.72313690,10.67415619","Address":"Trụ đèn 176, đường Nguyễn Hữu Thọ, Huyện Nhà Bè","Lat":10.674156,"Lng":106.723139,"K":0},{"StationId":1078,"StationOrder":25,"StationDirection":1,"RouteId":112,"RouteVarId":223,"StationCode":"HNB 112","StationName":"Vòng xoay Long Thới","pathPoints":"106.72329712,10.67350769 106.72416687,10.67008114 106.72425842,10.66931152 106.72479248,10.66736603","Address":"74, đường Nguyễn Văn Tạo, Huyện Nhà Bè","Lat":10.667366,"Lng":106.724791,"K":0},{"StationId":1074,"StationOrder":26,"StationDirection":1,"RouteId":112,"RouteVarId":223,"StationCode":"HNB 073","StationName":"Hàng Tre","pathPoints":"106.72479248,10.66736603 106.72592926,10.66381741","Address":"Đối diện 206, đường Nguyễn Văn Tạo, Huyện Nhà Bè","Lat":10.663817,"Lng":106.725929,"K":0},{"StationId":1076,"StationOrder":27,"StationDirection":1,"RouteId":112,"RouteVarId":223,"StationCode":"HNB 072","StationName":"Trường Long Thới","pathPoints":"106.72592926,10.66381741 106.72817230,10.65677547","Address":"Công an huyện Nhà Bè, đường Nguyễn Văn Tạo, Huyện Nhà Bè","Lat":10.656775,"Lng":106.728176,"K":0},{"StationId":1077,"StationOrder":28,"StationDirection":1,"RouteId":112,"RouteVarId":223,"StationCode":"HNB 071","StationName":"Bệnh viện Nhân Tâm","pathPoints":"106.72817230,10.65677547 106.72943115,10.65289974 106.72943115,10.65289974","Address":"288 (239), đường Nguyễn Văn Tạo, Huyện Nhà Bè","Lat":10.6529,"Lng":106.729431,"K":0},{"StationId":1080,"StationOrder":29,"StationDirection":1,"RouteId":112,"RouteVarId":223,"StationCode":"HNB 070","StationName":"Chợ Bà Chồi","pathPoints":"106.72943115,10.65289974 106.73031616,10.65011692","Address":"372 (Chợ Bà Chồi), đường Nguyễn Văn Tạo, Huyện Nhà Bè","Lat":10.650117,"Lng":106.730316,"K":0},{"StationId":1079,"StationOrder":30,"StationDirection":1,"RouteId":112,"RouteVarId":223,"StationCode":"HNB 069","StationName":"Công ty may Đại Sơn","pathPoints":"106.73031616,10.65011692 106.73103333,10.64779663","Address":"482B, đường Nguyễn Văn Tạo, Huyện Nhà Bè","Lat":10.647491,"Lng":106.731148,"K":0},{"StationId":1085,"StationOrder":31,"StationDirection":1,"RouteId":112,"RouteVarId":223,"StationCode":"HNB 065","StationName":"Ngã tư Long Hậu","pathPoints":"106.73114777,10.64749146 106.73331451,10.64070129 106.73378754,10.63966751 106.73486328,10.63618755 106.73602295,10.63099194","Address":"816, đường Nguyễn Văn Tạo, Huyện Nhà Bè","Lat":10.630992,"Lng":106.736023,"K":0},{"StationId":1084,"StationOrder":32,"StationDirection":1,"RouteId":112,"RouteVarId":223,"StationCode":"HNB 114","StationName":"Thành Công","pathPoints":"106.73602295,10.63099194 106.73602295,10.63099194 106.73664856,10.62853813 106.73712158,10.62616539 106.73712158,10.62616539","Address":"CHVLXD Thành Công, đường Nguyễn Văn Tạo, Huyện Nhà Bè","Lat":10.626165,"Lng":106.737118,"K":0},{"StationId":1087,"StationOrder":33,"StationDirection":1,"RouteId":112,"RouteVarId":223,"StationCode":"HNB 056","StationName":"Giáo xứ Tin Mừng","pathPoints":"106.73712158,10.62616539 106.73712158,10.62616539 106.73742676,10.62541676 106.73766327,10.62394524 106.73793793,10.62240124","Address":"Kế 280 (Cửa sắt Hoàng Cẩn), đường Nguyễn Văn Tạo, Huyện Nhà Bè","Lat":10.622401,"Lng":106.737939,"K":0},{"StationId":1086,"StationOrder":34,"StationDirection":1,"RouteId":112,"RouteVarId":223,"StationCode":"HNB 063","StationName":"Công an xã Hiệp Phước","pathPoints":"106.73793793,10.62240124 106.73852539,10.62001228 106.73892975,10.61828804 106.73901367,10.61738586","Address":"Đối diện cửa hàng Ba Thủy, đường Nguyễn Văn Tạo, Huyện Nhà Bè","Lat":10.617386,"Lng":106.739017,"K":0},{"StationId":1089,"StationOrder":35,"StationDirection":1,"RouteId":112,"RouteVarId":223,"StationCode":"HNB 062","StationName":"Chùa Phước Linh","pathPoints":"106.73901367,10.61738586 106.73941040,10.61530876 106.73954010,10.61236191 106.73995972,10.61005783 106.73998260,10.60953522","Address":"Cột điện 141P, đường Nguyễn Văn Tạo, Huyện Nhà Bè","Lat":10.609535,"Lng":106.739983,"K":0},{"StationId":1091,"StationOrder":36,"StationDirection":1,"RouteId":112,"RouteVarId":223,"StationCode":"HNB 061","StationName":"Nhà Tưởng niệm Liệt sỹ Nhà Bè","pathPoints":"106.73998260,10.60953522 106.74055481,10.60781670 106.74063873,10.60647202 106.74098969,10.60505867 106.74107361,10.60442066","Address":"1/58A, đường Nguyễn Văn Tạo, Huyện Nhà Bè","Lat":10.604421,"Lng":106.741072,"K":0},{"StationId":1088,"StationOrder":37,"StationDirection":1,"RouteId":112,"RouteVarId":223,"StationCode":"BX 71","StationName":"Hiệp Phước","pathPoints":"106.74107361,10.60442066 106.74126434,10.60383034 106.74149323,10.60294437 106.74160004,10.60248089 106.74163818,10.60215378","Address":"Bến Hiệp Phước, đường Nguyễn Văn Tạo, Huyện Nhà Bè","Lat":10.602154,"Lng":106.741635,"K":0}]